[{"region_info":{"lat":"52.2345","lng":"21.0024","zoom":"11","name":"VETURILO Poland","hotline":"+4819115","domain":"vp","country":"PL","country_name":"Poland","terms":"http:\/\/www.veturilo.waw.pl\/terms\/?v=201701","policy":"","website":"http:\/\/www.veturilo.waw.pl\/","show_free_racks":"1","booked_bikes":"0","set_point_bikes":"5283","available_bikes":"4851"},"places_summary":{"lngMin":20.8689688,"lngMax":21.120087,"latMin":52.117285,"latMax":52.3485329,"lngAvg":21.007690315583,"latAvg":52.230685682774},"places":[{"uid":"2585259","lat":"52.296298","lng":"20.9583575","name":"Dewajtis - UKSW","spot":"1","number":"9402","bikes":"21","bike_racks":"30","free_racks":"9","terminal_type":"7inch","bike_numbers":"24846,24682,24513,24509,28478,28401,27217,26649,26632,26338,26242,25848,25460,29428,29128,28911,96337,96153,29188,29154,96584","bike_types":{"4":20,"0":1},"place_type":"0","rack_locks":"1"},{"uid":"2585263","lat":"52.2909738","lng":"20.9295559","name":"Metro M\u0142ociny","spot":"1","number":"9403","bikes":"22","bike_racks":"30","free_racks":"9","terminal_type":"7inch","bike_numbers":"24036,28483,28395,28072,27612,27548,27537,27445,27239,27143,27098,26582,26579,26225,25472,25400,25305,96531,96248,29162,29211,96591","bike_types":{"54":1,"4":21},"place_type":"0","rack_locks":"1"},{"uid":"2585265","lat":"52.2901732","lng":"20.9503698","name":"Marymoncka - Dewajtis","spot":"1","number":"9404","bikes":"16","bike_racks":"30","free_racks":"14","terminal_type":"7inch","bike_numbers":"24724,28645,28634,28601,28370,28217,27296,27273,26991,26278,25734,25544,25070,29088,28958,96293","bike_types":{"4":16},"place_type":"0","rack_locks":"1"},{"uid":"2585267","lat":"52.285914","lng":"20.940561","name":"Metro Wawrzyszew","spot":"1","number":"9405","bikes":"16","bike_racks":"20","free_racks":"4","terminal_type":"7inch","bike_numbers":"24648,28130,28065,27145,26591,26563,26461,26199,25461,25394,25271,25036,96032,96448,96268,96170","bike_types":{"4":16},"place_type":"0","rack_locks":"1"},{"uid":"2585269","lat":"52.2336142","lng":"21.0146353","name":"G\u00f3rskiego - Szpitalna","spot":"1","number":"9406","bikes":"12","bike_racks":"16","free_racks":"4","terminal_type":"7inch","bike_numbers":"24971,24637,28732,28644,28303,27976,27590,26128,25699,25130,96038,96017","bike_types":{"4":12},"place_type":"0","rack_locks":"1"},{"uid":"2585271","lat":"52.2816265","lng":"20.9498871","name":"Metro Stare Bielany","spot":"1","number":"9407","bikes":"18","bike_racks":"30","free_racks":"13","terminal_type":"7inch","bike_numbers":"24730,28743,28707,28617,28073,28007,27245,27110,27038,25468,25322,29090,28871,96546,96513,96375,96263,96090","bike_types":{"4":18},"place_type":"0","rack_locks":"1"},{"uid":"2585272","lat":"52.2361217","lng":"21.0219096","name":"Ordynacka - Uniwersytet Muzyczny","spot":"1","number":"9408","bikes":"15","bike_racks":"20","free_racks":"5","terminal_type":"7inch","bike_numbers":"24755,24595,28724,28654,28011,27704,27501,27377,27000,26944,26796,25499,96049,96370,96168","bike_types":{"4":15},"place_type":"0","rack_locks":"1"},{"uid":"2585273","lat":"52.2768774","lng":"20.9481302","name":"Bielany-Ratusz","spot":"1","number":"9409","bikes":"16","bike_racks":"28","free_racks":"12","terminal_type":"7inch","bike_numbers":"24690,28901,27990,27966,27801,27514,27480,27092,26968,26539,26294,25399,25358,96047,96505,96172","bike_types":{"4":16},"place_type":"0","rack_locks":"1"},{"uid":"2585275","lat":"52.2761569","lng":"20.9616673","name":"Metro S\u0142odowiec","spot":"1","number":"9410","bikes":"16","bike_racks":"30","free_racks":"14","terminal_type":"7inch","bike_numbers":"24847,24783,28757,28680,27678,27509,27350,26749,26475,26363,25407,25191,96458,96374,96332,29173","bike_types":{"4":16},"place_type":"0","rack_locks":"1"},{"uid":"2585278","lat":"52.2777751","lng":"20.9856999","name":"Potocka - OSiR \u017boliborz","spot":"1","number":"9411","bikes":"10","bike_racks":"15","free_racks":"5","terminal_type":"7inch","bike_numbers":"24906,24523,28869,28155,27128,26607,26270,26177,25422,25216","bike_types":{"4":10},"place_type":"0","rack_locks":"1"},{"uid":"2585280","lat":"52.273527782989","lng":"20.994186401367","name":"Gwia\u017adzista - Promyka","spot":"1","number":"9412","bikes":"10","bike_racks":"16","free_racks":"6","terminal_type":"7inch","bike_numbers":"27903,27573,27257,27078,26784,26558,26466,26030,25477,96443","bike_types":{"4":10},"place_type":"0","rack_locks":"1"},{"uid":"2585281","lat":"52.270941","lng":"20.9326269","name":"al. Reymonta - Conrada","spot":"1","number":"9413","bikes":"25","bike_racks":"30","free_racks":"5","terminal_type":"7inch","bike_numbers":"24930,24824,28876,28577,28539,28138,27955,27924,27661,27638,27468,27396,27132,26977,26774,26513,25991,25872,25727,25614,25484,25142,28976,29161,29152","bike_types":{"4":25},"place_type":"0","rack_locks":"1"},{"uid":"2585283","lat":"52.2706441","lng":"20.9504181","name":"Broniewskiego - Perzy\u0144skiego","spot":"1","number":"9414","bikes":"18","bike_racks":"16","free_racks":"0","terminal_type":"7inch","bike_numbers":"24907,24843,24028,24026,24024,24004,27768,27671,27656,27348,26265,26181,26135,25956,25897,96002,96496,96121","bike_types":{"4":14,"26":4},"place_type":"0","rack_locks":"1"},{"uid":"2585284","lat":"52.2714203","lng":"20.9727099","name":"Metro Marymont","spot":"1","number":"9415","bikes":"21","bike_racks":"30","free_racks":"9","terminal_type":"7inch","bike_numbers":"24931,24628,24592,28763,27640,27390,27123,26927,26465,26259,26238,26100,25364,29061,29026,29434,28962,96013,96406,96392,96166","bike_types":{"4":21},"place_type":"0","rack_locks":"1"},{"uid":"2585285","lat":"52.2694081","lng":"20.9833664","name":"Metro Plac Wilsona","spot":"1","number":"9416","bikes":"15","bike_racks":"21","free_racks":"6","terminal_type":"7inch","bike_numbers":"24660,24638,28737,28037,27386,27380,27074,26895,26887,26734,25619,29368,96307,96225,29282","bike_types":{"4":15},"place_type":"0","rack_locks":"1"},{"uid":"2585286","lat":"52.2668623","lng":"20.9637032","name":"Broniewskiego - W\u0142o\u015bcia\u0144ska","spot":"1","number":"9417","bikes":"16","bike_racks":"19","free_racks":"3","terminal_type":"7inch","bike_numbers":"24891,24536,28759,28633,28363,27703,27550,27104,26283,25869,25714,25568,29444,29125,96418,96160","bike_types":{"4":15,"0":1},"place_type":"0","rack_locks":"1"},{"uid":"2585288","lat":"52.2643984","lng":"20.9723179","name":"Broniewskiego - Krasi\u0144skiego","spot":"1","number":"9418","bikes":"12","bike_racks":"16","free_racks":"4","maintenance":"1","terminal_type":"7inch","bike_numbers":"24740,28342,28332,26603,26470,26377,25738,25676,25081,29551,96214,24050","bike_types":{"4":11,"26":1},"place_type":"0","rack_locks":"1"},{"uid":"2585289","lat":"52.267875","lng":"21.0020667","name":"Wybrze\u017ce Gdy\u0144skie - KS Sp\u00f3jnia","spot":"1","number":"9419","bikes":"13","bike_racks":"15","free_racks":"2","terminal_type":"7inch","bike_numbers":"24966,28533,28410,28079,27807,27686,27673,26912,26798,26285,29065,29127,29228","bike_types":{"4":12,"0":1},"place_type":"0","rack_locks":"1"},{"uid":"2585291","lat":"52.2624054","lng":"20.9802551","name":"Plac Grunwaldzki","spot":"1","number":"9420","bikes":"21","bike_racks":"30","free_racks":"10","terminal_type":"7inch","bike_numbers":"24870,24826,24770,24723,24643,24495,28672,27949,27844,27333,27214,26946,26360,25244,25224,25176,29446,96436,96393,96108,29248","bike_types":{"4":20,"51":1},"place_type":"0","rack_locks":"1"},{"uid":"2585296","lat":"52.2612575","lng":"20.9863191","name":"Zaj\u0105czka - Bitwy Pod Rokitn\u0105","spot":"1","number":"9421","bikes":"9","bike_racks":"15","free_racks":"6","terminal_type":"7inch","bike_numbers":"24015,28021,26971,26725,26492,25408,25324,28827,96235","bike_types":{"26":1,"4":8},"place_type":"0","rack_locks":"1"},{"uid":"2585297","lat":"52.2645018","lng":"20.9895998","name":"Plac Inwalid\u00f3w","spot":"1","number":"9422","bikes":"14","bike_racks":"15","free_racks":"1","terminal_type":"7inch","bike_numbers":"24731,28738,28158,27810,27465,26668,26427,26336,25755,25144,28933,29123,96094,96578","bike_types":{"4":13,"0":1},"place_type":"0","rack_locks":"1"},{"uid":"2585299","lat":"52.258245356688","lng":"20.898613929749","name":"P\u0119tla Stare Bemowo","spot":"1","number":"9423","bikes":"16","bike_racks":"21","free_racks":"5","terminal_type":"7inch","bike_numbers":"24764,24694,28768,28462,27683,27250,26380,25931,25566,25171,25034,29079,28810,28833,96035,96247","bike_types":{"4":16},"place_type":"0","rack_locks":"1"},{"uid":"2585301","lat":"52.260895125763","lng":"20.923923254013","name":"P\u0119tla Nowe Bemowo","spot":"1","number":"9424","bikes":"19","bike_racks":"25","free_racks":"6","terminal_type":"7inch","bike_numbers":"24790,28882,28820,28514,28282,28147,27314,26786,26477,26290,25220,28935,28934,96008,96321,96314,96233,96206,96110","bike_types":{"4":19},"place_type":"0","rack_locks":"1"},{"uid":"2585304","lat":"52.2575903","lng":"20.9323374","name":"Obro\u0144c\u00f3w Tobruku - Pieni\u0105\u017cka","spot":"1","number":"9425","bikes":"9","bike_racks":"12","free_racks":"5","terminal_type":"7inch","bike_numbers":"24485,28568,27231,26872,26758,26481,25401,25293,96354","bike_types":{"51":1,"4":8},"place_type":"0","rack_locks":"1"},{"uid":"2585305","lat":"52.2593225","lng":"20.9605511","name":"Pow\u0105zkowska - Krasi\u0144skiego","spot":"1","number":"9426","bikes":"14","bike_racks":"23","free_racks":"9","terminal_type":"7inch","bike_numbers":"24924,28358,28324,28210,27715,27639,27486,27309,27228,27080,26463,29013,29448,96031","bike_types":{"4":14},"place_type":"0","rack_locks":"1"},{"uid":"2585306","lat":"52.2563145","lng":"20.9682307","name":"Pow\u0105zkowska - Plac Niemena","spot":"1","number":"9427","bikes":"12","bike_racks":"16","free_racks":"4","terminal_type":"7inch","bike_numbers":"24616,28710,28643,28427,28111,27264,26940,25675,28888,96553,96519,96150","bike_types":{"4":12},"place_type":"0","rack_locks":"1"},{"uid":"2585307","lat":"52.258524460024","lng":"20.970931649208","name":"Przasnyska - Rydygiera","spot":"1","number":"9428","bikes":"16","bike_racks":"15","free_racks":"2","terminal_type":"7inch","bike_numbers":"24798,28691,28069,27989,27543,27419,27164,26508,26264,25520,25378,29007,96482,96220,96193,96123","bike_types":{"4":16},"place_type":"0","rack_locks":"1"},{"uid":"2585308","lat":"52.253594","lng":"20.9798744","name":"Pow\u0105zkowska - Burakowska","spot":"1","number":"9429","bikes":"16","bike_racks":"20","free_racks":"4","terminal_type":"7inch","bike_numbers":"24949,24486,27306,27305,27072,26388,26083,25864,25668,25660,25320,25259,25189,25134,96434,96411","bike_types":{"4":15,"51":1},"place_type":"0","rack_locks":"1"},{"uid":"2585311","lat":"52.2576018","lng":"20.9944975","name":"Metro Dworzec Gda\u0144ski","spot":"1","number":"9430","bikes":"21","bike_racks":"30","free_racks":"9","terminal_type":"7inch","bike_numbers":"24898,24859,24652,28727,28723,28593,27500,27235,27181,27172,26833,26533,26401,25746,25634,25235,29054,28840,28993,96015,29190","bike_types":{"4":21},"place_type":"0","rack_locks":"1"},{"uid":"2585315","lat":"52.2465952","lng":"20.9429216","name":"Obozowa - Cio\u0142ka","spot":"1","number":"9432","bikes":"11","bike_racks":"13","free_racks":"1","terminal_type":"7inch","bike_numbers":"24813,28510,28413,27792,27600,27439,26559,26543,25946,25152,96050","bike_types":{"4":11},"place_type":"0","rack_locks":"1"},{"uid":"2585317","lat":"52.227621983552","lng":"20.956758856773","name":"al. Prymasa Tysi\u0105clecia - Kasprzaka","spot":"1","number":"9433","bikes":"15","bike_racks":"23","free_racks":"8","terminal_type":"7inch","bike_numbers":"24655,24576,28476,28457,28296,27765,27055,26776,26675,26299,26215,26099,25369,25188,96136","bike_types":{"4":15},"place_type":"0","rack_locks":"1"},{"uid":"2585319","lat":"52.246037","lng":"20.962463","name":"Obozowa - Radziwie","spot":"1","number":"9434","bikes":"11","bike_racks":"13","free_racks":"2","terminal_type":"7inch","bike_numbers":"24020,24006,28373,28354,27597,26973,26595,26308,26211,26045,96573","bike_types":{"26":2,"4":9},"place_type":"0","rack_locks":"1"},{"uid":"2585321","lat":"52.2514708","lng":"20.9857053","name":"al. Jana Paw\u0142a II - Stawki","spot":"1","number":"9435","bikes":"15","bike_racks":"23","free_racks":"8","terminal_type":"7inch","bike_numbers":"25000,28548,28046,27370,27253,27068,27041,26717,26132,25609,25427,25112,29027,96509,96367","bike_types":{"4":15},"place_type":"0","rack_locks":"1"},{"uid":"2585323","lat":"52.2535305","lng":"20.9924922","name":"Stawki - Dubois","spot":"1","number":"9436","bikes":"6","bike_racks":"13","free_racks":"6","terminal_type":"7inch","bike_numbers":"24683,28438,26562,25615,25227,29155","bike_types":{"4":6},"place_type":"0","rack_locks":"1"},{"uid":"2585326","lat":"52.2541702","lng":"20.9980649","name":"Andersa - Muranowska","spot":"1","number":"9437","bikes":"23","bike_racks":"30","free_racks":"7","terminal_type":"7inch","bike_numbers":"24884,24805,24671,24668,28348,27459,26926,26704,26691,25796,25654,25598,29349,29031,29426,28918,96534,96432,96274,96173,29276,29263,29225","bike_types":{"4":23},"place_type":"0","rack_locks":"1"},{"uid":"2585327","lat":"52.255877","lng":"21.0099819","name":"Sanguszki - Wybrze\u017ce Gda\u0144skie","spot":"1","number":"9438","bikes":"20","bike_racks":"28","free_racks":"10","terminal_type":"7inch","bike_numbers":"24980,24865,24864,24848,28602,28285,27617,27356,26785,26773,26455,25785,25719,25530,25253,29348,28856,96201,29274,29249","bike_types":{"4":20},"place_type":"0","rack_locks":"1"},{"uid":"2585330","lat":"52.24418","lng":"20.97794","name":"Okopowa - Anielewicza","spot":"1","number":"9440","bikes":"9","bike_racks":"20","free_racks":"11","terminal_type":"7inch","bike_numbers":"24728,28677,28444,26809,26482,26413,26144,25721,28838","bike_types":{"4":9},"place_type":"0","rack_locks":"1"},{"uid":"2585333","lat":"52.2486","lng":"20.98352","name":"Smocza - Mi\u0142a","spot":"1","number":"9441","bikes":"10","bike_racks":"15","free_racks":"5","terminal_type":"7inch","bike_numbers":"24976,24019,24001,28116,27748,26839,26608,25887,25230,25040","bike_types":{"4":8,"26":2},"place_type":"0","rack_locks":"1"},{"uid":"2585334","lat":"52.24616","lng":"20.98538","name":"Smocza - Anielewicza","spot":"1","number":"9442","bikes":"17","bike_racks":"17","free_racks":"0","terminal_type":"7inch","bike_numbers":"24995,27918,27900,27857,27470,27443,26864,26239,25880,25585,25128,25038,29345,29122,96300,29227,24048","bike_types":{"4":15,"0":1,"26":1},"place_type":"0","rack_locks":"1"},{"uid":"2585335","lat":"52.247226","lng":"20.9893155","name":"al. Jana Paw\u0142a II - Anielewicza","spot":"1","number":"9443","bikes":"13","bike_racks":"22","free_racks":"9","terminal_type":"7inch","bike_numbers":"24853,28504,28267,28133,27922,27730,27395,27009,26618,25202,25077,25071,96501","bike_types":{"4":13},"place_type":"0","rack_locks":"1"},{"uid":"2585337","lat":"52.249052","lng":"20.9948923","name":"Anielewicza - Zamenhofa","spot":"1","number":"9444","bikes":"8","bike_racks":"15","free_racks":"7","terminal_type":"7inch","bike_numbers":"24659,28486,27887,26810,26223,26131,25605,96514","bike_types":{"4":8},"place_type":"0","rack_locks":"1"},{"uid":"2585338","lat":"52.2492196","lng":"20.9971878","name":"Anielewicza - Andersa","spot":"1","number":"9445","bikes":"15","bike_racks":"20","free_racks":"5","terminal_type":"7inch","bike_numbers":"24831,28801,28678,28534,27860,27075,26488,25819,25753,25651,25405,25353,29644,29141,96100","bike_types":{"4":14,"0":1},"place_type":"0","rack_locks":"1"},{"uid":"2585340","lat":"52.251549","lng":"21.002749","name":"Bonifraterska - Franciszka\u0144ska","spot":"1","number":"9446","bikes":"11","bike_racks":"16","free_racks":"5","terminal_type":"7inch","bike_numbers":"28715,28030,27980,27880,27429,27106,25572,25309,25212,25029,96585","bike_types":{"4":11},"place_type":"0","rack_locks":"1"},{"uid":"2585342","lat":"52.2541119","lng":"21.0093342","name":"Ko\u015bcielna - Piesza","spot":"1","number":"9448","bikes":"25","bike_racks":"26","free_racks":"1","terminal_type":"7inch","bike_numbers":"24838,24623,28754,27992,27706,27109,26652,26544,26421,26353,25878,25471,25464,28992,29421,29129,29134,25961,96033,96456,96454,96386,96178,96101,29262","bike_types":{"4":24,"0":1},"place_type":"0","rack_locks":"1"},{"uid":"2585344","lat":"52.2392622","lng":"20.8987641","name":"P\u0119tla Os. G\u00f3rczewska","spot":"1","number":"9449","bikes":"11","bike_racks":"15","free_racks":"4","terminal_type":"7inch","bike_numbers":"24591,28042,27497,25661,25640,25304,25241,96273,96271,96159,29221","bike_types":{"4":11},"place_type":"0","rack_locks":"1"},{"uid":"2585345","lat":"52.2389287","lng":"20.9139535","name":"Bemowo-Ratusz","spot":"1","number":"9450","bikes":"11","bike_racks":"20","free_racks":"10","terminal_type":"7inch","bike_numbers":"24835,27771,27665,27425,26633,26013,25805,25801,25781,25553,25105","bike_types":{"4":11},"place_type":"0","rack_locks":"1"},{"uid":"2585346","lat":"52.2387861","lng":"20.9424946","name":"Okocimska - Olbrachta","spot":"1","number":"9451","bikes":"10","bike_racks":"18","free_racks":"8","terminal_type":"7inch","bike_numbers":"24736,24567,27676,27531,26906,26156,25889,29051,28895,96518","bike_types":{"4":10},"place_type":"0","rack_locks":"1"},{"uid":"2585349","lat":"52.2506241","lng":"21.0533611","name":"Dworzec Wschodni - Lubelska","spot":"1","number":"9452","bikes":"10","bike_racks":"15","free_racks":"5","terminal_type":"7inch","bike_numbers":"24787,24583,28741,28102,27444,26794,26665,26414,96334,96229","bike_types":{"4":10},"place_type":"0","rack_locks":"1"},{"uid":"2585351","lat":"52.2369249","lng":"20.9723559","name":"Leszno - M\u0142ynarska","spot":"1","number":"9453","bikes":"17","bike_racks":"30","free_racks":"13","terminal_type":"7inch","bike_numbers":"24753,24646,24474,24023,28517,28489,26840,26136,25983,25621,25618,25332,25306,29459,25624,96566,96147","bike_types":{"4":15,"51":1,"26":1},"place_type":"0","rack_locks":"1"},{"uid":"2585352","lat":"52.2430451","lng":"20.9803864","name":"Dzielna - Bellottiego","spot":"1","number":"9454","bikes":"8","bike_racks":"13","free_racks":"5","terminal_type":"7inch","bike_numbers":"28626,27823,27447,26462,25778,25082,96500,96384","bike_types":{"4":8},"place_type":"0","rack_locks":"1"},{"uid":"2585353","lat":"52.24108","lng":"20.98316","name":"Wolno\u015b\u0107 - Bellottiego","spot":"1","number":"9455","bikes":"11","bike_racks":"16","free_racks":"5","terminal_type":"7inch","bike_numbers":"25004,28074,27624,27460,26999,26778,26536,25749,25516,29067,96171","bike_types":{"4":11},"place_type":"0","rack_locks":"1"},{"uid":"2585354","lat":"52.2435448","lng":"20.9873507","name":"Smocza - Nowolipki","spot":"1","number":"9456","bikes":"15","bike_racks":"16","free_racks":"1","terminal_type":"7inch","bike_numbers":"24675,24550,28157,26963,26800,26790,26483,26412,26275,25893,25802,25522,25308,25145,96236","bike_types":{"4":15},"place_type":"0","rack_locks":"1"},{"uid":"2585356","lat":"52.2445767","lng":"20.99177","name":"al. Jana Paw\u0142a II - Nowolipki","spot":"1","number":"9457","bikes":"12","bike_racks":"16","free_racks":"4","terminal_type":"7inch","bike_numbers":"24681,27603,27415,27274,27216,26888,26752,26480,26407,26127,25511,96427","bike_types":{"4":12},"place_type":"0","rack_locks":"1"},{"uid":"2585358","lat":"52.22868","lng":"20.91509","name":"Powsta\u0144c\u00f3w \u015al\u0105skich - Cz\u0142uchowska","spot":"1","number":"9458","bikes":"13","bike_racks":"16","free_racks":"2","terminal_type":"7inch","bike_numbers":"24751,24507,28772,28664,27625,26439,26124,25355,29086,28924,28847,96503,29185","bike_types":{"4":13},"place_type":"0","rack_locks":"1"},{"uid":"2585360","lat":"52.2342032","lng":"20.934689","name":"Jana Olbrachta - Antka Rozpylacza","spot":"1","number":"9459","bikes":"6","bike_racks":"13","free_racks":"7","terminal_type":"7inch","bike_numbers":"24935,26286,28808,96378,29186,29277","bike_types":{"4":6},"place_type":"0","rack_locks":"1"},{"uid":"2585364","lat":"52.2401623","lng":"20.9877277","name":"Wola-Ratusz","spot":"1","number":"9460","bikes":"8","bike_racks":"15","free_racks":"6","terminal_type":"7inch","bike_numbers":"24635,24609,28501,27503,26622,26037,96373,96278","bike_types":{"4":8},"place_type":"0","rack_locks":"1"},{"uid":"2585368","lat":"52.2445326","lng":"20.99998","name":"Plac Bankowy - Kino Muran\u00f3w","spot":"1","number":"9462","bikes":"6","bike_racks":"17","free_racks":"6","terminal_type":"7inch","bike_numbers":"24961,28615,28525,28212,27788,26682,26502,26164,26005,25488,25411","bike_types":{"4":11},"place_type":"0","rack_locks":"1"},{"uid":"2585369","lat":"52.2449465","lng":"21.0012943","name":"Andersa - D\u0142uga","spot":"1","number":"9463","bikes":"20","bike_racks":"30","free_racks":"11","terminal_type":"7inch","bike_numbers":"24897,28687,28375,26964,26894,26879,26554,26549,26438,26428,26406,25620,25476,28883,96506,96445,96281,96260,96143,29261","bike_types":{"4":20},"place_type":"0","rack_locks":"1"},{"uid":"2585370","lat":"52.2442666","lng":"21.0015893","name":"Marsza\u0142kowska - al. Solidarno\u015bci","spot":"1","number":"9464","bikes":"23","bike_racks":"30","free_racks":"7","terminal_type":"7inch","bike_numbers":"24820,24738,24546,28674,28665,27862,27685,27610,27018,26605,26282,26212,26157,26087,25974,25565,25098,29103,28954,96547,96527,96408,96230","bike_types":{"4":23},"place_type":"0","rack_locks":"1"},{"uid":"2585371","lat":"52.2431975","lng":"21.0016603","name":"Plac Bankowy - Ratusz","spot":"1","number":"9465","bikes":"22","bike_racks":"30","free_racks":"8","terminal_type":"7inch","bike_numbers":"24920,24741,24482,25008,28726,28485,28132,28004,27173,26486,25760,25723,25718,25606,25578,25444,25319,25260,25155,25124,28969,96343","bike_types":{"4":21,"51":1},"place_type":"0","rack_locks":"1"},{"uid":"2585373","lat":"52.2435719","lng":"21.0066801","name":"Senatorska - Biela\u0144ska","spot":"1","number":"9466","bikes":"13","bike_racks":"17","free_racks":"5","terminal_type":"7inch","bike_numbers":"24517,28575,28472,28459,28439,28029,27094,26527,26389,26015,89809,29435,96366","bike_types":{"4":13},"place_type":"0","rack_locks":"1"},{"uid":"2585377","lat":"52.246314509834","lng":"21.0113042593","name":"Miodowa","spot":"1","number":"9467","bikes":"14","bike_racks":"24","free_racks":"12","terminal_type":"7inch","bike_numbers":"24908,24729,28544,27432,27367,27268,26743,25960,25183,29056,96551,96543,96385,29264","bike_types":{"4":14},"place_type":"0","rack_locks":"1"},{"uid":"2585378","lat":"52.2435965","lng":"21.0140803","name":"Krakowskie Przedmie\u015bcie - Tr\u0119backa","spot":"1","number":"9468","bikes":"22","bike_racks":"14","free_racks":"0","terminal_type":"7inch","bike_numbers":"24585,28494,27950,27902,27737,27584,27504,27379,27375,27126,26939,26616,26198,26118,25710,29043,28916,28835,96014,96350,96207,96113","bike_types":{"4":22},"place_type":"0","rack_locks":"1"},{"uid":"2585379","lat":"52.2465625","lng":"21.0174345","name":"Mariensztat","spot":"1","number":"9469","bikes":"9","bike_racks":"15","free_racks":"6","terminal_type":"7inch","bike_numbers":"24845,24541,28588,27759,25264,96540,96538,96197,96165","bike_types":{"4":9},"place_type":"0","rack_locks":"1"},{"uid":"2585381","lat":"52.224934","lng":"20.945489","name":"Jana Kazimierza - Giz\u00f3w","spot":"1","number":"9471","bikes":"7","bike_racks":"13","free_racks":"6","terminal_type":"7inch","bike_numbers":"28488,28272,27774,27022,28979,96275,96122","bike_types":{"4":7},"place_type":"0","rack_locks":"1"},{"uid":"2585385","lat":"52.23016","lng":"20.951558","name":"Wolska - Elekcyjna","spot":"1","number":"9472","bikes":"16","bike_racks":"20","free_racks":"7","terminal_type":"7inch","bike_numbers":"24722,24612,28142,27711,27299,26953,26452,26381,26040,26017,25939,25671,25303,25019,28921,96212","bike_types":{"4":16},"place_type":"0","rack_locks":"1"},{"uid":"2585387","lat":"52.237662392829","lng":"20.955492854118","name":"al. Prymasa Tysi\u0105clecia - G\u00f3rczewska","spot":"1","number":"9473","bikes":"17","bike_racks":"20","free_racks":"3","terminal_type":"7inch","bike_numbers":"28682,28320,28213,28012,27948,27148,26955,26865,26762,26494,26449,25927,25060,25041,29436,96016,29239","bike_types":{"4":17},"place_type":"0","rack_locks":"1"},{"uid":"2585389","lat":"52.2333374","lng":"20.9652776","name":"Wolska - P\u0142ocka","spot":"1","number":"9474","bikes":"10","bike_racks":"15","free_racks":"5","terminal_type":"7inch","bike_numbers":"24916,28708,28347,28035,27965,27896,27027,26503,25858,29163","bike_types":{"4":10},"place_type":"0","rack_locks":"1"},{"uid":"2585391","lat":"52.228522296173","lng":"20.969638824463","name":"Kasprzaka - Skierniewicka","spot":"1","number":"9475","bikes":"16","bike_racks":"21","free_racks":"5","terminal_type":"7inch","bike_numbers":"24944,24033,28898,28503,28017,27757,27690,27524,27029,26279,25339,25278,29041,96311,96222,96163","bike_types":{"4":15,"26":1},"place_type":"0","rack_locks":"1"},{"uid":"2585394","lat":"52.22898","lng":"20.97843","name":"Kasprzaka - Karolkowa","spot":"1","number":"9476","bikes":"11","bike_racks":"15","free_racks":"4","terminal_type":"7inch","bike_numbers":"24769,28599,27997,27318,27272,26826,26746,26498,26093,96419,96085","bike_types":{"4":11},"place_type":"0","rack_locks":"1"},{"uid":"2585396","lat":"52.2328752","lng":"20.9805411","name":"Muzeum Powstania Warszawskiego","spot":"1","number":"9477","bikes":"5","bike_racks":"10","free_racks":"6","terminal_type":"7inch","bike_numbers":"24873,24832,28453,27983,25685","bike_types":{"4":5},"place_type":"0","rack_locks":"1"},{"uid":"2585398","lat":"52.22983","lng":"20.983123","name":"Metro Rondo Daszy\u0144skiego","spot":"1","number":"9478","bikes":"15","bike_racks":"26","free_racks":"11","terminal_type":"7inch","bike_numbers":"24945,24613,24571,27988,27086,26967,26764,26542,25996,25674,25056,29387,25630,28872,96149","bike_types":{"4":15},"place_type":"0","rack_locks":"1"},{"uid":"2585400","lat":"52.23145","lng":"20.98869","name":"Prosta - Wronia","spot":"1","number":"9479","bikes":"10","bike_racks":"15","free_racks":"5","terminal_type":"7inch","bike_numbers":"24492,28570,28345,28106,28015,27481,26893,96027,96238,29279","bike_types":{"51":1,"4":9},"place_type":"0","rack_locks":"1"},{"uid":"2585401","lat":"52.2373141","lng":"20.9888488","name":"\u017belazna - Ch\u0142odna","spot":"1","number":"9480","bikes":"9","bike_racks":"15","free_racks":"6","terminal_type":"7inch","bike_numbers":"27995,27568,26720,25064,29095,25629,96428,96240,96587","bike_types":{"4":9},"place_type":"0","rack_locks":"1"},{"uid":"2585402","lat":"52.2344946","lng":"20.9905117","name":"\u017belazna - Grzybowska","spot":"1","number":"9481","bikes":"14","bike_racks":"20","free_racks":"6","terminal_type":"7inch","bike_numbers":"24849,24584,28694,28425,28329,27964,27321,27289,26852,26712,26079,28846,96003,96473","bike_types":{"4":14},"place_type":"0","rack_locks":"1"},{"uid":"2585405","lat":"52.238666","lng":"20.9957314","name":"al. Jana Paw\u0142a II - Plac Mirowski","spot":"1","number":"9482","bikes":"14","bike_racks":"16","free_racks":"2","terminal_type":"7inch","bike_numbers":"24877,24773,24706,28482,27853,27293,26868,25851,25828,25371,28952,28831,96348,96576","bike_types":{"4":14},"place_type":"0","rack_locks":"1"},{"uid":"2585406","lat":"52.2357151","lng":"20.9966071","name":"al. Jana Paw\u0142a II - Grzybowska","spot":"1","number":"9483","bikes":"12","bike_racks":"23","free_racks":"11","terminal_type":"7inch","bike_numbers":"24500,27635,27511,27353,27240,26885,26586,26392,26301,26178,25971,96349","bike_types":{"51":1,"4":11},"place_type":"0","rack_locks":"1"},{"uid":"2585410","lat":"52.23958","lng":"21.00027","name":"Ptasia - Zimna","spot":"1","number":"9485","bikes":"11","bike_racks":"16","free_racks":"5","terminal_type":"7inch","bike_numbers":"24876,28598,27577,27515,27266,26431,26219,25724,25642,29432,24052","bike_types":{"4":10,"26":1},"place_type":"0","rack_locks":"1"},{"uid":"2585412","lat":"52.2336314","lng":"21.0028795","name":"Emilii Plater - \u015awi\u0119tokrzyska","spot":"1","number":"9486","bikes":"21","bike_racks":"26","free_racks":"5","terminal_type":"7inch","bike_numbers":"24792,24565,28397,28379,27780,27720,27687,27252,27208,27135,27100,27082,26890,26159,26090,25644,25441,28877,96423,96096,29206","bike_types":{"4":21},"place_type":"0","rack_locks":"1"},{"uid":"2585413","lat":"52.2358704","lng":"21.0037806","name":"Plac Grzybowski","spot":"1","number":"9487","bikes":"15","bike_racks":"26","free_racks":"11","terminal_type":"7inch","bike_numbers":"24750,28422,28091,28033,27144,27024,27005,26851,26678,26240,26203,25955,96380,29256,29241","bike_types":{"4":15},"place_type":"0","rack_locks":"1"},{"uid":"2585416","lat":"52.2384853","lng":"21.0067552","name":"Marsza\u0142kowska - Kr\u00f3lewska","spot":"1","number":"9488","bikes":"13","bike_racks":"19","free_racks":"6","terminal_type":"7inch","bike_numbers":"24888,24715,27633,26736,26698,26309,25747,25670,25229,25092,29042,25627,28862","bike_types":{"4":13},"place_type":"0","rack_locks":"1"},{"uid":"2585417","lat":"52.2364206","lng":"21.0072407","name":"Marsza\u0142kowska - Zielna","spot":"1","number":"9489","bikes":"14","bike_racks":"30","free_racks":"16","terminal_type":"7inch","bike_numbers":"24802,24564,24560,28268,28093,27125,26490,26454,25773,25554,25540,96507,96135,96583","bike_types":{"4":14},"place_type":"0","rack_locks":"1"},{"uid":"2585420","lat":"52.2397008","lng":"21.0119292","name":"Plac Ma\u0142achowskiego","spot":"1","number":"9491","bikes":"9","bike_racks":"16","free_racks":"9","terminal_type":"7inch","bike_numbers":"27609,27551,26714,26197,26016,26001,25793,25432,96007","bike_types":{"4":9},"place_type":"0","rack_locks":"1"},{"uid":"2585422","lat":"52.2359114","lng":"21.0135654","name":"Plac Powsta\u0144c\u00f3w Warszawy","spot":"1","number":"9492","bikes":"12","bike_racks":"20","free_racks":"8","terminal_type":"7inch","bike_numbers":"24549,28275,28194,27795,26379,26226,25853,25837,96554,96462,96244,29180","bike_types":{"4":12},"place_type":"0","rack_locks":"1"},{"uid":"2585423","lat":"52.2393559","lng":"21.016603","name":"Krakowskie Przedmie\u015bcie - Traugutta","spot":"1","number":"9493","bikes":"13","bike_racks":"24","free_racks":"12","terminal_type":"7inch","bike_numbers":"24999,24883,28699,28553,28531,28359,28076,27499,27262,26256,26162,25552,29231","bike_types":{"4":13},"place_type":"0","rack_locks":"1"},{"uid":"2585429","lat":"52.238298","lng":"21.0184014","name":"Obo\u017ana - Kopernika","spot":"1","number":"9495","bikes":"11","bike_racks":"22","free_racks":"11","terminal_type":"7inch","bike_numbers":"24811,24491,24469,27833,27606,26962,26302,25403,29048,28826,96009","bike_types":{"4":9,"51":2},"place_type":"0","rack_locks":"1"},{"uid":"2585430","lat":"52.24190654256","lng":"21.024259328842","name":"Lipowa - Dobra","spot":"1","number":"9496","bikes":"15","bike_racks":"19","free_racks":"4","terminal_type":"7inch","bike_numbers":"24929,24867,24032,28080,27411,27139,26960,26921,25799,25550,25539,25404,96205,96109,96105","bike_types":{"4":14,"26":1},"place_type":"0","rack_locks":"1"},{"uid":"2585431","lat":"52.2413087","lng":"21.0281727","name":"Centrum Nauki Kopernik","spot":"1","number":"9497","bikes":"17","bike_racks":"30","free_racks":"13","terminal_type":"7inch","bike_numbers":"24903,24642,28549,28352,28291,28276,27913,27010,25555,25467,29072,29445,96026,96450,96352,96277,29270","bike_types":{"4":17},"place_type":"0","rack_locks":"1"},{"uid":"2585432","lat":"52.2264464","lng":"20.9837164","name":"Kolejowa","spot":"1","number":"9498","bikes":"12","bike_racks":"16","free_racks":"4","terminal_type":"7inch","bike_numbers":"24814,28637,26635,26081,25663,25381,25292,29386,29433,29646,96480,96164","bike_types":{"4":12},"place_type":"0","rack_locks":"1"},{"uid":"2585433","lat":"52.22983","lng":"20.993996","name":"\u017belazna - Sienna","spot":"1","number":"9499","bikes":"18","bike_racks":"24","free_racks":"6","terminal_type":"7inch","bike_numbers":"24960,24801,28635,28574,27463,27065,26801,26791,26780,26267,25860,25372,25343,25294,25265,28816,96276,29203","bike_types":{"4":18},"place_type":"0","rack_locks":"1"},{"uid":"2585435","lat":"52.230201297582","lng":"20.999550819397","name":"al. Jana Paw\u0142a II - Z\u0142ota","spot":"1","number":"9500","bikes":"9","bike_racks":"16","free_racks":"7","terminal_type":"7inch","bike_numbers":"27095,25862,25762,25584,25532,25284,29362,96181,29275","bike_types":{"4":9},"place_type":"0","rack_locks":"1"},{"uid":"2585438","lat":"52.2309778","lng":"21.0036755","name":"Emilii Plater - Z\u0142ota","spot":"1","number":"9501","bikes":"23","bike_racks":"30","free_racks":"7","terminal_type":"7inch","bike_numbers":"28819,28608,28310,28264,28152,27908,27186,26989,26986,26859,26740,26531,26184,25992,25981,25827,25638,25270,25093,29023,25626,28967,96467","bike_types":{"4":23},"place_type":"0","rack_locks":"1"},{"uid":"2585440","lat":"52.232816601853","lng":"21.006980538368","name":"Pa\u0142ac Kultury i Nauki","spot":"1","number":"9502","bikes":"10","bike_racks":"17","free_racks":"7","terminal_type":"7inch","bike_numbers":"24478,28477,28445,27697,27007,26378,25729,25311,28875,96523","bike_types":{"51":1,"4":9},"place_type":"0","rack_locks":"1"},{"uid":"2585442","lat":"52.232934","lng":"21.0101791","name":"Marsza\u0142kowska - Z\u0142ota","spot":"1","number":"9503","bikes":"16","bike_racks":"22","free_racks":"6","terminal_type":"7inch","bike_numbers":"24631,28495,27944,27892,27769,27507,27097,26496,25831,25389,25360,25240,25207,96102,29178,29238","bike_types":{"4":16},"place_type":"0","rack_locks":"1"},{"uid":"2585445","lat":"52.231987","lng":"21.016092","name":"Bracka - Krucza","spot":"1","number":"9504","bikes":"16","bike_racks":"20","free_racks":"4","terminal_type":"7inch","bike_numbers":"24762,28685,28523,28319,28045,28001,26947,26914,26808,26754,26322,25525,25032,28945,28813,96315","bike_types":{"4":16},"place_type":"0","rack_locks":"1"},{"uid":"2585446","lat":"52.2355713","lng":"21.0179642","name":"Nowy \u015awiat - Warecka","spot":"1","number":"9505","bikes":"22","bike_racks":"24","free_racks":"2","terminal_type":"7inch","bike_numbers":"24950,24817,24673,28603,27809,27414,26672,26596,26590,26106,26054,25691,25689,25463,25211,25058,96497,96472,96441,96417,96290,96146","bike_types":{"4":22},"place_type":"0","rack_locks":"1"},{"uid":"2585447","lat":"52.2337571","lng":"21.0202789","name":"Ga\u0142czy\u0144skiego - Foksal","spot":"1","number":"9506","bikes":"19","bike_racks":"24","free_racks":"5","terminal_type":"7inch","bike_numbers":"24927,24917,24754,24745,28899,28690,27692,27301,27156,26970,26816,26772,26020,25895,25696,25438,25214,25175,25043","bike_types":{"4":19},"place_type":"0","rack_locks":"1"},{"uid":"2585450","lat":"52.2375934","lng":"21.0256487","name":"Topiel - Tamka","spot":"1","number":"9507","bikes":"19","bike_racks":"20","free_racks":"1","terminal_type":"7inch","bike_numbers":"24795,28755,28623,28341,28262,27775,27701,26709,26420,25658,25219,25159,29343,28857,96019,96005,96292,96242,96125","bike_types":{"4":19},"place_type":"0","rack_locks":"1"},{"uid":"2585452","lat":"52.2358752","lng":"21.0317323","name":"Solec - Jaracza","spot":"1","number":"9508","bikes":"16","bike_racks":"15","free_racks":"0","terminal_type":"7inch","bike_numbers":"24940,24735,28559,27653,27464,27259,27117,26662,26069,25538,25413,25011,28919,28891,96463,96309","bike_types":{"4":16},"place_type":"0","rack_locks":"1"},{"uid":"2585453","lat":"52.2218874","lng":"20.9795301","name":"al. Jerozolimskie - Niemcewicza","spot":"1","number":"9509","bikes":"12","bike_racks":"19","free_racks":"7","terminal_type":"7inch","bike_numbers":"24602,24461,28596,27723,27440,27127,26867,26830,26474,25761,25678,96542","bike_types":{"4":11,"51":1},"place_type":"0","rack_locks":"1"},{"uid":"2585455","lat":"52.2222155","lng":"20.9866293","name":"Ochota-Ratusz","spot":"1","number":"9510","bikes":"18","bike_racks":"23","free_racks":"5","terminal_type":"7inch","bike_numbers":"24894,24857,24732,28300,27915,27183,27044,26728,26343,26342,26071,25317,25012,29005,29454,96510,96099,29168","bike_types":{"4":18},"place_type":"0","rack_locks":"1"},{"uid":"2585457","lat":"52.2249718","lng":"20.9897661","name":"Plac Zawiszy","spot":"1","number":"9511","bikes":"20","bike_racks":"24","free_racks":"4","terminal_type":"7inch","bike_numbers":"24861,28697,28259,27168,26935,26739,26564,26450,26437,26078,26063,25363,25327,29028,28936,29639,28996,96562,96114,29254","bike_types":{"4":20},"place_type":"0","rack_locks":"1"},{"uid":"2585460","lat":"52.22626","lng":"20.9961309","name":"al. Jerozolimskie - Lindleya","spot":"1","number":"9512","bikes":"8","bike_racks":"15","free_racks":"7","terminal_type":"7inch","bike_numbers":"24487,28902,28493,27426,27409,29021,96023,96397","bike_types":{"51":1,"4":7},"place_type":"0","rack_locks":"1"},{"uid":"2585462","lat":"52.2241455","lng":"20.9975244","name":"Lindleya - szpital","spot":"1","number":"9513","bikes":"26","bike_racks":"28","free_racks":"2","terminal_type":"7inch","bike_numbers":"24925,24734,24719,28579,28430,28196,27941,27832,27529,27315,27302,27192,26910,26624,26585,26545,26516,26192,26072,25948,25694,25395,29073,96528,96124,29207","bike_types":{"4":26},"place_type":"0","rack_locks":"1"},{"uid":"2585464","lat":"52.227861","lng":"21.0008509","name":"Warszawa \u015ar\u00f3dmie\u015bcie WKD","spot":"1","number":"9514","bikes":"14","bike_racks":"18","free_racks":"10","terminal_type":"7inch","bike_numbers":"24718,24670,24593,24521,24520,26765,26687,26598,26049,25923,25290,29014,96455,96435","bike_types":{"4":14},"place_type":"0","rack_locks":"1"},{"uid":"2585466","lat":"52.2249555","lng":"21.0031664","name":"Oczki - WUM","spot":"1","number":"9515","bikes":"16","bike_racks":"19","free_racks":"3","terminal_type":"7inch","bike_numbers":"24860,24691,28753,28695,28585,28474,27382,26981,26555,26141,25967,25237,29063,28912,29656,96511","bike_types":{"4":16},"place_type":"0","rack_locks":"1"},{"uid":"2585469","lat":"52.2290464","lng":"21.0054544","name":"Emilii Plater - Al. Jerozolimskie","spot":"1","number":"9517","bikes":"21","bike_racks":"30","free_racks":"9","terminal_type":"7inch","bike_numbers":"24933,24878,25006,28764,28662,28529,28479,28389,28025,27452,27248,27059,26702,26457,26325,25824,25534,29012,96390,96134,29224","bike_types":{"4":21},"place_type":"0","rack_locks":"1"},{"uid":"2585470","lat":"52.2259343","lng":"21.0067537","name":"Emilii Plater - Wsp\u00f3lna","spot":"1","number":"9518","bikes":"11","bike_racks":"15","free_racks":"4","terminal_type":"7inch","bike_numbers":"24866,28552,28446,28064,27473,27387,26860,26422,26362,25705,96372","bike_types":{"4":11},"place_type":"0","rack_locks":"1"},{"uid":"2585472","lat":"52.23001","lng":"21.01088","name":"Metro Centrum","spot":"1","number":"9519","bikes":"14","bike_racks":"30","free_racks":"17","terminal_type":"7inch","bike_numbers":"57033,24965,28131,27651,27645,27263,26972,26394,25604,25601,25473,25010,29144,96117","bike_types":{"4":13,"0":1},"place_type":"0","rack_locks":"1"},{"uid":"2585473","lat":"52.229347019086","lng":"21.011314988136","name":"Marsza\u0142kowska - Al. Jerozolimskie","spot":"1","number":"9520","bikes":"18","bike_racks":"24","free_racks":"5","terminal_type":"7inch","bike_numbers":"24983,28464,28398,28263,27510,27372,27066,26985,26824,26634,26066,25849,25643,25612,25551,25547,60845,96545","bike_types":{"4":18},"place_type":"0","rack_locks":"1"},{"uid":"2585476","lat":"52.230418150276","lng":"21.013610959053","name":"al. Jerozolimskie - rejon Rotundy","spot":"1","number":"9521","bikes":"19","bike_racks":"24","free_racks":"5","terminal_type":"7inch","bike_numbers":"24574,24463,25009,28620,27658,27657,27526,26993,26532,26358,26028,26003,25990,25258,25044,29352,28970,96058,96131","bike_types":{"4":18,"51":1},"place_type":"0","rack_locks":"1"},{"uid":"2585477","lat":"52.2262882","lng":"21.0135705","name":"Marsza\u0142kowska - Ho\u017ca","spot":"1","number":"9522","bikes":"12","bike_racks":"15","free_racks":"6","terminal_type":"7inch","bike_numbers":"24979,24834,28313,27652,26990,26822,26819,26232,25704,25267,96493,96586","bike_types":{"4":12},"place_type":"0","rack_locks":"1"},{"uid":"2585492","lat":"52.2282923","lng":"21.0178542","name":"Krucza - Wsp\u00f3lna","spot":"1","number":"9523","bikes":"18","bike_racks":"28","free_racks":"10","terminal_type":"7inch","bike_numbers":"24964,24622,24525,28745,28468,28387,28294,27667,27462,26847,26171,25811,25447,25169,29107,29447,96571,29255","bike_types":{"4":18},"place_type":"0","rack_locks":"1"},{"uid":"2585684","lat":"52.23144","lng":"21.0213036","name":"Rondo de Gaulle'a","spot":"1","number":"9524","bikes":"16","bike_racks":"22","free_racks":"6","terminal_type":"7inch","bike_numbers":"28622,27731,27707,27338,26976,26067,25962,25418,25354,25147,25125,29091,96398,96389,96169,29234","bike_types":{"4":16},"place_type":"0","rack_locks":"1"},{"uid":"2585694","lat":"52.2278487","lng":"21.0235084","name":"Plac Trzech Krzy\u017cy","spot":"1","number":"9525","bikes":"15","bike_racks":"23","free_racks":"8","maintenance":"1","terminal_type":"7inch","bike_numbers":"24626,24515,28740,28688,28528,27802,27451,27017,26471,26074,25911,25857,25611,29087,96421","bike_types":{"4":15},"place_type":"0","rack_locks":"1"},{"uid":"2585695","lat":"52.23324","lng":"21.0261179","name":"Smolna - PKP Powi\u015ble","spot":"1","number":"9526","bikes":"13","bike_racks":"18","free_racks":"5","terminal_type":"7inch","bike_numbers":"27899,27819,27782,27716,27634,26802,26424,25735,25561,96466,96376,29172,29148","bike_types":{"4":13},"place_type":"0","rack_locks":"1"},{"uid":"2585699","lat":"52.2340191","lng":"21.0300328","name":"Herberta - PKP Powi\u015ble","spot":"1","number":"9527","bikes":"14","bike_racks":"26","free_racks":"14","terminal_type":"7inch","bike_numbers":"24997,24621,27826,27527,27165,27130,27096,26988,26737,25726,25641,25449,29110,29266","bike_types":{"4":14},"place_type":"0","rack_locks":"1"},{"uid":"2585704","lat":"52.2347879","lng":"21.0340991","name":"Solec - al. 3 Maja","spot":"1","number":"9528","bikes":"16","bike_racks":"24","free_racks":"8","terminal_type":"7inch","bike_numbers":"24911,24608,28208,27835,27733,27534,27034,26923,26896,25589,29647,28811,96533,96191,96151,96589","bike_types":{"4":16},"place_type":"0","rack_locks":"1"},{"uid":"2585708","lat":"52.2301405","lng":"21.0303694","name":"Ksi\u0105\u017c\u0119ca - Rozbrat","spot":"1","number":"9529","bikes":"14","bike_racks":"15","free_racks":"1","terminal_type":"7inch","bike_numbers":"27611,27371,26965,26701,26304,26246,25764,25342,29040,28980,28884,96558,96517,29195","bike_types":{"4":14},"place_type":"0","rack_locks":"1"},{"uid":"2585711","lat":"52.2172177","lng":"20.9713608","name":"Szcz\u0119\u015bliwicka - APS","spot":"1","number":"9530","bikes":"9","bike_racks":"22","free_racks":"13","terminal_type":"7inch","bike_numbers":"24702,24640,28156,27195,27157,27006,25963,28851,96409","bike_types":{"4":9},"place_type":"0","rack_locks":"1"},{"uid":"2585712","lat":"52.2179474","lng":"20.9775567","name":"Kopi\u0144ska - Bia\u0142obrzeska","spot":"1","number":"9531","bikes":"5","bike_racks":"15","free_racks":"10","terminal_type":"7inch","bike_numbers":"28610,26710,26047,25825,96262","bike_types":{"4":5},"place_type":"0","rack_locks":"1"},{"uid":"2585714","lat":"52.2178554","lng":"20.9828138","name":"Plac Narutowicza","spot":"1","number":"9532","bikes":"20","bike_racks":"30","free_racks":"10","terminal_type":"7inch","bike_numbers":"28424,28027,27901,27828,27824,26307,26243,25953,25847,25681,25590,25457,25287,25282,25631,96440,96439,96415,96215,29166","bike_types":{"4":20},"place_type":"0","rack_locks":"1"},{"uid":"2585716","lat":"52.216641","lng":"20.9879476","name":"Raszy\u0144ska - Wawelska","spot":"1","number":"9533","bikes":"14","bike_racks":"20","free_racks":"6","terminal_type":"7inch","bike_numbers":"24946,24767,24470,28563,28085,27555,26929,26091,26007,25575,25345,28910,29458,96036","bike_types":{"4":13,"51":1},"place_type":"0","rack_locks":"1"},{"uid":"2585717","lat":"52.2191029","lng":"20.9890149","name":"Raszy\u0144ska - Filtrowa","spot":"1","number":"9534","bikes":"15","bike_racks":"22","free_racks":"7","terminal_type":"7inch","bike_numbers":"28551,28024,27867,26938,26296,26261,25823,25487,25031,29114,29036,29419,96243,96224,96187","bike_types":{"4":15},"place_type":"0","rack_locks":"1"},{"uid":"2585720","lat":"52.220676","lng":"21.0045554","name":"al. Niepodleg\u0142o\u015bci - Nowowiejska","spot":"1","number":"9535","bikes":"13","bike_racks":"30","free_racks":"17","terminal_type":"7inch","bike_numbers":"24806,24684,24569,24506,28589,28565,27740,26610,26216,25820,25416,29076,28834","bike_types":{"4":13},"place_type":"0","rack_locks":"1"},{"uid":"2585721","lat":"52.2174693","lng":"21.0056537","name":"Kaczy\u0144skiego - al. Niepodleg\u0142o\u015bci","spot":"1","number":"9536","bikes":"9","bike_racks":"16","free_racks":"7","terminal_type":"7inch","bike_numbers":"28265,27152,27061,26980,26925,26170,25976,25952,96394","bike_types":{"4":9},"place_type":"0","rack_locks":"1"},{"uid":"2585722","lat":"52.2226831","lng":"21.0081097","name":"Noakowskiego - Koszykowa","spot":"1","number":"9537","bikes":"22","bike_racks":"24","free_racks":"5","terminal_type":"7inch","bike_numbers":"24779,28885,28706,28595,28351,28036,27963,27921,27719,27376,27043,26751,26179,25942,25602,25330,25149,96520,96346,96089,29269,29236","bike_types":{"4":22},"place_type":"0","rack_locks":"1"},{"uid":"2585724","lat":"52.219916","lng":"21.0116824","name":"Plac Politechniki","spot":"1","number":"9538","bikes":"17","bike_racks":"27","free_racks":"10","terminal_type":"7inch","bike_numbers":"24669,24537,28274,28207,27936,27406,27049,26719,26364,26173,26046,25385,25248,25228,96469,29182,29259","bike_types":{"4":17},"place_type":"0","rack_locks":"1"},{"uid":"2585727","lat":"52.223503","lng":"21.0128519","name":"Pozna\u0144ska - Zesp\u00f3\u0142 Szk\u00f3\u0142 Gastronomicznych","spot":"1","number":"9539","bikes":"12","bike_racks":"18","free_racks":"6","terminal_type":"7inch","bike_numbers":"24909,28604,27627,27489,27357,26828,26540,25687,25603,29357,28961,96126","bike_types":{"4":12},"place_type":"0","rack_locks":"1"},{"uid":"2585728","lat":"52.2174857","lng":"21.0142949","name":"Rondo Jazdy Polskiej","spot":"1","number":"9540","bikes":"14","bike_racks":"24","free_racks":"9","terminal_type":"7inch","bike_numbers":"24778,24688,28648,28592,27056,26385,26010,25907,25707,25433,29084,96564,96530,96177","bike_types":{"4":14},"place_type":"0","rack_locks":"1"},{"uid":"2585729","lat":"52.2197435","lng":"21.0157353","name":"ul. Wary\u0144skiego-ul. Nowowiejska-Metro Politechnika ","spot":"1","number":"9541","bikes":"12","bike_racks":"20","free_racks":"9","terminal_type":"7inch","bike_numbers":"24987,24768,27973,27727,27401,26630,26148,25597,25440,96060,63615,29153","bike_types":{"4":12},"place_type":"0","rack_locks":"1"},{"uid":"2585731","lat":"52.2197681","lng":"21.0172775","name":"Plac Zbawiciela","spot":"1","number":"9542","bikes":"7","bike_racks":"12","free_racks":"4","terminal_type":"7inch","bike_numbers":"28400,27854,27840,26959,25506,29102,28879","bike_types":{"4":7},"place_type":"0","rack_locks":"1"},{"uid":"2585735","lat":"52.2229427","lng":"21.0158211","name":"Plac Konstytucji","spot":"1","number":"9543","bikes":"17","bike_racks":"30","free_racks":"14","terminal_type":"7inch","bike_numbers":"28018,27970,27563,27545,27542,26445,26103,25683,25542,25524,25232,29104,29089,29461,29137,96028,96022","bike_types":{"4":16,"0":1},"place_type":"0","rack_locks":"1"},{"uid":"2585737","lat":"52.2238152","lng":"21.0207859","name":"Mokotowska - Pi\u0119kna","spot":"1","number":"9544","bikes":"12","bike_racks":"22","free_racks":"10","terminal_type":"7inch","bike_numbers":"28747,28146,27783,27772,27369,26936,26657,26129,25610,25562,28854,28913","bike_types":{"4":12},"place_type":"0","rack_locks":"1"},{"uid":"2585738","lat":"52.2200212","lng":"21.0256299","name":"Plac na Rozdro\u017cu","spot":"1","number":"9545","bikes":"17","bike_racks":"26","free_racks":"9","terminal_type":"7inch","bike_numbers":"24557,24530,28775,28714,28663,28316,27224,27046,27002,26998,26441,26359,26248,25984,25771,25424,29554","bike_types":{"4":17},"place_type":"0","rack_locks":"1"},{"uid":"2585742","lat":"52.2249504","lng":"21.0268155","name":"Matejki - Wiejska","spot":"1","number":"9546","bikes":"16","bike_racks":"20","free_racks":"4","terminal_type":"7inch","bike_numbers":"28584,28071,27770,27741,27374,27362,27282,27088,26760,26350,25792,25669,25310,25218,96365,29194","bike_types":{"4":16},"place_type":"0","rack_locks":"1"},{"uid":"2585747","lat":"52.2221129","lng":"21.0343873","name":"My\u015bliwiecka - Rozbrat","spot":"1","number":"9547","bikes":"19","bike_racks":"21","free_racks":"2","terminal_type":"7inch","bike_numbers":"28449,27998,27784,27677,27140,26919,26889,26787,26741,26514,26501,26318,26095,26053,26042,26034,25838,25485,96492","bike_types":{"4":19},"place_type":"0","rack_locks":"1"},{"uid":"2585748","lat":"52.2277124","lng":"21.0442955","name":"Port Czerniakowski","spot":"1","number":"9548","bikes":"23","bike_racks":"30","free_racks":"7","terminal_type":"7inch","bike_numbers":"24874,24775,24548,24526,24490,28573,28516,28475,28364,28355,28309,27796,27732,27256,27218,26092,25514,25421,25299,29083,28973,96048,96565","bike_types":{"4":22,"51":1},"place_type":"0","rack_locks":"1"},{"uid":"2585749","lat":"52.2109711","lng":"20.9759125","name":"Gr\u00f3jecka - Bitwy Warszawskiej 1920 roku","spot":"1","number":"9549","bikes":"14","bike_racks":"20","free_racks":"6","terminal_type":"7inch","bike_numbers":"24839,24707,24466,27919,27883,27244,27175,27012,25920,25380,25356,25249,96464,96404","bike_types":{"4":13,"51":1},"place_type":"0","rack_locks":"1"},{"uid":"2585750","lat":"52.2130296","lng":"20.9819985","name":"Pasteura - Winnicka - UW","spot":"1","number":"9550","bikes":"15","bike_racks":"24","free_racks":"9","terminal_type":"7inch","bike_numbers":"24666,24654,28904,28467,28376,27866,27848,27198,26511,26432,26288,25261,29455,28806,96010","bike_types":{"4":15},"place_type":"0","rack_locks":"1"},{"uid":"2585762","lat":"52.2107722","lng":"20.9847557","name":"Stefana Banacha - UW","spot":"1","number":"9551","bikes":"21","bike_racks":"29","free_racks":"18","terminal_type":"7inch","bike_numbers":"24881,24828,24765,28450,28060,27935,27843,27539,27420,27269,26983,26584,26561,26402,26291,25379,25178,29344,96556,96416,96097","bike_types":{"4":21},"place_type":"0","rack_locks":"1"},{"uid":"2585764","lat":"52.212671","lng":"21.003437","name":"Biblioteka Narodowa","spot":"1","number":"9552","bikes":"11","bike_racks":"24","free_racks":"13","terminal_type":"7inch","bike_numbers":"24793,28252,28211,28089,27907,27718,26382,26039,25437,25283,25239","bike_types":{"4":11},"place_type":"0","rack_locks":"1"},{"uid":"2585766","lat":"52.21691","lng":"21.01997","name":"Marsza\u0142kowska - Litewska","spot":"1","number":"9553","bikes":"9","bike_racks":"15","free_racks":"6","terminal_type":"7inch","bike_numbers":"27564,27261,26403,25886,25800,25794,25295,25132,29174","bike_types":{"4":9},"place_type":"0","rack_locks":"1"},{"uid":"2585770","lat":"52.2083858","lng":"20.9631103","name":"P\u0119tla Szcz\u0119\u015bliwice","spot":"1","number":"9554","bikes":"14","bike_racks":"19","free_racks":"5","terminal_type":"7inch","bike_numbers":"24601,24040,27079,26518,26493,26469,25934,25373,25254,25195,29652,96383,96305,96095","bike_types":{"4":13,"26":1},"place_type":"0","rack_locks":"1"},{"uid":"2585771","lat":"52.206153650625","lng":"20.970287919044","name":"Dickensa - Geodet\u00f3w","spot":"1","number":"9555","bikes":"11","bike_racks":"16","free_racks":"7","terminal_type":"7inch","bike_numbers":"25001,28817,28641,28009,27295,26262,26026,25826,25315,25100,96483","bike_types":{"4":11},"place_type":"0","rack_locks":"1"},{"uid":"2585772","lat":"52.205361371875","lng":"20.984664559364","name":"\u017bwirki i Wigury - Ksi\u0119cia Trojdena","spot":"1","number":"9556","bikes":"11","bike_racks":"17","free_racks":"7","terminal_type":"7inch","bike_numbers":"24542,28752,28293,27324,26823,25972,25245,25133,25046,28942,28815","bike_types":{"4":11},"place_type":"0","rack_locks":"1"},{"uid":"2585774","lat":"52.205801893754","lng":"20.998928546906","name":"Rakowiecka - \u015aw. A. Boboli","spot":"1","number":"9557","bikes":"18","bike_racks":"17","free_racks":"0","terminal_type":"7inch","bike_numbers":"24914,24680,28114,28023,28003,27979,27953,27646,27547,26996,26873,26690,26528,26495,25277,29035,28894,29217","bike_types":{"4":18},"place_type":"0","rack_locks":"1"},{"uid":"2585776","lat":"52.209916","lng":"21.0067794","name":"al. Niepodleg\u0142o\u015bci - Batorego","spot":"1","number":"9558","bikes":"15","bike_racks":"26","free_racks":"11","terminal_type":"7inch","bike_numbers":"24974,24716,24534,28739,27057,26863,25902,25877,25285,25091,29038,96442,96320,96156,96083","bike_types":{"4":15},"place_type":"0","rack_locks":"1"},{"uid":"2585779","lat":"52.2132375","lng":"21.0210568","name":"Plac Unii Lubelskiej","spot":"1","number":"9559","bikes":"18","bike_racks":"24","free_racks":"6","terminal_type":"7inch","bike_numbers":"24747,24590,24497,28380,28335,28103,27388,27215,26907,26319,25899,96485,96474,96461,96360,29189,29283,29273","bike_types":{"4":17,"51":1},"place_type":"0","rack_locks":"1"},{"uid":"2585781","lat":"52.2027557","lng":"20.9508951","name":"W\u0142odarzewska - Maszynowa","spot":"1","number":"9560","bikes":"10","bike_racks":"18","free_racks":"9","terminal_type":"7inch","bike_numbers":"24455,27855,27565,27233,26932,26315,26236,26036,96331,96231","bike_types":{"51":1,"4":9},"place_type":"0","rack_locks":"1"},{"uid":"2585782","lat":"52.2017647","lng":"20.9820897","name":"Sanocka - Pruszkowska","spot":"1","number":"9561","bikes":"11","bike_racks":"15","free_racks":"4","terminal_type":"7inch","bike_numbers":"24713,24698,27383,26673,26369,25469,25024,25020,28986,96077,29218","bike_types":{"4":11},"place_type":"0","rack_locks":"1"},{"uid":"2585785","lat":"52.1981365","lng":"20.9833717","name":"\u017bwirki i Wigury - Rac\u0142awicka","spot":"1","number":"9562","bikes":"9","bike_racks":"18","free_racks":"9","terminal_type":"7inch","bike_numbers":"28897,28062,27851,27813,26920,25273,25236,28890,96377","bike_types":{"4":9},"place_type":"0","rack_locks":"1"},{"uid":"2585787","lat":"52.20177","lng":"20.99969","name":"Wo\u0142oska - Kulskiego","spot":"1","number":"9563","bikes":"10","bike_racks":"15","free_racks":"6","terminal_type":"7inch","bike_numbers":"24582,28390,27619,27355,27242,25231,25160,24555,96001,96259","bike_types":{"4":10},"place_type":"0","rack_locks":"1"},{"uid":"2585788","lat":"52.2042638","lng":"21.014428","name":"Madali\u0144skiego - Kazimierzowska","spot":"1","number":"9564","bikes":"16","bike_racks":"24","free_racks":"8","terminal_type":"7inch","bike_numbers":"24781,24780,24696,28473,27368,26638,25829,25700,25686,25121,29115,29034,28951,29374,28843,96081","bike_types":{"4":16},"place_type":"0","rack_locks":"1"},{"uid":"2585789","lat":"52.2055175","lng":"21.0231033","name":"Pu\u0142awska - Dworkowa","spot":"1","number":"9565","bikes":"13","bike_racks":"19","free_racks":"6","terminal_type":"7inch","bike_numbers":"24954,24885,24580,28722,27934,27629,27436,27211,26821,26057,25986,25856,96188","bike_types":{"4":13},"place_type":"0","rack_locks":"1"},{"uid":"2585790","lat":"52.2071756","lng":"21.0312643","name":"Belwederska - Gagarina","spot":"1","number":"9566","bikes":"24","bike_racks":"30","free_racks":"6","terminal_type":"7inch","bike_numbers":"24956,28769,28627,28540,28527,28154,28081,27956,27710,27410,27084,27071,26597,26361,26101,25866,25865,25846,25535,25446,25174,28946,29136,96076","bike_types":{"4":23,"0":1},"place_type":"0","rack_locks":"1"},{"uid":"2585794","lat":"52.1938131","lng":"20.9914431","name":"Etiudy Rewolucyjnej - Mi\u0105czy\u0144ska","spot":"1","number":"9568","bikes":"16","bike_racks":"18","free_racks":"2","terminal_type":"7inch","bike_numbers":"24605,28640,28384,28338,27477,26916,26453,26222,25921,25859,25586,25465,25222,25168,29113,29101","bike_types":{"4":16},"place_type":"0","rack_locks":"1"},{"uid":"2585799","lat":"52.1994156","lng":"21.0121384","name":"Metro Rac\u0142awicka","spot":"1","number":"9570","bikes":"17","bike_racks":"30","free_racks":"15","terminal_type":"7inch","bike_numbers":"24510,28393,28330,28143,26850,26664,26660,26613,26213,25592,25223,25083,29452,96034,96426,96303,29265","bike_types":{"4":17},"place_type":"0","rack_locks":"1"},{"uid":"2585800","lat":"52.199505","lng":"21.0240975","name":"Pu\u0142awska - Dolna","spot":"1","number":"9571","bikes":"10","bike_racks":"18","free_racks":"8","terminal_type":"7inch","bike_numbers":"28458,27820,27488,26365,26191,26187,25500,25186,25097,96318","bike_types":{"4":10},"place_type":"0","rack_locks":"1"},{"uid":"2585802","lat":"52.2014754","lng":"21.0360047","name":"Sobieskiego - Che\u0142mska","spot":"1","number":"9572","bikes":"12","bike_racks":"15","free_racks":"3","terminal_type":"7inch","bike_numbers":"24737,24625,28104,27962,27763,27154,26831,26640,25871,25252,25206,25158","bike_types":{"4":12},"place_type":"0","rack_locks":"1"},{"uid":"2585804","lat":"52.1998446","lng":"21.05095","name":"Czerniakowska - ZUS","spot":"1","number":"9573","bikes":"13","bike_racks":"15","free_racks":"2","terminal_type":"7inch","bike_numbers":"24890,24739,24627,28356,26797,26663,26193,25914,25333,25163,96025,96317,96182","bike_types":{"4":13},"place_type":"0","rack_locks":"1"},{"uid":"2585807","lat":"52.1916776","lng":"20.8689688","name":"PKP Ursus-Nied\u017awiadek","spot":"1","number":"9574","bikes":"13","bike_racks":"15","free_racks":"2","terminal_type":"7inch","bike_numbers":"24744,24465,28905,27598,27205,25922,25888,25840,29131,96024,96512,96364,96345","bike_types":{"4":11,"51":1,"0":1},"place_type":"0","rack_locks":"1"},{"uid":"2585808","lat":"52.1960469","lng":"20.8849347","name":"PKP Ursus","spot":"1","number":"9575","bikes":"9","bike_racks":"16","free_racks":"9","terminal_type":"7inch","bike_numbers":"28591,28336,28287,28083,26602,26328,25835,25262,25221","bike_types":{"4":9},"place_type":"0","rack_locks":"1"},{"uid":"2585809","lat":"52.1869936","lng":"20.8906478","name":"Sosnkowskiego - OSiR Ursus","spot":"1","number":"9576","bikes":"9","bike_racks":"15","free_racks":"6","terminal_type":"7inch","bike_numbers":"28122,27942,27508,26397,26393,26339,25667,28893,96091","bike_types":{"4":9},"place_type":"0","rack_locks":"1"},{"uid":"2585811","lat":"52.2005548","lng":"20.8937538","name":"Ursus-Ratusz","spot":"1","number":"9577","bikes":"13","bike_racks":"15","free_racks":"2","terminal_type":"7inch","bike_numbers":"24656,28460,27865,27569,27438,27047,26974,26811,26708,26659,26334,25655,25436","bike_types":{"4":13},"place_type":"0","rack_locks":"1"},{"uid":"2585814","lat":"52.1906376","lng":"20.8999443","name":"Skoroszewska - Prystora","spot":"1","number":"9578","bikes":"9","bike_racks":"17","free_racks":"9","terminal_type":"7inch","bike_numbers":"27131,26676,26024,25947,25256,25194,28842,96400,96301","bike_types":{"4":9},"place_type":"0","rack_locks":"1"},{"uid":"2585817","lat":"52.1882609","lng":"20.9603771","name":"G\u0142adka - OSiR W\u0142ochy","spot":"1","number":"9579","bikes":"11","bike_racks":"16","free_racks":"5","terminal_type":"7inch","bike_numbers":"24619,24596,28636,28538,27416,27102,26500,26426,26065,25664,29200","bike_types":{"4":11},"place_type":"0","rack_locks":"1"},{"uid":"2585820","lat":"52.2056441","lng":"20.9159142","name":"PKP W\u0142ochy","spot":"1","number":"9580","bikes":"8","bike_racks":"17","free_racks":"10","terminal_type":"7inch","bike_numbers":"24674,28325,28304,28117,27969,27797,26639,25517","bike_types":{"4":8},"place_type":"0","rack_locks":"1"},{"uid":"2585821","lat":"52.2012157","lng":"20.9353145","name":"al. Jerozolimskie - Popularna","spot":"1","number":"9581","bikes":"14","bike_racks":"17","free_racks":"3","terminal_type":"7inch","bike_numbers":"24837,28700,28582,28522,28136,27967,27455,26843,26783,26580,25717,29361,28832,28828","bike_types":{"4":14},"place_type":"0","rack_locks":"1"},{"uid":"2585824","lat":"52.1924709","lng":"20.9596664","name":"W\u0142ochy-Ratusz","spot":"1","number":"9582","bikes":"9","bike_racks":"14","free_racks":"5","terminal_type":"7inch","bike_numbers":"24462,27004,26510,25732,25234,25199,25193,29106,29164","bike_types":{"51":1,"4":8},"place_type":"0","rack_locks":"1"},{"uid":"2585825","lat":"52.1946888","lng":"20.9667823","name":"1 Sierpnia - DK W\u0142ochy","spot":"1","number":"9583","bikes":"8","bike_racks":"15","free_racks":"9","terminal_type":"7inch","bike_numbers":"28731,27743,27546,27493,26553,26029,25434,29060","bike_types":{"4":8},"place_type":"0","rack_locks":"1"},{"uid":"2585827","lat":"52.1888962","lng":"21.0175887","name":"Metro Wierzbno","spot":"1","number":"9584","bikes":"12","bike_racks":"20","free_racks":"8","terminal_type":"7inch","bike_numbers":"24816,28713,28039,27910,27622,27403,27277,26376,26230,25086,28900,96004","bike_types":{"4":12},"place_type":"0","rack_locks":"1"},{"uid":"2585830","lat":"52.18648","lng":"21.02538","name":"Pu\u0142awska - Idzikowskiego","spot":"1","number":"9585","bikes":"13","bike_racks":"17","free_racks":"4","terminal_type":"7inch","bike_numbers":"24717,28497,28286,27641,27223,26748,26726,26570,26556,26257,25997,25937,29150","bike_types":{"4":13},"place_type":"0","rack_locks":"1"},{"uid":"2585835","lat":"52.1882861","lng":"21.0498825","name":"Sobieskiego - Mangalia","spot":"1","number":"9586","bikes":"16","bike_racks":"15","free_racks":"0","terminal_type":"7inch","bike_numbers":"24697,24011,28756,28546,28340,28107,27631,26900,26573,26206,26052,25945,25084,28941,96043,29208","bike_types":{"4":15,"26":1},"place_type":"0","rack_locks":"1"},{"uid":"2585837","lat":"52.178777","lng":"21.0016387","name":"Wo\u0142oska - Marynarska","spot":"1","number":"9588","bikes":"16","bike_racks":"26","free_racks":"10","terminal_type":"7inch","bike_numbers":"24958,24705,27219,27039,26922,26612,25875,25316,25059,25026,28814,63626,96323,96192,96093,29252","bike_types":{"4":16},"place_type":"0","rack_locks":"1"},{"uid":"2585838","lat":"52.1800882","lng":"21.0207403","name":"al. Niepodleg\u0142o\u015bci - al. Wilanowska","spot":"1","number":"9589","bikes":"15","bike_racks":"22","free_racks":"8","terminal_type":"7inch","bike_numbers":"24645,28032,27975,27045,26119,25720,25702,25595,25583,25548,25116,96359,96295,96279,29278","bike_types":{"4":15},"place_type":"0","rack_locks":"1"},{"uid":"2585839","lat":"52.1779163","lng":"21.049562","name":"P\u0119tla Stegny","spot":"1","number":"9590","bikes":"17","bike_racks":"23","free_racks":"5","terminal_type":"7inch","bike_numbers":"24527,24458,27695,27466,26861,26097,25482,25111,25102,25062,29017,28977,63625,96433,96405,29268,29242","bike_types":{"4":16,"51":1},"place_type":"0","rack_locks":"1"},{"uid":"2585843","lat":"52.1818472","lng":"21.0562822","name":"Sobieskiego - \u015bw. Bonifacego","spot":"1","number":"9591","bikes":"15","bike_racks":"22","free_racks":"7","terminal_type":"7inch","bike_numbers":"24693,24522,28822,28696,28441,27890,27793,27402,27093,26479,26070,25274,29365,96488,96272","bike_types":{"4":15},"place_type":"0","rack_locks":"1"},{"uid":"2585844","lat":"52.1702836","lng":"20.9959132","name":"P\u0119tla Bokserska","spot":"1","number":"9592","bikes":"12","bike_racks":"15","free_racks":"3","terminal_type":"7inch","bike_numbers":"24822,24519,28433,27786,27654,27319,26615,25495,25067,25047,28968,96029","bike_types":{"4":12},"place_type":"0","rack_locks":"1"},{"uid":"2585846","lat":"52.1710498","lng":"21.0059144","name":"Gintrowskiego - Gotarda","spot":"1","number":"9593","bikes":"7","bike_racks":"15","free_racks":"8","terminal_type":"7inch","bike_numbers":"28668,28520,27297,26813,26742,29431,96039","bike_types":{"4":7},"place_type":"0","rack_locks":"1"},{"uid":"2585848","lat":"52.174435","lng":"21.0128814","name":"al. Lotnik\u00f3w - Kaczmarskiego","spot":"1","number":"9594","bikes":"16","bike_racks":"30","free_racks":"13","terminal_type":"7inch","bike_numbers":"24910,24617,24489,27836,27146,27091,26658,26524,25772,25513,25414,25153,25138,28964,96342,96217","bike_types":{"4":15,"51":1},"place_type":"0","rack_locks":"1"},{"uid":"2585850","lat":"52.1733132","lng":"21.0257305","name":"Metro S\u0142u\u017cew","spot":"1","number":"9595","bikes":"12","bike_racks":"24","free_racks":"12","terminal_type":"7inch","bike_numbers":"24858,28502,27911,27842,26781,26356,25504,63621,96479,96130,29267,29260","bike_types":{"4":12},"place_type":"0","rack_locks":"1"},{"uid":"2585853","lat":"52.17343","lng":"21.03179","name":"Wa\u0142brzyska - Wr\u00f3bla","spot":"1","number":"9596","bikes":"17","bike_racks":"30","free_racks":"13","terminal_type":"7inch","bike_numbers":"28481,28311,28002,27831,27812,27399,27036,26880,26722,25410,25251,25242,25172,25045,96471,96447,96202","bike_types":{"4":17},"place_type":"0","rack_locks":"1"},{"uid":"2585856","lat":"52.170135","lng":"21.0685748","name":"Jana III Sobieskiego - al. Wilanowska","spot":"1","number":"9597","bikes":"15","bike_racks":"15","free_racks":"0","terminal_type":"7inch","bike_numbers":"24013,24012,28112,28108,27859,27614,27081,26280,25999,25912,25737,25426,25204,96051,96457","bike_types":{"26":2,"4":13},"place_type":"0","rack_locks":"1"},{"uid":"2585860","lat":"52.1655879","lng":"21.0839331","name":"al. Wilanowska - Przycz\u00f3\u0142kowa","spot":"1","number":"9598","bikes":"10","bike_racks":"16","free_racks":"9","terminal_type":"7inch","bike_numbers":"24678,24610,28051,27407,27234,26677,26009,25507,25501,25129","bike_types":{"4":10},"place_type":"0","rack_locks":"1"},{"uid":"2585863","lat":"52.16479","lng":"21.10925","name":"Vogla - Syta","spot":"1","number":"9599","bikes":"12","bike_racks":"16","free_racks":"4","terminal_type":"7inch","bike_numbers":"28448,28256,27834,27825,27474,27373,26557,26434,26333,25808,28997,96425","bike_types":{"4":12},"place_type":"0","rack_locks":"1"},{"uid":"2585868","lat":"52.1606257","lng":"21.0723245","name":"al. Rzeczypospolitej - Klimczaka","spot":"1","number":"9600","bikes":"14","bike_racks":"16","free_racks":"2","terminal_type":"7inch","bike_numbers":"28704,28365,27894,27884,27583,27549,27461,27053,26589,25682,25639,25556,29011,28829","bike_types":{"4":14},"place_type":"0","rack_locks":"1"},{"uid":"2585871","lat":"52.1569168","lng":"21.0760903","name":"al. Rzeczypospolitej - Branickiego","spot":"1","number":"9601","bikes":"10","bike_racks":"16","free_racks":"6","terminal_type":"7inch","bike_numbers":"28683,28321,27196,26695,26512,25870,60863,96270,96162,29220","bike_types":{"4":10},"place_type":"0","rack_locks":"1"},{"uid":"2585872","lat":"52.1593735","lng":"21.086449","name":"Przycz\u00f3\u0142kowa - Branickiego","spot":"1","number":"9602","bikes":"8","bike_racks":"16","free_racks":"9","terminal_type":"7inch","bike_numbers":"28416,28257,27613,26484,26114,25361,96040,96338","bike_types":{"4":8},"place_type":"0","rack_locks":"1"},{"uid":"2585873","lat":"52.1618136","lng":"21.0277355","name":"Metro Ursyn\u00f3w II","spot":"1","number":"9603","bikes":"10","bike_racks":"30","free_racks":"21","terminal_type":"7inch","bike_numbers":"24484,24031,28331,28092,27506,26975,26306,25502,96184,29177","bike_types":{"51":1,"26":1,"4":8},"place_type":"0","rack_locks":"1"},{"uid":"2585875","lat":"52.1622579","lng":"21.0280761","name":"Metro Ursyn\u00f3w I","spot":"1","number":"9604","bikes":"11","bike_racks":"30","free_racks":"20","terminal_type":"7inch","bike_numbers":"24708,24475,24021,27713,27032,26415,26217,26205,25833,25817,29098","bike_types":{"4":9,"51":1,"26":1},"place_type":"0","rack_locks":"1"},{"uid":"2585876","lat":"52.162401","lng":"21.0383811","name":"Jastrz\u0119bowskiego - SGGW","spot":"1","number":"9605","bikes":"24","bike_racks":"28","free_racks":"5","terminal_type":"7inch","bike_numbers":"24975,24862,24611,24476,27981,27878,27694,27431,27147,26904,26818,26458,26357,25839,25776,25512,25493,25196,29346,29024,25628,28800,28974,96465","bike_types":{"4":23,"51":1},"place_type":"0","rack_locks":"1"},{"uid":"2585880","lat":"52.1557534","lng":"21.0232776","name":"Romera - Pieciolinii","spot":"1","number":"9606","bikes":"16","bike_racks":"16","free_racks":"2","terminal_type":"7inch","bike_numbers":"28803,28661,28034,27025,27015,26753,26716,26321,26195,26149,25874,25758,25210,29096,29066,96195","bike_types":{"4":16},"place_type":"0","rack_locks":"1"},{"uid":"2585883","lat":"52.1568674","lng":"21.0338401","name":"Metro Stok\u0142osy","spot":"1","number":"9607","bikes":"17","bike_racks":"27","free_racks":"10","terminal_type":"7inch","bike_numbers":"24851,24797,28349,28343,27672,27453,26905,26525,26375,25648,25536,25384,25326,29443,28868,28881,96491","bike_types":{"4":17},"place_type":"0","rack_locks":"1"},{"uid":"2585885","lat":"52.1572887","lng":"21.0440084","name":"Roso\u0142a - Ciszewskiego - SGGW","spot":"1","number":"9608","bikes":"20","bike_racks":"30","free_racks":"10","terminal_type":"7inch","bike_numbers":"24991,24981,24823,28419,27659,27585,27570,27197,26515,26245,26180,26096,25741,25557,25331,25184,29119,28848,96424,96258","bike_types":{"4":20},"place_type":"0","rack_locks":"1"},{"uid":"2585888","lat":"52.1521429","lng":"21.0181224","name":"Pu\u0142awska - Pileckiego","spot":"1","number":"9609","bikes":"12","bike_racks":"22","free_racks":"10","terminal_type":"7inch","bike_numbers":"28650,28480,27111,26928,25269,60836,28844,28824,28870,63628,96552,29237","bike_types":{"4":12},"place_type":"0","rack_locks":"1"},{"uid":"2585893","lat":"52.1495064","lng":"21.0332527","name":"Ciszewskiego - Pileckiego","spot":"1","number":"9610","bikes":"18","bike_racks":"22","free_racks":"4","terminal_type":"7inch","bike_numbers":"24977,24850,24038,28372,28144,28099,26966,26189,25665,25454,25377,25346,28845,28839,63608,96358,96198,29158","bike_types":{"4":17,"26":1},"place_type":"0","rack_locks":"1"},{"uid":"2585894","lat":"52.1549453","lng":"21.0492977","name":"Roso\u0142a - Gandhi","spot":"1","number":"9611","bikes":"13","bike_racks":"22","free_racks":"9","terminal_type":"7inch","bike_numbers":"24624,28701,28216,27159,27103,25814,25559,25518,25383,25068,63605,96495,96234","bike_types":{"4":13},"place_type":"0","rack_locks":"1"},{"uid":"2585897","lat":"52.1493105","lng":"21.0453361","name":"Metro Imielin","spot":"1","number":"9612","bikes":"14","bike_racks":"22","free_racks":"8","terminal_type":"7inch","bike_numbers":"24712,27987,27724,26626,26351,26155,25818,29002,28858,63614,96437,96330,96289,96119","bike_types":{"4":14},"place_type":"0","rack_locks":"1"},{"uid":"2585899","lat":"52.1522333","lng":"21.0563922","name":"Roso\u0142a - Weso\u0142a","spot":"1","number":"9613","bikes":"13","bike_racks":"23","free_racks":"10","terminal_type":"7inch","bike_numbers":"28366,28361,28215,28048,27923,27909,27745,27174,27141,26520,96395,96304,96245","bike_types":{"4":13},"place_type":"0","rack_locks":"1"},{"uid":"2585901","lat":"52.1427201","lng":"21.0383624","name":"Pileckiego - Alternatywy","spot":"1","number":"9614","bikes":"17","bike_racks":"30","free_racks":"13","terminal_type":"7inch","bike_numbers":"24934,24803,24632,24629,28611,28353,27758,25453,25015,60842,60834,60828,29660,60862,96037,96459,96223","bike_types":{"4":17},"place_type":"0","rack_locks":"1"},{"uid":"2585902","lat":"52.142735","lng":"21.0448131","name":"Dereniowa - P\u0142askowickiej","spot":"1","number":"9615","bikes":"17","bike_racks":"22","free_racks":"5","terminal_type":"7inch","bike_numbers":"24886,24777,28735,28251,27352,26688,26499,26372,26146,25673,25581,25255,29053,28949,63613,63606,96561","bike_types":{"4":17},"place_type":"0","rack_locks":"1"},{"uid":"2585904","lat":"52.1376039","lng":"21.0505531","name":"Stryje\u0144skich - Belgradzka","spot":"1","number":"9616","bikes":"10","bike_racks":"15","free_racks":"5","terminal_type":"7inch","bike_numbers":"28221,27804,27760,26637,25964,25490,25412,28906,96355,24047","bike_types":{"4":9,"26":1},"place_type":"0","rack_locks":"1"},{"uid":"2585905","lat":"52.1403909","lng":"21.0568187","name":"Metro Natolin","spot":"1","number":"9617","bikes":"17","bike_racks":"30","free_racks":"14","terminal_type":"7inch","bike_numbers":"24953,24554,24022,28377,27829,27781,27739,26845,26341,26105,26102,28943,29552,96045,96107,29184,29204","bike_types":{"4":16,"26":1},"place_type":"0","rack_locks":"1"},{"uid":"2585906","lat":"52.1420749","lng":"21.0659905","name":"Belgradzka - Roso\u0142a","spot":"1","number":"9618","bikes":"12","bike_racks":"23","free_racks":"11","terminal_type":"7inch","bike_numbers":"24892,28621,28505,27875,27599,26883,26186,25442,28982,96052,63629,29192","bike_types":{"4":12},"place_type":"0","rack_locks":"1"},{"uid":"2585908","lat":"52.1314333","lng":"21.0561562","name":"Stryje\u0144skich - W\u0105wozowa","spot":"1","number":"9619","bikes":"16","bike_racks":"23","free_racks":"7","terminal_type":"7inch","bike_numbers":"24501,28773,28580,28383,28298,28068,27790,27525,26609,25966,25894,25370,25226,29064,63623,60867","bike_types":{"4":16},"place_type":"0","rack_locks":"1"},{"uid":"2585911","lat":"52.3326052","lng":"20.9418404","name":"Ordon\u00f3wny - \u015awiatowida","spot":"1","number":"9620","bikes":"11","bike_racks":"22","free_racks":"11","terminal_type":"7inch","bike_numbers":"24882,24743,28314,27986,27664,26018,25936,25577,25300,96257,96239","bike_types":{"4":11},"place_type":"0","rack_locks":"1"},{"uid":"2585913","lat":"52.1310925","lng":"21.0654795","name":"Metro Kabaty","spot":"1","number":"9621","bikes":"7","bike_racks":"22","free_racks":"16","terminal_type":"7inch","bike_numbers":"24695,27308,27189,25978,25533,25103,96241","bike_types":{"4":7},"place_type":"0","rack_locks":"1"},{"uid":"2585916","lat":"52.1332642","lng":"21.0747962","name":"W\u0105wozowa - Roso\u0142a","spot":"1","number":"9622","bikes":"13","bike_racks":"18","free_racks":"6","terminal_type":"7inch","bike_numbers":"28403,28057,27729,27169,27113,26324,26075,25935,29342,29340,96515,96333,96175","bike_types":{"4":13},"place_type":"0","rack_locks":"1"},{"uid":"2585917","lat":"52.324116","lng":"21.05663","name":"Skarbka z G\u00f3r - Berensona","spot":"1","number":"9623","bikes":"23","bike_racks":"26","free_racks":"3","terminal_type":"7inch","bike_numbers":"24939,28657,28619,28607,28277,28090,27821,27680,27632,27279,26881,26768,26707,26430,26194,26152,26142,25916,25587,28812,96020,96430,29246","bike_types":{"4":23},"place_type":"0","rack_locks":"1"},{"uid":"2585919","lat":"52.3485329","lng":"20.9418336","name":"Aluzyjna - Tr\u0105by","spot":"1","number":"9624","bikes":"13","bike_racks":"16","free_racks":"5","terminal_type":"7inch","bike_numbers":"28612,27721,26759,26655,26623,25841,25030,29045,29555,96042,96327,96265,96199","bike_types":{"4":13},"place_type":"0","rack_locks":"1"},{"uid":"2585920","lat":"52.3226982","lng":"20.9448107","name":"\u015awiatowida - Mehoffera","spot":"1","number":"9625","bikes":"14","bike_racks":"16","free_racks":"2","terminal_type":"7inch","bike_numbers":"28821,27779,27335,27284,27170,26674,26651,26330,25646,29077,29373,28878,96190,96185","bike_types":{"4":14},"place_type":"0","rack_locks":"1"},{"uid":"2585921","lat":"52.3212548","lng":"20.9477347","name":"Bia\u0142o\u0142\u0119cki O\u015brodek Sportu","spot":"1","number":"9626","bikes":"21","bike_racks":"30","free_racks":"9","terminal_type":"7inch","bike_numbers":"24993,24926,28671,28652,28642,28426,27847,26954,26941,26692,26575,26551,26489,26172,28995,96044,96486,96481,96137,29181,29223","bike_types":{"4":21},"place_type":"0","rack_locks":"1"},{"uid":"2585922","lat":"52.3211272","lng":"20.9712964","name":"Bia\u0142o\u0142\u0119ka-Ratusz","spot":"1","number":"9627","bikes":"16","bike_racks":"19","free_racks":"3","terminal_type":"7inch","bike_numbers":"24900,24833,24677,28771,28431,27996,27167,26915,26472,26266,26038,25607,29108,96396,96138,29197","bike_types":{"4":16},"place_type":"0","rack_locks":"1"},{"uid":"2585924","lat":"52.3132981","lng":"20.9655324","name":"My\u015bliborska - al. Kukli\u0144skiego","spot":"1","number":"9628","bikes":"14","bike_racks":"22","free_racks":"8","terminal_type":"7inch","bike_numbers":"28190,27952,27868,27303,27008,26835,26834,26620,25915,25736,25599,25139,96391,96306","bike_types":{"4":14},"place_type":"0","rack_locks":"1"},{"uid":"2585925","lat":"52.3031984","lng":"20.9891666","name":"Modli\u0144ska - \u017bera\u0144ska","spot":"1","number":"9629","bikes":"15","bike_racks":"30","free_racks":"15","terminal_type":"7inch","bike_numbers":"28886,28308,28127,27982,27961,27895,27871,27725,26769,26763,26592,25470,25349,29133,96544","bike_types":{"4":14,"0":1},"place_type":"0","rack_locks":"1"},{"uid":"2585926","lat":"52.3150181","lng":"21.0610807","name":"Skarbka z G\u00f3r - Magiczna","spot":"1","number":"9630","bikes":"27","bike_racks":"30","free_racks":"3","terminal_type":"7inch","bike_numbers":"24692,24042,25002,28587,28583,28526,28456,28440,28301,28067,27954,27538,27487,27360,27354,27115,26827,26820,26815,26460,25786,25376,25146,96451,96204,96128,29233","bike_types":{"4":26,"26":1},"place_type":"0","rack_locks":"1"},{"uid":"2585928","lat":"52.3000268","lng":"21.0425266","name":"P\u0119tla Br\u00f3dno - Podgrodzie","spot":"1","number":"9631","bikes":"14","bike_racks":"16","free_racks":"2","terminal_type":"7inch","bike_numbers":"28658,28566,28442,28350,27742,27450,27427,27260,26292,25807,25701,25198,96575,29157","bike_types":{"4":14},"place_type":"0","rack_locks":"1"},{"uid":"2585929","lat":"52.2939957","lng":"21.0272258","name":"Rembieli\u0144ska - Kondratowicza","spot":"1","number":"9632","bikes":"10","bike_racks":"23","free_racks":"13","terminal_type":"7inch","bike_numbers":"24700,24672,27513,27037,26346,26151,25591,25526,96041,29160","bike_types":{"4":10},"place_type":"0","rack_locks":"1"},{"uid":"2585931","lat":"52.2917236","lng":"21.0481189","name":"Targ\u00f3wek-Ratusz","spot":"1","number":"9633","bikes":"16","bike_racks":"22","free_racks":"6","terminal_type":"7inch","bike_numbers":"24039,24008,28402,26738,26644,26058,25988,25943,25712,25510,29075,28908,96490,96369,96103,29222","bike_types":{"26":2,"4":14},"place_type":"0","rack_locks":"1"},{"uid":"2585932","lat":"52.292208","lng":"21.0419554","name":"Kondratowicza - Chodecka","spot":"1","number":"9634","bikes":"13","bike_racks":"23","free_racks":"9","terminal_type":"7inch","bike_numbers":"24014,28151,28075,27601,27313,26587,26253,25928,25162,25118,29350,29143,96329","bike_types":{"26":1,"4":11,"0":1},"place_type":"0","rack_locks":"1"},{"uid":"2585934","lat":"52.2925145","lng":"21.0573949","name":"Kondratowicza - Przy Grodzisku","spot":"1","number":"9635","bikes":"12","bike_racks":"18","free_racks":"6","terminal_type":"7inch","bike_numbers":"28651,28278,28120,27750,27342,26817,26433,26305,26204,26140,29082,96526","bike_types":{"4":12},"place_type":"0","rack_locks":"1"},{"uid":"2585936","lat":"52.2878069","lng":"21.0213829","name":"Wysockiego - Poborza\u0144ska","spot":"1","number":"9636","bikes":"19","bike_racks":"23","free_racks":"4","terminal_type":"7inch","bike_numbers":"24644,28758,28524,28368,27138,26979,26599,26313,26208,26153,26138,26108,25929,25406,25170,29117,96574,96524,96080","bike_types":{"4":19},"place_type":"0","rack_locks":"1"},{"uid":"2585937","lat":"52.2885915","lng":"21.0310087","name":"Rembieli\u0144ska - Wyszogrodzka","spot":"1","number":"9637","bikes":"21","bike_racks":"30","free_racks":"9","terminal_type":"7inch","bike_numbers":"28150,28137,28126,28082,27498,27448,27300,27035,26537,26331,26273,26122,26110,25901,29004,29388,28849,96046,96363,96336,29247","bike_types":{"4":21,"16":1},"place_type":"0","rack_locks":"1"},{"uid":"2585938","lat":"52.2864841","lng":"21.0401998","name":"Chodecka - \u017buromi\u0144ska","spot":"1","number":"9638","bikes":"10","bike_racks":"15","free_racks":"5","terminal_type":"7inch","bike_numbers":"24921,28705,28702,28414,27778,27512,26994,26767,26756,96326","bike_types":{"4":10},"place_type":"0","rack_locks":"1"},{"uid":"2585939","lat":"52.281231017533","lng":"21.025852560997","name":"Wysockiego - Matki Teresy z Kalkuty","spot":"1","number":"9639","bikes":"21","bike_racks":"17","free_racks":"0","terminal_type":"7inch","bike_numbers":"24552,28628,28550,28498,28392,28374,27663,27290,26771,26667,26221,26076,26068,26060,25815,25351,29046,24498,96539,96132,29151","bike_types":{"4":20,"51":1},"place_type":"0","rack_locks":"1"},{"uid":"2585941","lat":"52.2835693","lng":"21.0720858","name":"Blokowa - DK Zacisze","spot":"1","number":"9640","bikes":"13","bike_racks":"18","free_racks":"5","terminal_type":"7inch","bike_numbers":"24573,28675,28420,27799,27670,27561,26237,26214,25821,25780,25180,29020,96282","bike_types":{"4":13},"place_type":"0","rack_locks":"1"},{"uid":"2585942","lat":"52.276259","lng":"21.0530748","name":"P\u0119tla Targ\u00f3wek","spot":"1","number":"9641","bikes":"17","bike_racks":"22","free_racks":"6","terminal_type":"7inch","bike_numbers":"28088,27939,27794,27776,27615,26814,26793,26459,26231,26130,26048,25910,25783,25706,28978,29243,29230","bike_types":{"4":17},"place_type":"0","rack_locks":"1"},{"uid":"2585943","lat":"52.27139","lng":"21.01566","name":"Jagiello\u0144ska - ALK","spot":"1","number":"9642","bikes":"11","bike_racks":"16","free_racks":"5","terminal_type":"7inch","bike_numbers":"28019,27644,27361,25594,25560,25167,25075,29338,28972,96203,96112","bike_types":{"4":11},"place_type":"0","rack_locks":"1"},{"uid":"2585947","lat":"52.2694683","lng":"21.0499817","name":"Ossowskiego","spot":"1","number":"9644","bikes":"13","bike_racks":"17","free_racks":"4","terminal_type":"7inch","bike_numbers":"28530,27449,27344,27220,27031,26857,26805,26757,25419,25398,28971,96516,96368","bike_types":{"4":13},"place_type":"0","rack_locks":"1"},{"uid":"2585951","lat":"52.272602123161","lng":"21.063210368156","name":"Radzymi\u0144ska -Trocka","spot":"1","number":"9645","bikes":"21","bike_racks":"20","free_racks":"0","terminal_type":"7inch","bike_numbers":"28686,28646,28362,27814,27422,27397,27341,27328,27134,26718,26281,26163,25882,25268,25148,25117,29003,29135,96452,29199,29214","bike_types":{"4":20,"0":1},"place_type":"0","rack_locks":"1"},{"uid":"2585953","lat":"52.27347","lng":"21.07698","name":"Bukowiecka - Zamkowa","spot":"1","number":"9646","bikes":"9","bike_racks":"15","free_racks":"6","terminal_type":"7inch","bike_numbers":"28681,27405,26745,26263,25977,25483,28778,28963,29245","bike_types":{"4":9},"place_type":"0","rack_locks":"1"},{"uid":"2585954","lat":"52.2668885","lng":"21.0585675","name":"Radzymi\u0144ska - Piotra Skargi","spot":"1","number":"9647","bikes":"16","bike_racks":"20","free_racks":"8","terminal_type":"7inch","bike_numbers":"24901,28339,27916,27751,27421,27133,26491,26396,25926,25919,25896,25458,25359,25263,29120,29202","bike_types":{"4":15,"0":1},"place_type":"0","rack_locks":"1"},{"uid":"2585955","lat":"52.2614369","lng":"21.0155744","name":"Wybrze\u017ce Helskie - ZOO","spot":"1","number":"9648","bikes":"12","bike_racks":"22","free_racks":"10","terminal_type":"7inch","bike_numbers":"24662,28554,28115,27675,27030,26874,26143,25527,29364,29360,96221,96582","bike_types":{"4":12},"place_type":"0","rack_locks":"1"},{"uid":"2585956","lat":"52.2632492","lng":"21.0212231","name":"Rondo Starzy\u0144skiego","spot":"1","number":"9649","bikes":"18","bike_racks":"24","free_racks":"6","terminal_type":"7inch","bike_numbers":"24938,24913,24636,28653,28408,28101,28098,28022,27580,27575,26642,26588,25985,25494,25052,29124,96555,29165","bike_types":{"4":17,"0":1},"place_type":"0","rack_locks":"1"},{"uid":"2585958","lat":"52.26421","lng":"21.02618","name":"Darwina - Nusbauma-Hilarowicza","spot":"1","number":"9650","bikes":"19","bike_racks":"21","free_racks":"7","terminal_type":"7inch","bike_numbers":"28774,28606,28417,27343,27020,27019,26829,26777,26693,26390,26188,25754,25751,25466,29347,28907,96356,96267,96208","bike_types":{"4":19},"place_type":"0","rack_locks":"1"},{"uid":"2585960","lat":"52.26554","lng":"21.03122","name":"Namys\u0142owska - Darwina","spot":"1","number":"9651","bikes":"8","bike_racks":"15","free_racks":"7","terminal_type":"7inch","bike_numbers":"24746,24701,28719,27960,27841,26645,25784,96581","bike_types":{"4":8},"place_type":"0","rack_locks":"1"},{"uid":"2585961","lat":"52.2690405","lng":"21.0379493","name":"Rondo \u017baba","spot":"1","number":"9652","bikes":"17","bike_racks":"22","free_racks":"5","terminal_type":"7inch","bike_numbers":"24044,25003,28357,28305,27520,27323,26844,26440,26395,25564,25334,25246,25150,25018,29022,96302,24049","bike_types":{"26":2,"4":15},"place_type":"0","rack_locks":"1"},{"uid":"2585963","lat":"52.2591682","lng":"21.0262224","name":"Jagiello\u0144ska - Plac Hallera","spot":"1","number":"9653","bikes":"24","bike_racks":"20","free_racks":"2","terminal_type":"7inch","bike_numbers":"24842,24599,28385,28134,28096,27914,27893,27734,26982,26862,26685,26505,26456,26297,26168,26033,25993,25933,25739,25725,25677,96379,96328,96299","bike_types":{"4":24},"place_type":"0","rack_locks":"1"},{"uid":"2585964","lat":"52.2613811","lng":"21.0305437","name":"Plac Hallera - Sawinkowa","spot":"1","number":"9654","bikes":"18","bike_racks":"28","free_racks":"14","terminal_type":"7inch","bike_numbers":"24581,28647,28258,28214,28148,27696,27557,27518,26886,26715,26327,25836,25496,25350,25076,25053,29116,96572","bike_types":{"4":18},"place_type":"0","rack_locks":"1"},{"uid":"2585967","lat":"52.263","lng":"21.03418","name":"Namys\u0142owska - Szymanowskiego","spot":"1","number":"9655","bikes":"11","bike_racks":"16","free_racks":"6","terminal_type":"7inch","bike_numbers":"28432,28405,27977,27574,26323,26089,25635,25161,96216,96196,96129","bike_types":{"4":11},"place_type":"0","rack_locks":"1"},{"uid":"2585968","lat":"52.2538188","lng":"21.0231542","name":"Ratuszowa - ZOO","spot":"1","number":"9656","bikes":"18","bike_racks":"23","free_racks":"5","terminal_type":"7inch","bike_numbers":"24771,28616,28560,27502,27446,27385,27073,26846,26627,26229,26111,26085,25989,25767,25415,28960,28859,96401","bike_types":{"4":18},"place_type":"0","rack_locks":"1"},{"uid":"2585971","lat":"52.256355","lng":"21.029538","name":"Jagiello\u0144ska - Ratuszowa","spot":"1","number":"9657","bikes":"6","bike_racks":"16","free_racks":"10","terminal_type":"7inch","bike_numbers":"27837,27484,26408,25813,25182,28989","bike_types":{"4":6},"place_type":"0","rack_locks":"1"},{"uid":"2585972","lat":"52.261449","lng":"21.037614","name":"11 Listopada - Ratuszowa","spot":"1","number":"9658","bikes":"16","bike_racks":"30","free_racks":"15","terminal_type":"7inch","bike_numbers":"24978,24606,28569,28547,28295,28026,27761,27744,27560,26987,26958,26404,26366,26166,25810,25297","bike_types":{"4":16},"place_type":"0","rack_locks":"1"},{"uid":"2585974","lat":"52.263109","lng":"21.0381895","name":"11 listopada - \u015arodkowa","spot":"1","number":"9659","bikes":"14","bike_racks":"18","free_racks":"4","terminal_type":"7inch","bike_numbers":"24893,28515,28369,27660,27576,26930,26908,26732,26611,26529,26464,26224,25445,96167","bike_types":{"4":14},"place_type":"0","rack_locks":"1"},{"uid":"2585975","lat":"52.25839","lng":"21.03537","name":"Stalowa - 11 Listopada","spot":"1","number":"9660","bikes":"20","bike_racks":"24","free_racks":"5","terminal_type":"7inch","bike_numbers":"24456,28762,28660,28659,28578,27888,27800,27637,27158,26666,26104,25950,25787,25588,25541,25498,25341,25302,25157,28830","bike_types":{"51":1,"4":19},"place_type":"0","rack_locks":"1"},{"uid":"2585978","lat":"52.234791","lng":"21.07905","name":"al. Stan\u00f3w Zjednoczonych - Ostrobramska","spot":"1","number":"9661","bikes":"11","bike_racks":"20","free_racks":"9","terminal_type":"7inch","bike_numbers":"28749,28465,28020,27505,27428,27243,26897,26442,26383,26287,25025","bike_types":{"4":11},"place_type":"0","rack_locks":"1"},{"uid":"2585981","lat":"52.2524758","lng":"21.0303479","name":"Floria\u0144ska - Park Praski","spot":"1","number":"9662","bikes":"24","bike_racks":"23","free_racks":"0","terminal_type":"7inch","bike_numbers":"24955,24809,24794,24664,28512,28423,28110,28014,27803,27413,27363,27275,26706,26276,26027,26002,25918,25659,25154,25114,28981,29140,96283,29191","bike_types":{"4":23,"0":1},"place_type":"0","rack_locks":"1"},{"uid":"2585982","lat":"52.2549757","lng":"21.0339005","name":"Plac Wile\u0144ski","spot":"1","number":"9663","bikes":"16","bike_racks":"30","free_racks":"14","terminal_type":"7inch","bike_numbers":"24800,24481,28511,27437,27312,26517,26073,25713,25491,25368,25298,96021,96487,96422,96286,96580","bike_types":{"4":15,"51":1},"place_type":"0","rack_locks":"1"},{"uid":"2585983","lat":"52.2579576","lng":"21.0399804","name":"Wile\u0144ska - Rzeszotarskiej","spot":"1","number":"9664","bikes":"8","bike_racks":"16","free_racks":"10","terminal_type":"7inch","bike_numbers":"24531,28404,27818,27533,26506,25099,29367,28987","bike_types":{"4":8},"place_type":"0","rack_locks":"1"},{"uid":"2585984","lat":"52.2475848","lng":"20.9568001","name":"al. Prymasa Tysi\u0105clecia - Obozowa","spot":"1","number":"9665","bikes":"8","bike_racks":"13","free_racks":"5","terminal_type":"7inch","bike_numbers":"24726,24543,24532,27540,27099,26062,29657,96179","bike_types":{"4":8},"place_type":"0","rack_locks":"1"},{"uid":"2585985","lat":"52.248607","lng":"21.029647","name":"Okrzei - Panie\u0144ska","spot":"1","number":"9666","bikes":"12","bike_racks":"16","free_racks":"4","terminal_type":"7inch","bike_numbers":"28673,28297,27817,27330,26154,25740,29105,96536,96484,96133,24055,24046","bike_types":{"4":10,"26":2},"place_type":"0","rack_locks":"1"},{"uid":"2585987","lat":"52.2506334","lng":"21.0311174","name":"Sierakowskiego - K\u0142opotowskiego","spot":"1","number":"9667","bikes":"15","bike_racks":"25","free_racks":"10","terminal_type":"7inch","bike_numbers":"24538,24467,27959,27764,27160,26918,26648,26247,26150,26113,26051,26044,25842,25480,96499","bike_types":{"4":14,"51":1},"place_type":"0","rack_locks":"1"},{"uid":"2585990","lat":"52.2520876","lng":"21.0381368","name":"Targowa - Z\u0105bkowska","spot":"1","number":"9668","bikes":"14","bike_racks":"18","free_racks":"4","terminal_type":"7inch","bike_numbers":"28676,28292,27974,27856,27530,27090,26848,26807,26711,26161,26041,25766,96284,96116","bike_types":{"4":14},"place_type":"0","rack_locks":"1"},{"uid":"2585992","lat":"52.2544855","lng":"21.0433458","name":"Fabryka W\u00f3dek Koneser","spot":"1","number":"9669","bikes":"25","bike_racks":"25","free_racks":"0","terminal_type":"7inch","bike_numbers":"24967,24947,24551,24496,24016,28736,28638,28624,28209,28053,28005,27925,27879,27316,27229,27014,26901,26841,25709,25636,28866,96498,96476,96252,96106","bike_types":{"4":23,"51":1,"26":1},"place_type":"0","rack_locks":"1"},{"uid":"2585994","lat":"52.2559027","lng":"21.0495613","name":"Radzymi\u0144ska - Wiosenna","spot":"1","number":"9670","bikes":"21","bike_racks":"26","free_racks":"5","terminal_type":"7inch","bike_numbers":"24915,24725,24658,28750,28542,28394,28078,28052,28050,27212,27188,27171,26875,26387,26109,25954,25944,25795,25250,96209,29183","bike_types":{"4":21},"place_type":"0","rack_locks":"1"},{"uid":"2585995","lat":"52.25965","lng":"21.0529","name":"Radzymi\u0144ska - \u0141om\u017cy\u0144ska","spot":"1","number":"9671","bikes":"25","bike_racks":"24","free_racks":"0","terminal_type":"7inch","bike_numbers":"24687,24514,28629,28509,28312,27709,27586,27393,27389,27291,27184,26949,26643,26629,26606,25924,25876,25652,25357,25074,29049,28777,28988,96549,29244","bike_types":{"4":25},"place_type":"0","rack_locks":"1"},{"uid":"2585996","lat":"52.2583512","lng":"21.0585337","name":"P\u0119tla Kaw\u0119czy\u0144ska-Bazylika","spot":"1","number":"9672","bikes":"18","bike_racks":"26","free_racks":"8","terminal_type":"7inch","bike_numbers":"24880,28302,27827,27621,27381,27283,27064,27062,26995,26646,26241,25998,25596,25051,29081,96407,29169,96579","bike_types":{"4":18},"place_type":"0","rack_locks":"1"},{"uid":"2585997","lat":"52.249864871462","lng":"21.042911410332","name":"Targowa - Kijowska","spot":"1","number":"9673","bikes":"16","bike_racks":"18","free_racks":"1","terminal_type":"7inch","bike_numbers":"27755,27717,26866,26530,26522,26446,25855,25782,25386,25321,29037,28836,96559,96361,96344,96127","bike_types":{"4":16},"place_type":"0","rack_locks":"1"},{"uid":"2586000","lat":"52.252745","lng":"21.0510331","name":"Dworzec Wschodni - Kijowska","spot":"1","number":"9674","bikes":"20","bike_racks":"27","free_racks":"6","terminal_type":"7inch","bike_numbers":"24720,24577,24570,24528,24010,28218,28010,28000,27650,27559,27424,26961,26951,26913,26842,25101,25096,28909,96297,96118","bike_types":{"4":19,"26":1},"place_type":"0","rack_locks":"1"},{"uid":"2586001","lat":"52.247314","lng":"21.042731","name":"Metro Stadion Narodowy","spot":"1","number":"9675","bikes":"10","bike_racks":"15","free_racks":"6","terminal_type":"7inch","bike_numbers":"24017,28484,28452,27331,25402,25127,29015,96319,96227,29258","bike_types":{"26":1,"4":9},"place_type":"0","rack_locks":"1"},{"uid":"2586003","lat":"52.2472308","lng":"21.0476456","name":"al. Zieleniecka - Teatr Powszechny","spot":"1","number":"9676","bikes":"6","bike_racks":"14","free_racks":"8","terminal_type":"7inch","bike_numbers":"24932,24871,24796,24761,28975,29229","bike_types":{"4":6},"place_type":"0","rack_locks":"1"},{"uid":"2586005","lat":"52.247346","lng":"21.055947","name":"Grochowska - Mi\u0144ska","spot":"1","number":"9677","bikes":"17","bike_racks":"22","free_racks":"5","terminal_type":"7inch","bike_numbers":"24952,24575,28718,28614,28139,27951,27714,27394,26766,26744,26147,25567,25106,29441,25632,28865,96158","bike_types":{"4":17},"place_type":"0","rack_locks":"1"},{"uid":"2586009","lat":"52.2464","lng":"21.06868","name":"Praga-Po\u0142udnie-Ratusz","spot":"1","number":"9678","bikes":"9","bike_racks":"15","free_racks":"6","terminal_type":"7inch","bike_numbers":"24603,24472,27838,25973,25748,29339,28959,96310,96255","bike_types":{"4":8,"51":1},"place_type":"0","rack_locks":"1"},{"uid":"2586011","lat":"52.2501129","lng":"21.0772011","name":"Dwernickiego - Siennicka","spot":"1","number":"9679","bikes":"18","bike_racks":"25","free_racks":"7","terminal_type":"7inch","bike_numbers":"24483,28521,28412,28406,28254,28087,27886,27276,26957,26654,26571,26126,25649,25200,25126,25065,28798,96563","bike_types":{"51":1,"4":17},"place_type":"0","rack_locks":"1"},{"uid":"2586012","lat":"52.260428882956","lng":"21.041538119316","name":"Stalowa - Czynszowa","spot":"1","number":"9680","bikes":"12","bike_racks":"15","free_racks":"3","terminal_type":"7inch","bike_numbers":"24758,28667,28054,27384,26871,26730,26061,25593,25217,28809,29281,29271","bike_types":{"4":12},"place_type":"0","rack_locks":"1"},{"uid":"2586014","lat":"52.2372419","lng":"21.0437644","name":"Wybrze\u017ce Szczeci\u0144skie - Stadion Narodowy","spot":"1","number":"9681","bikes":"14","bike_racks":"23","free_racks":"9","terminal_type":"7inch","bike_numbers":"24928,24665,24639,24494,28597,28220,28077,27971,27700,27648,27178,27089,26200,25063","bike_types":{"4":13,"51":1},"place_type":"0","rack_locks":"1"},{"uid":"2586018","lat":"52.2387103","lng":"21.0507515","name":"Rondo Waszyngtona - Stadion Narodowy","spot":"1","number":"9682","bikes":"24","bike_racks":"27","free_racks":"3","terminal_type":"7inch","bike_numbers":"24982,24661,28391,28371,28121,28028,28016,27785,27562,27412,26684,26601,26547,26368,26023,25980,25563,25543,25151,29213,29057,28860,96325,96142","bike_types":{"4":24},"place_type":"0","rack_locks":"1"},{"uid":"2586019","lat":"52.242281006874","lng":"21.071160435677","name":"Waszyngtona - Kinowa","spot":"1","number":"9683","bikes":"8","bike_racks":"15","free_racks":"6","terminal_type":"7inch","bike_numbers":"24545,27182,26386,26183,26117,25730,29641,96357","bike_types":{"4":8},"place_type":"0","rack_locks":"1"},{"uid":"2586021","lat":"52.2445639","lng":"21.0838057","name":"Rondo Wiatraczna","spot":"1","number":"9684","bikes":"25","bike_racks":"30","free_racks":"5","terminal_type":"7inch","bike_numbers":"24841,24782,24676,24479,24009,24005,28557,28496,27179,27118,26837,26653,26473,26448,26043,26004,25904,25455,29070,28863,28823,28985,96055,96449,96253","bike_types":{"4":22,"51":1,"26":2},"place_type":"0","rack_locks":"1"},{"uid":"2586022","lat":"52.2347451","lng":"21.053651","name":"Francuska - Walecznych","spot":"1","number":"9685","bikes":"13","bike_racks":"15","free_racks":"2","terminal_type":"7inch","bike_numbers":"24524,24512,27482,26504,26006,25347,25049,29659,28966,96410,96254,96161,96115","bike_types":{"4":13},"place_type":"0","rack_locks":"1"},{"uid":"2586024","lat":"52.236598","lng":"21.064774","name":"Mi\u0119dzynarodowa - Walecznych","spot":"1","number":"9686","bikes":"7","bike_racks":"15","free_racks":"8","terminal_type":"7inch","bike_numbers":"24918,24895,27777,26478,25119,28805,28991","bike_types":{"4":7},"place_type":"0","rack_locks":"1"},{"uid":"2586026","lat":"52.243020071904","lng":"21.102375984192","name":"Plac Szembeka","spot":"1","number":"9687","bikes":"10","bike_racks":"15","free_racks":"7","terminal_type":"7inch","bike_numbers":"24633,28693,27861,27404,27026,26371,26014,25917,25448,25107","bike_types":{"4":10},"place_type":"0","rack_locks":"1"},{"uid":"2586028","lat":"52.237559","lng":"21.120087","name":"P\u0119tla Goc\u0142awek","spot":"1","number":"9688","bikes":"6","bike_racks":"16","free_racks":"10","terminal_type":"7inch","bike_numbers":"24529,28490,27608,27589,27408,96092","bike_types":{"4":6},"place_type":"0","rack_locks":"1"},{"uid":"2586030","lat":"52.2258359","lng":"21.0600907","name":"Brukselska - PROM","spot":"1","number":"9689","bikes":"7","bike_racks":"15","free_racks":"8","terminal_type":"7inch","bike_numbers":"24685,28315,28290,27699,27469,26167,25666","bike_types":{"4":7},"place_type":"0","rack_locks":"1"},{"uid":"2586031","lat":"52.260205610017","lng":"21.046854257584","name":"al. Solidarno\u015bci - Szwedzka","spot":"1","number":"9690","bikes":"10","bike_racks":"18","free_racks":"10","terminal_type":"7inch","bike_numbers":"24815,24604,27877,27864,26956,26565,26032,25088,96287,24051","bike_types":{"4":9,"26":1},"place_type":"0","rack_locks":"1"},{"uid":"2586032","lat":"52.230088","lng":"21.067948","name":"al. Stan\u00f3w Zjednoczonych - Mi\u0119dzynarodowa","spot":"1","number":"9691","bikes":"26","bike_racks":"26","free_racks":"5","terminal_type":"7inch","bike_numbers":"24905,24634,24620,28760,28555,28436,28253,27642,27536,27398,27271,27087,27070,26934,26581,26293,25913,25885,25546,25233,25079,25072,28950,28853,28994,96078","bike_types":{"4":26},"place_type":"0","rack_locks":"1"},{"uid":"2586034","lat":"52.23483","lng":"21.09975","name":"Ostrobramska - Zamieniecka","spot":"1","number":"9692","bikes":"13","bike_racks":"23","free_racks":"10","terminal_type":"7inch","bike_numbers":"24972,28765,28558,28105,27815,27476,26277,26116,26025,25722,25296,25275,96529","bike_types":{"4":13},"place_type":"0","rack_locks":"1"},{"uid":"2586037","lat":"52.2251969","lng":"21.0712892","name":"Afryka\u0144ska - Egipska","spot":"1","number":"9693","bikes":"13","bike_racks":"16","free_racks":"3","terminal_type":"7inch","bike_numbers":"24969,24539,28802,28734,28491,27434,26176,25362,25344,25314,28864,96285,29175","bike_types":{"4":13},"place_type":"0","rack_locks":"1"},{"uid":"2586039","lat":"52.22837","lng":"21.08581","name":"Abrahama - Kapelan\u00f3w AK","spot":"1","number":"9694","bikes":"8","bike_racks":"15","free_racks":"7","terminal_type":"7inch","bike_numbers":"24748,24589,24029,28632,27920,25756,25744,29187","bike_types":{"4":7,"26":1},"place_type":"0","rack_locks":"1"},{"uid":"2586044","lat":"52.22974","lng":"21.10624","name":"Rechniewskiego - Nowaka-Jeziora\u0144skiego","spot":"1","number":"9696","bikes":"19","bike_racks":"30","free_racks":"10","terminal_type":"7inch","bike_numbers":"24984,24973,28903,28887,28873,28195,27870,27693,27267,27176,26352,25745,25435,25028,96054,96429,96341,96155,29240","bike_types":{"4":19},"place_type":"0","rack_locks":"1"},{"uid":"2586045","lat":"52.2223071","lng":"21.0907259","name":"Meissnera - Fieldorfa","spot":"1","number":"9697","bikes":"15","bike_racks":"15","free_racks":"3","terminal_type":"7inch","bike_numbers":"24607,24505,28564,28428,28322,27669,27521,26367,25693,28852,28841,96324,96249,96087,29176","bike_types":{"4":15},