[{"region_info":{"lat":"52.2345","lng":"21.0024","zoom":"11","name":"VETURILO Poland","hotline":"+4819115","domain":"vp","country":"PL","country_name":"Poland","terms":"http:\/\/www.veturilo.waw.pl\/terms\/?v=201701","policy":"","website":"http:\/\/www.veturilo.waw.pl\/","show_free_racks":"1","booked_bikes":"0","set_point_bikes":"5278","available_bikes":"4758"},"places_summary":{"lngMin":20.8689688,"lngMax":21.120087,"latMin":52.117285,"latMax":52.3485329,"lngAvg":21.00781180628,"latAvg":52.230676799541},"places":[{"uid":"2585259","lat":"52.296298","lng":"20.9583575","name":"Dewajtis - UKSW","spot":"1","number":"9402","bikes":"22","bike_racks":"30","free_racks":"8","terminal_type":"7inch","bike_numbers":"24846,28768,28680,28620,28442,27097,26991,26968,26923,26786,26774,26608,25956,25472,25461,25433,25407,25077,28959,28958,29428,96392","bike_types":{"4":22},"place_type":"0","rack_locks":"1"},{"uid":"2585263","lat":"52.2909738","lng":"20.9295559","name":"Metro M\u0142ociny","spot":"1","number":"9403","bikes":"29","bike_racks":"30","free_racks":"1","terminal_type":"7inch","bike_numbers":"24874,24680,28707,28682,28094,27784,27756,27752,27098,27038,27007,26915,26798,26696,26477,25937,25914,25678,25592,25586,25322,25249,25139,29364,25961,28832,28878,96524,96265","bike_types":{"4":29},"place_type":"0","rack_locks":"1"},{"uid":"2585265","lat":"52.2901732","lng":"20.9503698","name":"Marymoncka - Dewajtis","spot":"1","number":"9404","bikes":"11","bike_racks":"30","free_racks":"21","terminal_type":"7inch","bike_numbers":"24931,24843,26860,26386,26338,26330,25044,29010,28913,96379,96249","bike_types":{"4":11},"place_type":"0","rack_locks":"1"},{"uid":"2585267","lat":"52.285914","lng":"20.940561","name":"Metro Wawrzyszew","spot":"1","number":"9405","bikes":"15","bike_racks":"20","free_racks":"9","terminal_type":"7inch","bike_numbers":"24847,24574,28280,28071,27908,27843,27631,26632,26555,26475,26286,25544,25114,96376,96112","bike_types":{"4":15},"place_type":"0","rack_locks":"1"},{"uid":"2585269","lat":"52.2336142","lng":"21.0146353","name":"G\u00f3rskiego - Szpitalna","spot":"1","number":"9406","bikes":"11","bike_racks":"16","free_racks":"5","terminal_type":"7inch","bike_numbers":"24907,24774,24671,27463,27322,27023,26139,26015,25460,25253,28842","bike_types":{"4":11},"place_type":"0","rack_locks":"1"},{"uid":"2585271","lat":"52.2816265","lng":"20.9498871","name":"Metro Stare Bielany","spot":"1","number":"9407","bikes":"5","bike_racks":"30","free_racks":"25","terminal_type":"7inch","bike_numbers":"27182,27151,26363,25197,25080","bike_types":{"4":5},"place_type":"0","rack_locks":"1"},{"uid":"2585272","lat":"52.2361217","lng":"21.0219096","name":"Ordynacka - Uniwersytet Muzyczny","spot":"1","number":"9408","bikes":"18","bike_racks":"20","free_racks":"2","terminal_type":"7inch","bike_numbers":"24834,24813,28218,28098,27760,27667,27625,26898,26874,26712,26557,26531,26241,25404,25337,96551,96389,96359","bike_types":{"4":18},"place_type":"0","rack_locks":"1"},{"uid":"2585273","lat":"52.2768774","lng":"20.9481302","name":"Bielany-Ratusz","spot":"1","number":"9409","bikes":"12","bike_racks":"28","free_racks":"16","terminal_type":"7inch","bike_numbers":"24004,28526,28409,27824,27412,27134,26965,26464,26346,26100,25972,29061","bike_types":{"26":1,"4":11},"place_type":"0","rack_locks":"1"},{"uid":"2585275","lat":"52.2761569","lng":"20.9616673","name":"Metro S\u0142odowiec","spot":"1","number":"9410","bikes":"16","bike_racks":"30","free_racks":"14","terminal_type":"7inch","bike_numbers":"24731,28718,28390,27980,27893,27678,27263,26651,26614,26442,26294,25683,25612,29072,96298,96150","bike_types":{"4":16},"place_type":"0","rack_locks":"1"},{"uid":"2585278","lat":"52.2777751","lng":"20.9856999","name":"Potocka - OSiR \u017boliborz","spot":"1","number":"9411","bikes":"12","bike_racks":"15","free_racks":"5","terminal_type":"7inch","bike_numbers":"24891,24491,24006,27143,27119,27072,26841,26834,26343,26083,25796,96546","bike_types":{"4":10,"51":1,"26":1},"place_type":"0","rack_locks":"1"},{"uid":"2585280","lat":"52.273527782989","lng":"20.994186401367","name":"Gwia\u017adzista - Promyka","spot":"1","number":"9412","bikes":"2","bike_racks":"16","free_racks":"14","terminal_type":"7inch","bike_numbers":"24966,28859","bike_types":{"4":2},"place_type":"0","rack_locks":"1"},{"uid":"2585281","lat":"52.270941","lng":"20.9326269","name":"al. Reymonta - Conrada","spot":"1","number":"9413","bikes":"14","bike_racks":"30","free_racks":"16","terminal_type":"7inch","bike_numbers":"24926,28822,28268,27683,27581,26508,26090,26044,25252,25201,29101,29060,28831,96297","bike_types":{"4":14},"place_type":"0","rack_locks":"1"},{"uid":"2585283","lat":"52.2706441","lng":"20.9504181","name":"Broniewskiego - Perzy\u0144skiego","spot":"1","number":"9414","bikes":"18","bike_racks":"16","free_racks":"6","terminal_type":"7inch","bike_numbers":"24730,27912,27191,26963,26564,25970,25939,25734,25677,25178,25090,29087,96511,96484,96439,96408,96390,96332","bike_types":{"4":18},"place_type":"0","rack_locks":"1"},{"uid":"2585284","lat":"52.2714203","lng":"20.9727099","name":"Metro Marymont","spot":"1","number":"9415","bikes":"25","bike_racks":"30","free_racks":"4","terminal_type":"7inch","bike_numbers":"24924,24538,28635,28612,28600,28401,27828,27814,27768,27196,27160,26829,26599,26506,26432,26217,26200,26194,25948,29090,96519,96252,96245,96170,29179","bike_types":{"4":25},"place_type":"0","rack_locks":"1"},{"uid":"2585285","lat":"52.2694081","lng":"20.9833664","name":"Metro Plac Wilsona","spot":"1","number":"9416","bikes":"30","bike_racks":"21","free_racks":"3","terminal_type":"7inch","bike_numbers":"24643,24608,24581,28391,28374,28353,27876,27509,27222,27190,27158,26971,26795,26607,26183,26118,26059,25967,25837,25726,25599,25500,25465,25093,25088,29138,29136,28840,96419,96267","bike_types":{"4":28,"0":2},"place_type":"0","rack_locks":"1"},{"uid":"2585286","lat":"52.2668623","lng":"20.9637032","name":"Broniewskiego - W\u0142o\u015bcia\u0144ska","spot":"1","number":"9417","bikes":"17","bike_racks":"19","free_racks":"2","terminal_type":"7inch","bike_numbers":"24557,28710,28210,27926,27550,27073,26887,26780,26606,26140,25864,25520,25436,29345,96004,96514,96160","bike_types":{"4":17},"place_type":"0","rack_locks":"1"},{"uid":"2585288","lat":"52.2643984","lng":"20.9723179","name":"Broniewskiego - Krasi\u0144skiego","spot":"1","number":"9418","bikes":"7","bike_racks":"16","free_racks":"9","maintenance":"1","terminal_type":"7inch","bike_numbers":"24905,24740,28033,28936,29360,96021,29231","bike_types":{"4":7},"place_type":"0","rack_locks":"1"},{"uid":"2585289","lat":"52.267875","lng":"21.0020667","name":"Wybrze\u017ce Gdy\u0144skie - KS Sp\u00f3jnia","spot":"1","number":"9419","bikes":"10","bike_racks":"15","free_racks":"5","terminal_type":"7inch","bike_numbers":"24835,28533,28318,27867,27789,27329,26801,25993,25230,25036","bike_types":{"4":10},"place_type":"0","rack_locks":"1"},{"uid":"2585291","lat":"52.2624054","lng":"20.9802551","name":"Plac Grunwaldzki","spot":"1","number":"9420","bikes":"23","bike_racks":"30","free_racks":"6","terminal_type":"7inch","bike_numbers":"28775,28696,28598,28584,28138,26946,26278,26181,26135,26095,25719,25642,25176,25156,25081,29352,29128,28875,96431,96288,96136,96131,96591","bike_types":{"4":22,"0":1},"place_type":"0","rack_locks":"1"},{"uid":"2585296","lat":"52.2612575","lng":"20.9863191","name":"Zaj\u0105czka - Bitwy Pod Rokitn\u0105","spot":"1","number":"9421","bikes":"10","bike_racks":"15","free_racks":"5","terminal_type":"7inch","bike_numbers":"24758,28021,27517,26796,26192,25762,96264,96244,96225,29151","bike_types":{"4":10},"place_type":"0","rack_locks":"1"},{"uid":"2585297","lat":"52.2645018","lng":"20.9895998","name":"Plac Inwalid\u00f3w","spot":"1","number":"9422","bikes":"1","bike_racks":"15","free_racks":"14","terminal_type":"7inch","bike_numbers":"25493","bike_types":{"4":1},"place_type":"0","rack_locks":"1"},{"uid":"2585299","lat":"52.258245356688","lng":"20.898613929749","name":"P\u0119tla Stare Bemowo","spot":"1","number":"9423","bikes":"5","bike_racks":"21","free_racks":"15","terminal_type":"7inch","bike_numbers":"27299,25724,28911,96538,29163","bike_types":{"4":5},"place_type":"0","rack_locks":"1"},{"uid":"2585301","lat":"52.260895125763","lng":"20.923923254013","name":"P\u0119tla Nowe Bemowo","spot":"1","number":"9424","bikes":"21","bike_racks":"25","free_racks":"4","terminal_type":"7inch","bike_numbers":"24559,28514,27771,26773,26699,26449,26292,26076,25633,25306,25220,96384,96375,96374,96321,96314,96285,96279,96233,96227,96206","bike_types":{"4":21},"place_type":"0","rack_locks":"1"},{"uid":"2585304","lat":"52.2575903","lng":"20.9323374","name":"Obro\u0144c\u00f3w Tobruku - Pieni\u0105\u017cka","spot":"1","number":"9425","bikes":"9","bike_racks":"12","free_racks":"3","terminal_type":"7inch","bike_numbers":"24582,28694,28316,28049,28047,27438,26394,28824,96007","bike_types":{"4":9},"place_type":"0","rack_locks":"1"},{"uid":"2585305","lat":"52.2593225","lng":"20.9605511","name":"Pow\u0105zkowska - Krasi\u0144skiego","spot":"1","number":"9426","bikes":"14","bike_racks":"23","free_racks":"10","terminal_type":"7inch","bike_numbers":"24898,28032,27459,26279,26223,26199,26098,25866,25102,29039,29654,96543,96355,29178","bike_types":{"4":14},"place_type":"0","rack_locks":"1"},{"uid":"2585306","lat":"52.2563145","lng":"20.9682307","name":"Pow\u0105zkowska - Plac Niemena","spot":"1","number":"9427","bikes":"15","bike_racks":"16","free_racks":"1","terminal_type":"7inch","bike_numbers":"24857,24635,28477,28438,27860,27416,26953,26435,26187,26110,26031,25943,29647,96547,96082","bike_types":{"4":15},"place_type":"0","rack_locks":"1"},{"uid":"2585307","lat":"52.258524460024","lng":"20.970931649208","name":"Przasnyska - Rydygiera","spot":"1","number":"9428","bikes":"13","bike_racks":"15","free_racks":"2","terminal_type":"7inch","bike_numbers":"24911,24684,24530,24529,24015,28715,27481,26497,25413,96497,29191,29159,29220","bike_types":{"4":12,"26":1},"place_type":"0","rack_locks":"1"},{"uid":"2585308","lat":"52.253594","lng":"20.9798744","name":"Pow\u0105zkowska - Burakowska","spot":"1","number":"9429","bikes":"13","bike_racks":"20","free_racks":"7","terminal_type":"7inch","bike_numbers":"28885,27252,27050,26451,26403,25303,25254,25073,28910,29126,28844,28997,96466","bike_types":{"4":12,"0":1},"place_type":"0","rack_locks":"1"},{"uid":"2585311","lat":"52.2576018","lng":"20.9944975","name":"Metro Dworzec Gda\u0144ski","spot":"1","number":"9430","bikes":"6","bike_racks":"30","free_racks":"24","terminal_type":"7inch","bike_numbers":"24839,28633,28529,28006,29054,96499","bike_types":{"4":6},"place_type":"0","rack_locks":"1"},{"uid":"2585315","lat":"52.2465952","lng":"20.9429216","name":"Obozowa - Cio\u0142ka","spot":"1","number":"9432","bikes":"6","bike_racks":"13","free_racks":"7","terminal_type":"7inch","bike_numbers":"27854,27744,26468,25621,25138,25097","bike_types":{"4":6},"place_type":"0","rack_locks":"1"},{"uid":"2585317","lat":"52.227621983552","lng":"20.956758856773","name":"al. Prymasa Tysi\u0105clecia - Kasprzaka","spot":"1","number":"9433","bikes":"1","bike_racks":"23","free_racks":"22","terminal_type":"7inch","bike_numbers":"26393","bike_types":{"4":1},"place_type":"0","rack_locks":"1"},{"uid":"2585319","lat":"52.246037","lng":"20.962463","name":"Obozowa - Radziwie","spot":"1","number":"9434","bikes":"3","bike_racks":"13","free_racks":"11","terminal_type":"7inch","bike_numbers":"27749,27236,96183","bike_types":{"4":3},"place_type":"0","rack_locks":"1"},{"uid":"2585321","lat":"52.2514708","lng":"20.9857053","name":"al. Jana Paw\u0142a II - Stawki","spot":"1","number":"9435","bikes":"7","bike_racks":"23","free_racks":"16","terminal_type":"7inch","bike_numbers":"24997,24746,24717,24659,25740,25478,96196","bike_types":{"4":7},"place_type":"0","rack_locks":"1"},{"uid":"2585323","lat":"52.2535305","lng":"20.9924922","name":"Stawki - Dubois","spot":"1","number":"9436","bikes":"10","bike_racks":"13","free_racks":"3","terminal_type":"7inch","bike_numbers":"28523,27983,27696,27687,26793,26736,26682,26532,26047,25145","bike_types":{"4":10},"place_type":"0","rack_locks":"1"},{"uid":"2585326","lat":"52.2541702","lng":"20.9980649","name":"Andersa - Muranowska","spot":"1","number":"9437","bikes":"25","bike_racks":"30","free_racks":"5","terminal_type":"7inch","bike_numbers":"24655,28801,28300,28265,28261,28217,28213,27732,27633,27353,27242,26271,26133,26125,26112,26062,26048,25684,25607,25579,25394,29131,28834,96542,96496","bike_types":{"4":24,"0":1},"place_type":"0","rack_locks":"1"},{"uid":"2585327","lat":"52.255877","lng":"21.0099819","name":"Sanguszki - Wybrze\u017ce Gda\u0144skie","spot":"1","number":"9438","bikes":"61","bike_racks":"28","free_racks":"0","terminal_type":"7inch","bike_numbers":"24977,24944,24705,24646,24513,28873,28772,28532,28461,28444,28412,28153,27969,27962,27939,27884,27849,27827,27763,27759,27480,27425,27344,27259,27087,26990,26976,26910,26686,26643,26630,26528,26526,26467,26319,26222,26131,26093,26011,25863,25819,25783,25733,25697,25604,25390,25333,25219,25029,29449,96476,96397,96386,96335,96239,96222,96212,96200,96126,29206,96585","bike_types":{"4":61},"place_type":"0","rack_locks":"1"},{"uid":"2585328","lat":"52.252175","lng":"20.923692","name":"Wroc\u0142awska \u2013 Bailly","spot":"1","number":"9439","bikes":"6","bike_racks":"27","free_racks":"21","terminal_type":"7inch","bike_numbers":"28638,27046,25931,29111,96031,96153","bike_types":{"4":6},"place_type":"0","rack_locks":"1"},{"uid":"2585330","lat":"52.24418","lng":"20.97794","name":"Okopowa - Anielewicza","spot":"1","number":"9440","bikes":"10","bike_racks":"20","free_racks":"10","terminal_type":"7inch","bike_numbers":"24790,28212,27993,27905,27383,27145,26297,25541,25295,29014","bike_types":{"4":10},"place_type":"0","rack_locks":"1"},{"uid":"2585333","lat":"52.2486","lng":"20.98352","name":"Smocza - Mi\u0142a","spot":"1","number":"9441","bikes":"17","bike_racks":"15","free_racks":"3","terminal_type":"7inch","bike_numbers":"24978,24714,24471,28453,28294,28293,27838,27141,26901,26854,26040,25930,25860,25688,25199,25052,29419","bike_types":{"4":16,"51":1},"place_type":"0","rack_locks":"1"},{"uid":"2585334","lat":"52.24616","lng":"20.98538","name":"Smocza - Anielewicza","spot":"1","number":"9442","bikes":"2","bike_racks":"17","free_racks":"14","terminal_type":"7inch","bike_numbers":"25568,24050","bike_types":{"4":1,"26":1},"place_type":"0","rack_locks":"1"},{"uid":"2585335","lat":"52.247226","lng":"20.9893155","name":"al. Jana Paw\u0142a II - Anielewicza","spot":"1","number":"9443","bikes":"8","bike_racks":"22","free_racks":"14","terminal_type":"7inch","bike_numbers":"24558,27949,26291,25578,29447,96505,29164,29158","bike_types":{"4":8},"place_type":"0","rack_locks":"1"},{"uid":"2585337","lat":"52.249052","lng":"20.9948923","name":"Anielewicza - Zamenhofa","spot":"1","number":"9444","bikes":"10","bike_racks":"15","free_racks":"5","terminal_type":"7inch","bike_numbers":"28542,28290,28207,27603,26573,26503,25803,29143,28894,96412","bike_types":{"4":9,"0":1},"place_type":"0","rack_locks":"1"},{"uid":"2585338","lat":"52.2492196","lng":"20.9971878","name":"Anielewicza - Andersa","spot":"1","number":"9445","bikes":"6","bike_racks":"18","free_racks":"12","terminal_type":"7inch","bike_numbers":"24920,24569,27597,26694,25543,25432","bike_types":{"4":6},"place_type":"0","rack_locks":"1"},{"uid":"2585340","lat":"52.251549","lng":"21.002749","name":"Bonifraterska - Franciszka\u0144ska","spot":"1","number":"9446","bikes":"11","bike_racks":"16","free_racks":"7","terminal_type":"7inch","bike_numbers":"24980,24673,28317,28116,28103,27273,26701,26117,25882,25572,25309","bike_types":{"4":11},"place_type":"0","rack_locks":"1"},{"uid":"2585342","lat":"52.2541119","lng":"21.0093342","name":"Ko\u015bcielna - Piesza","spot":"1","number":"9448","bikes":"28","bike_racks":"26","free_racks":"1","terminal_type":"7inch","bike_numbers":"24999,24832,24663,28648,28556,28544,28493,28365,28264,28191,28028,27955,27504,27126,27108,27057,27029,26974,26920,26863,26745,26658,26354,26153,25831,25782,25207,96115","bike_types":{"4":28},"place_type":"0","rack_locks":"1"},{"uid":"2585344","lat":"52.2392622","lng":"20.8987641","name":"P\u0119tla Os. G\u00f3rczewska","spot":"1","number":"9449","bikes":"14","bike_racks":"15","free_racks":"7","terminal_type":"7inch","bike_numbers":"24906,24567,28637,27945,27765,27499,27417,27226,26705,26553,25889,25485,28992,96145","bike_types":{"4":14},"place_type":"0","rack_locks":"1"},{"uid":"2585345","lat":"52.2389287","lng":"20.9139535","name":"Bemowo-Ratusz","spot":"1","number":"9450","bikes":"9","bike_racks":"20","free_racks":"12","terminal_type":"7inch","bike_numbers":"27948,27133,27058,27028,26496,25906,25566,29205,29270","bike_types":{"4":9},"place_type":"0","rack_locks":"1"},{"uid":"2585346","lat":"52.2387861","lng":"20.9424946","name":"Okocimska - Olbrachta","spot":"1","number":"9451","bikes":"13","bike_racks":"18","free_racks":"7","terminal_type":"7inch","bike_numbers":"24631,24616,24522,25004,27947,27806,26144,25976,25869,28948,96460,96422,96178","bike_types":{"4":13},"place_type":"0","rack_locks":"1"},{"uid":"2585349","lat":"52.2506241","lng":"21.0533611","name":"Dworzec Wschodni - Lubelska","spot":"1","number":"9452","bikes":"11","bike_racks":"15","free_racks":"8","terminal_type":"7inch","bike_numbers":"28603,28100,27648,27090,26441,25957,25689,28836,96571,96467,96155","bike_types":{"4":11},"place_type":"0","rack_locks":"1"},{"uid":"2585351","lat":"52.2369249","lng":"20.9723559","name":"Leszno - M\u0142ynarska","spot":"1","number":"9453","bikes":"25","bike_racks":"30","free_racks":"6","terminal_type":"7inch","bike_numbers":"24970,24824,24670,24652,24043,24039,24023,28066,27892,27891,27727,27654,27318,27264,27194,26840,26171,26136,25332,25104,29116,29553,28961,96411,96114","bike_types":{"4":22,"26":3},"place_type":"0","rack_locks":"1"},{"uid":"2585352","lat":"52.2430451","lng":"20.9803864","name":"Dzielna - Bellottiego","spot":"1","number":"9454","bikes":"7","bike_racks":"13","free_racks":"6","terminal_type":"7inch","bike_numbers":"24649,28769,28738,27257,27220,25280,29077","bike_types":{"4":7},"place_type":"0","rack_locks":"1"},{"uid":"2585353","lat":"52.24108","lng":"20.98316","name":"Wolno\u015b\u0107 - Bellottiego","spot":"1","number":"9455","bikes":"8","bike_racks":"16","free_racks":"9","terminal_type":"7inch","bike_numbers":"27676,27396,26491,25761,25605,29455,96415,29187","bike_types":{"4":8},"place_type":"0","rack_locks":"1"},{"uid":"2585354","lat":"52.2435448","lng":"20.9873507","name":"Smocza - Nowolipki","spot":"1","number":"9456","bikes":"6","bike_racks":"16","free_racks":"10","terminal_type":"7inch","bike_numbers":"24928,28534,27443,26099,25275,96093","bike_types":{"4":6},"place_type":"0","rack_locks":"1"},{"uid":"2585356","lat":"52.2445767","lng":"20.99177","name":"al. Jana Paw\u0142a II - Nowolipki","spot":"1","number":"9457","bikes":"12","bike_racks":"16","free_racks":"4","terminal_type":"7inch","bike_numbers":"28481,28469,28352,28025,28005,27965,27720,27701,27574,26590,96521,96275","bike_types":{"4":12},"place_type":"0","rack_locks":"1"},{"uid":"2585358","lat":"52.22868","lng":"20.91509","name":"Powsta\u0144c\u00f3w \u015al\u0105skich - Cz\u0142uchowska","spot":"1","number":"9458","bikes":"20","bike_racks":"16","free_racks":"3","terminal_type":"7inch","bike_numbers":"24751,24742,24707,24540,24020,28664,27501,27497,27380,26452,26046,25189,25113,29657,24555,96192,96171,96166,29185,96592","bike_types":{"4":19,"26":1},"place_type":"0","rack_locks":"1"},{"uid":"2585360","lat":"52.2342032","lng":"20.934689","name":"Jana Olbrachta - Antka Rozpylacza","spot":"1","number":"9459","bikes":"15","bike_racks":"13","free_racks":"0","terminal_type":"7inch","bike_numbers":"24945,25005,28677,27802,27738,27482,27309,26318,25590,25538,25363,29362,25629,96347,96228","bike_types":{"4":15},"place_type":"0","rack_locks":"1"},{"uid":"2585364","lat":"52.2401623","lng":"20.9877277","name":"Wola-Ratusz","spot":"1","number":"9460","bikes":"3","bike_racks":"15","free_racks":"11","terminal_type":"7inch","bike_numbers":"26002,25643,29027","bike_types":{"4":3},"place_type":"0","rack_locks":"1"},{"uid":"2585368","lat":"52.2445326","lng":"20.99998","name":"Plac Bankowy - Kino Muran\u00f3w","spot":"1","number":"9462","bikes":"8","bike_racks":"17","free_racks":"4","terminal_type":"7inch","bike_numbers":"24820,27566,26256,26198,26147,25237,96464,96156","bike_types":{"4":8},"place_type":"0","rack_locks":"1"},{"uid":"2585369","lat":"52.2449465","lng":"21.0012943","name":"Andersa - D\u0142uga","spot":"1","number":"9463","bikes":"3","bike_racks":"30","free_racks":"28","terminal_type":"7inch","bike_numbers":"26868,26800,96204","bike_types":{"4":3},"place_type":"0","rack_locks":"1"},{"uid":"2585370","lat":"52.2442666","lng":"21.0015893","name":"Marsza\u0142kowska - al. Solidarno\u015bci","spot":"1","number":"9464","bikes":"11","bike_racks":"30","free_racks":"15","terminal_type":"7inch","bike_numbers":"28424,27782,26846,26638,26516,26408,25790,25659,25559,29171,29202","bike_types":{"4":11},"place_type":"0","rack_locks":"1"},{"uid":"2585371","lat":"52.2431975","lng":"21.0016603","name":"Plac Bankowy - Ratusz","spot":"1","number":"9465","bikes":"10","bike_racks":"30","free_racks":"18","terminal_type":"7inch","bike_numbers":"24811,24014,28539,27729,27214,27062,26390,26378,26203,25412","bike_types":{"4":9,"26":1},"place_type":"0","rack_locks":"1"},{"uid":"2585373","lat":"52.2435719","lng":"21.0066801","name":"Senatorska - Biela\u0144ska","spot":"1","number":"9466","bikes":"24","bike_racks":"17","free_racks":"0","terminal_type":"7inch","bike_numbers":"24946,28655,28574,28457,27718,26972,26938,26861,26842,26446,26352,25717,25471,25449,25378,25204,25188,25168,25105,25012,28965,28989,96149,29160","bike_types":{"4":24},"place_type":"0","rack_locks":"1"},{"uid":"2585377","lat":"52.246314509834","lng":"21.0113042593","name":"Miodowa","spot":"1","number":"9467","bikes":"33","bike_racks":"24","free_racks":"0","terminal_type":"7inch","bike_numbers":"24867,24615,28654,28538,28517,28448,27700,27465,27017,26809,26743,26592,26549,26514,26470,26184,26177,25960,25732,25462,25387,25347,25270,25264,25183,25120,25051,28825,96545,96416,96293,96167,96165","bike_types":{"4":33},"place_type":"0","rack_locks":"1"},{"uid":"2585378","lat":"52.2435965","lng":"21.0140803","name":"Krakowskie Przedmie\u015bcie - Tr\u0119backa","spot":"1","number":"9468","bikes":"14","bike_racks":"14","free_racks":"8","terminal_type":"7inch","bike_numbers":"24968,24619,24543,24462,28488,28414,27966,27737,26714,26500,26483,26037,25799,29161","bike_types":{"4":13,"51":1},"place_type":"0","rack_locks":"1"},{"uid":"2585379","lat":"52.2465625","lng":"21.0174345","name":"Mariensztat","spot":"1","number":"9469","bikes":"24","bike_racks":"15","free_racks":"0","terminal_type":"7inch","bike_numbers":"24648,24497,28886,28708,27542,27317,27253,27195,26895,26704,26642,26540,25986,25784,25691,25360,28998,96041,96019,96001,96454,96274,29276,29224","bike_types":{"4":23,"51":1},"place_type":"0","rack_locks":"1"},{"uid":"2585381","lat":"52.224934","lng":"20.945489","name":"Jana Kazimierza - Giz\u00f3w","spot":"1","number":"9471","bikes":"9","bike_racks":"13","free_racks":"4","terminal_type":"7inch","bike_numbers":"24591,24470,28643,28527,27897,27815,27289,25480,29238","bike_types":{"4":8,"51":1},"place_type":"0","rack_locks":"1"},{"uid":"2585385","lat":"52.2299137","lng":"20.9508179","name":"Wolska - Elekcyjna","spot":"1","number":"9472","bikes":"2","bike_racks":"20","free_racks":"18","terminal_type":"7inch","bike_numbers":"26265,25184","bike_types":{"4":2},"place_type":"0","rack_locks":"1"},{"uid":"2585387","lat":"52.237662392829","lng":"20.955492854118","name":"al. Prymasa Tysi\u0105clecia - G\u00f3rczewska","spot":"1","number":"9473","bikes":"10","bike_racks":"20","free_racks":"12","terminal_type":"7inch","bike_numbers":"28596,28320,27946,27272,26296,26273,25504,29092,96016,96238","bike_types":{"4":10},"place_type":"0","rack_locks":"1"},{"uid":"2585389","lat":"52.2333374","lng":"20.9652776","name":"Wolska - P\u0142ocka","spot":"1","number":"9474","bikes":"10","bike_racks":"15","free_racks":"5","terminal_type":"7inch","bike_numbers":"24570,27930,27875,26261,25496,25487,25422,25041,96169,96102","bike_types":{"4":10},"place_type":"0","rack_locks":"1"},{"uid":"2585391","lat":"52.228522296173","lng":"20.969638824463","name":"Kasprzaka - Skierniewicka","spot":"1","number":"9475","bikes":"2","bike_racks":"21","free_racks":"19","terminal_type":"7inch","bike_numbers":"26896,96462","bike_types":{"4":2},"place_type":"0","rack_locks":"1"},{"uid":"2585394","lat":"52.22898","lng":"20.97843","name":"Kasprzaka - Karolkowa","spot":"1","number":"9476","bikes":"7","bike_racks":"15","free_racks":"8","terminal_type":"7inch","bike_numbers":"24745,24507,28611,27531,26428,26266,96461","bike_types":{"4":7},"place_type":"0","rack_locks":"1"},{"uid":"2585396","lat":"52.2328752","lng":"20.9805411","name":"Muzeum Powstania Warszawskiego","spot":"1","number":"9477","bikes":"12","bike_racks":"10","free_racks":"0","terminal_type":"7inch","bike_numbers":"24633,24022,28370,27796,27393,27275,26888,25554,25399,96340,96124,96579","bike_types":{"4":11,"26":1},"place_type":"0","rack_locks":"1"},{"uid":"2585398","lat":"52.22983","lng":"20.983123","name":"Metro Rondo Daszy\u0144skiego","spot":"1","number":"9478","bikes":"24","bike_racks":"26","free_racks":"2","terminal_type":"7inch","bike_numbers":"24782,24455,28723,28510,28251,28147,28073,27883,27582,27432,27224,26733,26443,26024,26013,25989,25704,25122,29648,96531,96428,96296,29188,29226","bike_types":{"4":23,"51":1},"place_type":"0","rack_locks":"1"},{"uid":"2585400","lat":"52.23145","lng":"20.98869","name":"Prosta - Wronia","spot":"1","number":"9479","bikes":"16","bike_racks":"15","free_racks":"0","terminal_type":"7inch","bike_numbers":"24794,24750,24602,24024,28902,28454,28149,27957,27709,27144,26445,26023,25745,25336,96037,96356","bike_types":{"4":15,"26":1},"place_type":"0","rack_locks":"1"},{"uid":"2585401","lat":"52.2373141","lng":"20.9888488","name":"\u017belazna - Ch\u0142odna","spot":"1","number":"9480","bikes":"16","bike_racks":"15","free_racks":"0","terminal_type":"7inch","bike_numbers":"24967,28567,28107,27798,27530,27338,26407,25813,29089,28816,96391,96348,96266,96168,96076,29234","bike_types":{"4":16},"place_type":"0","rack_locks":"1"},{"uid":"2585402","lat":"52.2344946","lng":"20.9905117","name":"\u017belazna - Grzybowska","spot":"1","number":"9481","bikes":"21","bike_racks":"20","free_racks":"0","terminal_type":"7inch","bike_numbers":"24699,28479,28443,28257,28069,27255,27055,27047,26871,26783,26587,26215,25885,25649,25320,25272,29086,96024,96135,96080,29250","bike_types":{"4":21},"place_type":"0","rack_locks":"1"},{"uid":"2585405","lat":"52.238666","lng":"20.9957314","name":"al. Jana Paw\u0142a II - Plac Mirowski","spot":"1","number":"9482","bikes":"7","bike_racks":"16","free_racks":"10","terminal_type":"7inch","bike_numbers":"24986,27885,26811,26665,26420,96224,96216","bike_types":{"4":7},"place_type":"0","rack_locks":"1"},{"uid":"2585406","lat":"52.2357151","lng":"20.9966071","name":"al. Jana Paw\u0142a II - Grzybowska","spot":"1","number":"9483","bikes":"2","bike_racks":"23","free_racks":"21","terminal_type":"7inch","bike_numbers":"28276,25983","bike_types":{"4":2},"place_type":"0","rack_locks":"1"},{"uid":"2585410","lat":"52.23958","lng":"21.00027","name":"Ptasia - Zimna","spot":"1","number":"9485","bikes":"5","bike_racks":"16","free_racks":"11","terminal_type":"7inch","bike_numbers":"28509,28324,26486,25035,96365","bike_types":{"4":5},"place_type":"0","rack_locks":"1"},{"uid":"2585412","lat":"52.2336314","lng":"21.0028795","name":"Emilii Plater - \u015awi\u0119tokrzyska","spot":"1","number":"9486","bikes":"17","bike_racks":"26","free_racks":"8","terminal_type":"7inch","bike_numbers":"24636,24548,25000,28483,28004,27617,27385,26906,26617,26225,25982,25973,25259,29079,28867,96154,29149","bike_types":{"4":17},"place_type":"0","rack_locks":"1"},{"uid":"2585413","lat":"52.2358704","lng":"21.0037806","name":"Plac Grzybowski","spot":"1","number":"9487","bikes":"21","bike_racks":"26","free_racks":"4","terminal_type":"7inch","bike_numbers":"24739,28476,28148,28060,27787,27534,27486,27086,27020,27018,26996,26857,26605,25933,25884,96554,96403,96326,96276,96189,96188","bike_types":{"4":21},"place_type":"0","rack_locks":"1"},{"uid":"2585416","lat":"52.2384853","lng":"21.0067552","name":"Marsza\u0142kowska - Kr\u00f3lewska","spot":"1","number":"9488","bikes":"14","bike_racks":"19","free_racks":"4","terminal_type":"7inch","bike_numbers":"24951,24826,24728,24665,28190,27699,27235,26875,26406,26068,25151,28981,96456,96116","bike_types":{"4":14},"place_type":"0","rack_locks":"1"},{"uid":"2585417","lat":"52.2364206","lng":"21.0072407","name":"Marsza\u0142kowska - Zielna","spot":"1","number":"9489","bikes":"4","bike_racks":"30","free_racks":"26","terminal_type":"7inch","bike_numbers":"27429,27165,25214,96393","bike_types":{"4":4},"place_type":"0","rack_locks":"1"},{"uid":"2585420","lat":"52.2397008","lng":"21.0119292","name":"Plac Ma\u0142achowskiego","spot":"1","number":"9491","bikes":"12","bike_racks":"16","free_racks":"4","terminal_type":"7inch","bike_numbers":"24927,28214,28023,27870,27723,27162,26864,26156,25927,25524,29026,96191","bike_types":{"4":12},"place_type":"0","rack_locks":"1"},{"uid":"2585422","lat":"52.2359114","lng":"21.0135654","name":"Plac Powsta\u0144c\u00f3w Warszawy","spot":"1","number":"9492","bikes":"19","bike_racks":"20","free_racks":"1","terminal_type":"7inch","bike_numbers":"28747,28437,28150,28050,27963,27795,27610,27526,27367,27267,27245,25428,29057,29049,29121,25631,29189,29217,96584","bike_types":{"4":18,"0":1},"place_type":"0","rack_locks":"1"},{"uid":"2585423","lat":"52.2393559","lng":"21.016603","name":"Krakowskie Przedmie\u015bcie - Traugutta","spot":"1","number":"9493","bikes":"19","bike_racks":"24","free_racks":"5","terminal_type":"7inch","bike_numbers":"24726,24580,24492,28504,27915,27565,27395,27346,26962,26738,26462,26321,26299,26128,26003,25403,28814,28985,29186","bike_types":{"4":18,"51":1},"place_type":"0","rack_locks":"1"},{"uid":"2585429","lat":"52.238298","lng":"21.0184014","name":"Obo\u017ana - Kopernika","spot":"1","number":"9495","bikes":"21","bike_racks":"22","free_racks":"1","terminal_type":"7inch","bike_numbers":"24604,24565,24545,24542,28712,28650,28646,28521,28080,27714,27690,27653,27015,26717,26239,26057,25304,29144,28877,96573,96548","bike_types":{"4":20,"0":1},"place_type":"0","rack_locks":"1"},{"uid":"2585430","lat":"52.24190654256","lng":"21.024259328842","name":"Lipowa - Dobra","spot":"1","number":"9496","bikes":"25","bike_racks":"19","free_racks":"0","terminal_type":"7inch","bike_numbers":"24664,24528,28698,28688,28663,28141,27979,27600,27399,27371,27147,26788,26770,25942,29106,29021,28951,25624,96028,96457,96361,96294,96152,96094,29216","bike_types":{"4":25},"place_type":"0","rack_locks":"1"},{"uid":"2585431","lat":"52.2413087","lng":"21.0281727","name":"Centrum Nauki Kopernik","spot":"1","number":"9497","bikes":"26","bike_racks":"30","free_racks":"18","terminal_type":"7inch","bike_numbers":"24933,24722,24531,24506,24038,28720,28405,27910,27469,27419,27034,27033,26944,26933,26522,26219,26158,25826,25619,25595,25154,28776,28826,96309,96186,29244","bike_types":{"4":25,"26":1},"place_type":"0","rack_locks":"1"},{"uid":"2585432","lat":"52.2264464","lng":"20.9837164","name":"Kolejowa","spot":"1","number":"9498","bikes":"1","bike_racks":"16","free_racks":"15","terminal_type":"7inch","bike_numbers":"24010","bike_types":{"26":1},"place_type":"0","rack_locks":"1"},{"uid":"2585433","lat":"52.22983","lng":"20.993996","name":"\u017belazna - Sienna","spot":"1","number":"9499","bikes":"8","bike_racks":"24","free_racks":"15","terminal_type":"7inch","bike_numbers":"24539,27293,26878,26009,25705,25655,96398,96260","bike_types":{"4":8},"place_type":"0","rack_locks":"1"},{"uid":"2585435","lat":"52.230201297582","lng":"20.999550819397","name":"al. Jana Paw\u0142a II - Z\u0142ota","spot":"1","number":"9500","bikes":"2","bike_racks":"16","free_racks":"14","terminal_type":"7inch","bike_numbers":"28478,29446","bike_types":{"4":2},"place_type":"0","rack_locks":"1"},{"uid":"2585438","lat":"52.2309778","lng":"21.0036755","name":"Emilii Plater - Z\u0142ota","spot":"1","number":"9501","bikes":"5","bike_racks":"30","free_racks":"24","terminal_type":"7inch","bike_numbers":"28489,28475,26257,25171,29119","bike_types":{"4":5},"place_type":"0","rack_locks":"1"},{"uid":"2585440","lat":"52.232816601853","lng":"21.006980538368","name":"Pa\u0142ac Kultury i Nauki","spot":"1","number":"9502","bikes":"10","bike_racks":"17","free_racks":"7","terminal_type":"7inch","bike_numbers":"24885,24801,27286,27128,26523,25843,25381,25250,96254,29268","bike_types":{"4":10},"place_type":"0","rack_locks":"1"},{"uid":"2585442","lat":"52.232934","lng":"21.0101791","name":"Marsza\u0142kowska - Z\u0142ota","spot":"1","number":"9503","bikes":"5","bike_racks":"22","free_racks":"17","terminal_type":"7inch","bike_numbers":"28585,27118,26925,26052,25685","bike_types":{"4":5},"place_type":"0","rack_locks":"1"},{"uid":"2585445","lat":"52.231987","lng":"21.016092","name":"Bracka - Krucza","spot":"1","number":"9504","bikes":"11","bike_racks":"20","free_racks":"9","terminal_type":"7inch","bike_numbers":"28716,28704,27374,27129,25708,25681,25310,96060,96526,96101,29211","bike_types":{"4":11},"place_type":"0","rack_locks":"1"},{"uid":"2585446","lat":"52.2355713","lng":"21.0179642","name":"Nowy \u015awiat - Warecka","spot":"1","number":"9505","bikes":"22","bike_racks":"24","free_racks":"2","terminal_type":"7inch","bike_numbers":"28269,28134,28079,27844,27810,27470,27179,26412,26211,26185,25913,25540,25457,25453,25058,25020,29078,29076,29445,28988,96058,96339","bike_types":{"4":22},"place_type":"0","rack_locks":"1"},{"uid":"2585447","lat":"52.2337571","lng":"21.0202789","name":"Ga\u0142czy\u0144skiego - Foksal","spot":"1","number":"9506","bikes":"14","bike_racks":"24","free_racks":"10","terminal_type":"7inch","bike_numbers":"28154,28072,27665,26900,26778,26613,26179,25511,25359,25344,29107,96530,96248,29195","bike_types":{"4":14},"place_type":"0","rack_locks":"1"},{"uid":"2585450","lat":"52.2375934","lng":"21.0256487","name":"Topiel - Tamka","spot":"1","number":"9507","bikes":"74","bike_racks":"20","free_racks":"0","terminal_type":"7inch","bike_numbers":"24903,24828,24734,24668,24625,24520,24509,24469,24463,28760,28749,28734,28685,28537,28511,28295,28272,28155,28140,28127,28108,27848,27774,27734,27661,27551,27502,27427,27387,27365,27202,27130,27069,27030,26966,26961,26884,26816,26767,26718,26688,26359,26357,26339,26281,26259,26240,26142,26014,26007,25822,25788,25532,25473,25405,25294,25278,25115,25013,29023,28934,29367,25630,28971,28996,96033,96014,96012,96566,96472,96292,96109,96582,96589","bike_types":{"4":72,"51":2},"place_type":"0","rack_locks":"1"},{"uid":"2585452","lat":"52.2358752","lng":"21.0317323","name":"Solec - Jaracza","spot":"1","number":"9508","bikes":"9","bike_racks":"15","free_racks":"6","terminal_type":"7inch","bike_numbers":"28602,28460,27049,26713,26673,25744,29038,96528,96307","bike_types":{"4":9},"place_type":"0","rack_locks":"1"},{"uid":"2585453","lat":"52.2218874","lng":"20.9795301","name":"al. Jerozolimskie - Niemcewicza","spot":"1","number":"9509","bikes":"8","bike_racks":"19","free_racks":"11","terminal_type":"7inch","bike_numbers":"28572,27950,27842,27269,26739,26368,26178,25875","bike_types":{"4":8},"place_type":"0","rack_locks":"1"},{"uid":"2585455","lat":"52.2222155","lng":"20.9866293","name":"Ochota-Ratusz","spot":"1","number":"9510","bikes":"10","bike_racks":"23","free_racks":"13","terminal_type":"7inch","bike_numbers":"24858,28522,27660,27355,27239,26730,26580,25801,25018,29387","bike_types":{"4":10},"place_type":"0","rack_locks":"1"},{"uid":"2585457","lat":"52.2249718","lng":"20.9897661","name":"Plac Zawiszy","spot":"1","number":"9511","bikes":"6","bike_racks":"24","free_racks":"20","terminal_type":"7inch","bike_numbers":"24838,26917,25723,25085,25016,28912","bike_types":{"4":6},"place_type":"0","rack_locks":"1"},{"uid":"2585460","lat":"52.22626","lng":"20.9961309","name":"al. Jerozolimskie - Lindleya","spot":"1","number":"9512","bikes":"16","bike_racks":"15","free_racks":"1","terminal_type":"7inch","bike_numbers":"24806,24672,28330,27691,27401,26970,26897,26405,25669,25349,25071,29063,96237,96177,29156,96586","bike_types":{"4":16},"place_type":"0","rack_locks":"1"},{"uid":"2585462","lat":"52.2241455","lng":"20.9975244","name":"Lindleya - szpital","spot":"1","number":"9513","bikes":"36","bike_racks":"28","free_racks":"0","terminal_type":"7inch","bike_numbers":"24854,24805,24795,28563,28547,28485,28360,27801,27477,27403,27268,27137,27104,26916,26853,26772,26732,26662,26518,26484,26396,26381,25664,25634,25298,25177,29344,29113,29365,28855,96498,96414,96255,96241,96099,96095","bike_types":{"4":36},"place_type":"0","rack_locks":"1"},{"uid":"2585464","lat":"52.227861","lng":"21.0008509","name":"Warszawa \u015ar\u00f3dmie\u015bcie WKD","spot":"1","number":"9514","bikes":"2","bike_racks":"18","free_racks":"17","terminal_type":"7inch","bike_numbers":"26091,24053","bike_types":{"4":1,"26":1},"place_type":"0","rack_locks":"1"},{"uid":"2585466","lat":"52.2249555","lng":"21.0031664","name":"Oczki - WUM","spot":"1","number":"9515","bikes":"10","bike_racks":"19","free_racks":"9","terminal_type":"7inch","bike_numbers":"24732,24720,28152,28036,27146,27008,26988,26323,25446,29282","bike_types":{"4":10},"place_type":"0","rack_locks":"1"},{"uid":"2585469","lat":"52.2290464","lng":"21.0054544","name":"Emilii Plater - Al. Jerozolimskie","spot":"1","number":"9517","bikes":"1","bike_racks":"30","free_racks":"29","terminal_type":"7inch","bike_numbers":"24706","bike_types":{"4":1},"place_type":"0","rack_locks":"1"},{"uid":"2585470","lat":"52.2259343","lng":"21.0067537","name":"Emilii Plater - Wsp\u00f3lna","spot":"1","number":"9518","bikes":"3","bike_racks":"15","free_racks":"12","terminal_type":"7inch","bike_numbers":"26170,25573,29257","bike_types":{"4":3},"place_type":"0","rack_locks":"1"},{"uid":"2585472","lat":"52.23001","lng":"21.01088","name":"Metro Centrum","spot":"1","number":"9519","bikes":"7","bike_racks":"30","free_racks":"23","terminal_type":"7inch","bike_numbers":"28593,28368,27314,26810,25548,29361,28798","bike_types":{"4":7},"place_type":"0","rack_locks":"1"},{"uid":"2585473","lat":"52.229347019086","lng":"21.011314988136","name":"Marsza\u0142kowska - Al. Jerozolimskie","spot":"1","number":"9520","bikes":"2","bike_racks":"20","free_racks":"17","terminal_type":"7inch","bike_numbers":"26839,26103","bike_types":{"4":2},"place_type":"0","rack_locks":"1"},{"uid":"2585476","lat":"52.230418150276","lng":"21.013610959053","name":"al. Jerozolimskie - rejon Rotundy","spot":"1","number":"9521","bikes":"11","bike_racks":"24","free_racks":"12","terminal_type":"7inch","bike_numbers":"24589,28503,27629,27562,26463,26208,25687,25551,25484,25279,25223","bike_types":{"4":11},"place_type":"0","rack_locks":"1"},{"uid":"2585477","lat":"52.2262882","lng":"21.0135705","name":"Marsza\u0142kowska - Ho\u017ca","spot":"1","number":"9522","bikes":"10","bike_racks":"15","free_racks":"4","terminal_type":"7inch","bike_numbers":"24992,28763,28397,26989,26004,25212,25119,28850,96362,96151","bike_types":{"4":10},"place_type":"0","rack_locks":"1"},{"uid":"2585492","lat":"52.2282923","lng":"21.0178542","name":"Krucza - Wsp\u00f3lna","spot":"1","number":"9523","bikes":"20","bike_racks":"28","free_racks":"8","terminal_type":"7inch","bike_numbers":"24523,28031,27869,27693,27453,27131,27012,26679,26089,25932,25925,25923,25481,25195,25137,96447,96219,96164,29147,29255","bike_types":{"4":20},"place_type":"0","rack_locks":"1"},{"uid":"2585684","lat":"52.23144","lng":"21.0213036","name":"Rondo de Gaulle'a","spot":"1","number":"9524","bikes":"15","bike_racks":"22","free_racks":"9","terminal_type":"7inch","bike_numbers":"28729,28323,28297,27735,27217,27032,25754,25158,29656,28813,96509,96474,96081,29280,29275","bike_types":{"4":15},"place_type":"0","rack_locks":"1"},{"uid":"2585694","lat":"52.2278487","lng":"21.0235084","name":"Plac Trzech Krzy\u017cy","spot":"1","number":"9525","bikes":"12","bike_racks":"23","free_racks":"10","maintenance":"1","terminal_type":"7inch","bike_numbers":"24983,24932,24914,24716,28892,27812,27333,27270,27266,26167,25228,96137","bike_types":{"4":12},"place_type":"0","rack_locks":"1"},{"uid":"2585695","lat":"52.23324","lng":"21.0261179","name":"Smolna - PKP Powi\u015ble","spot":"1","number":"9526","bikes":"0","bike_racks":"18","free_racks":"18","terminal_type":"7inch","place_type":"0","rack_locks":"1","bike_numbers":null,"bike_types":[]},{"uid":"2585699","lat":"52.2340191","lng":"21.0300328","name":"Herberta - PKP Powi\u015ble","spot":"1","number":"9527","bikes":"16","bike_racks":"26","free_racks":"17","terminal_type":"7inch","bike_numbers":"24973,24875,24859,24459,24036,28408,27757,27615,25132,29080,29448,29554,28888,28918,96304,29153","bike_types":{"4":14,"51":1,"54":1},"place_type":"0","rack_locks":"1"},{"uid":"2585704","lat":"52.2347879","lng":"21.0340991","name":"Solec - al. 3 Maja","spot":"1","number":"9528","bikes":"17","bike_racks":"24","free_racks":"7","terminal_type":"7inch","bike_numbers":"24735,28472,28458,28380,28123,28102,27271,26982,26066,25911,25842,29007,28837,96034,96493,96452,96576","bike_types":{"4":17},"place_type":"0","rack_locks":"1"},{"uid":"2585708","lat":"52.2301405","lng":"21.0303694","name":"Ksi\u0105\u017c\u0119ca - Rozbrat","spot":"1","number":"9529","bikes":"21","bike_racks":"15","free_racks":"1","terminal_type":"7inch","bike_numbers":"24881,24658,28565,28262,28041,28019,27779,27433,27418,27101,26729,26597,26001,25730,25640,25431,25342,29134,96478,96157,24048","bike_types":{"4":20,"26":1},"place_type":"0","rack_locks":"1"},{"uid":"2585711","lat":"52.2172177","lng":"20.9713608","name":"Szcz\u0119\u015bliwicka - APS","spot":"1","number":"9530","bikes":"3","bike_racks":"22","free_racks":"18","terminal_type":"7inch","bike_numbers":"24033,29458,28857","bike_types":{"26":1,"4":2},"place_type":"0","rack_locks":"1"},{"uid":"2585712","lat":"52.2179474","lng":"20.9775567","name":"Kopi\u0144ska - Bia\u0142obrzeska","spot":"1","number":"9531","bikes":"0","bike_racks":"15","free_racks":"14","terminal_type":"7inch","place_type":"0","rack_locks":"1","bike_numbers":null,"bike_types":[]},{"uid":"2585714","lat":"52.2178554","lng":"20.9828138","name":"Plac Narutowicza","spot":"1","number":"9532","bikes":"8","bike_racks":"30","free_racks":"22","terminal_type":"7inch","bike_numbers":"26930,26601,25945,25227,29022,29426,96290,29201","bike_types":{"4":8},"place_type":"0","rack_locks":"1"},{"uid":"2585716","lat":"52.216641","lng":"20.9879476","name":"Raszy\u0144ska - Wawelska","spot":"1","number":"9533","bikes":"0","bike_racks":"12","free_racks":"12","terminal_type":"7inch","place_type":"0","rack_locks":"1","bike_numbers":null,"bike_types":[]},{"uid":"2585717","lat":"52.2191029","lng":"20.9890149","name":"Raszy\u0144ska - Filtrowa","spot":"1","number":"9534","bikes":"8","bike_racks":"18","free_racks":"10","terminal_type":"7inch","bike_numbers":"24577,24564,27861,27083,26172,25243,29081,96417","bike_types":{"4":8},"place_type":"0","rack_locks":"1"},{"uid":"2585720","lat":"52.220676","lng":"21.0045554","name":"al. Niepodleg\u0142o\u015bci - Nowowiejska","spot":"1","number":"9535","bikes":"18","bike_racks":"30","free_racks":"12","terminal_type":"7inch","bike_numbers":"24995,24771,24683,28817,28296,27004,26556,26457,26342,26288,25847,25668,25379,29017,29146,28983,96550,96243","bike_types":{"4":17,"0":1},"place_type":"0","rack_locks":"1"},{"uid":"2585721","lat":"52.2174693","lng":"21.0056537","name":"Kaczy\u0144skiego - al. Niepodleg\u0142o\u015bci","spot":"1","number":"9536","bikes":"18","bike_racks":"16","free_racks":"0","terminal_type":"7inch","bike_numbers":"24657,28624,28473,28208,28084,27563,27506,27488,27406,26762,26585,26546,25802,25725,25395,25267,25142,96502","bike_types":{"4":18},"place_type":"0","rack_locks":"1"},{"uid":"2585722","lat":"52.2226831","lng":"21.0081097","name":"Noakowskiego - Koszykowa","spot":"1","number":"9537","bikes":"9","bike_racks":"24","free_racks":"13","terminal_type":"7inch","bike_numbers":"24478,28052,27982,27967,27879,27790,28815,28833,96105","bike_types":{"51":1,"4":8},"place_type":"0","rack_locks":"1"},{"uid":"2585724","lat":"52.219916","lng":"21.0116824","name":"Plac Politechniki","spot":"1","number":"9538","bikes":"6","bike_racks":"27","free_racks":"20","terminal_type":"7inch","bike_numbers":"24916,28157,26893,25792,96407,96382","bike_types":{"4":6},"place_type":"0","rack_locks":"1"},{"uid":"2585727","lat":"52.223503","lng":"21.0128519","name":"Pozna\u0144ska - Zesp\u00f3\u0142 Szk\u00f3\u0142 Gastronomicznych","spot":"1","number":"9539","bikes":"20","bike_racks":"18","free_racks":"0","terminal_type":"7inch","bike_numbers":"24628,28735,28342,27927,27846,27743,27670,27379,26797,26610,26270,25966,25890,25786,25533,25118,29050,96048,96444,29168","bike_types":{"4":20},"place_type":"0","rack_locks":"1"},{"uid":"2585728","lat":"52.2174857","lng":"21.0142949","name":"Rondo Jazdy Polskiej","spot":"1","number":"9540","bikes":"4","bike_racks":"24","free_racks":"19","terminal_type":"7inch","bike_numbers":"27964,26611,25317,96578","bike_types":{"4":4},"place_type":"0","rack_locks":"1"},{"uid":"2585729","lat":"52.2197435","lng":"21.0157353","name":"Metro Politechnika - Nowowiejska","spot":"1","number":"9541","bikes":"5","bike_racks":"18","free_racks":"13","terminal_type":"7inch","bike_numbers":"28193,28042,26395,25686,25334","bike_types":{"4":5},"place_type":"0","rack_locks":"1"},{"uid":"2585731","lat":"52.2197681","lng":"21.0172775","name":"Plac Zbawiciela","spot":"1","number":"9542","bikes":"7","bike_racks":"12","free_racks":"5","terminal_type":"7inch","bike_numbers":"27595,26422,26246,26054,26028,96515,96158","bike_types":{"4":7},"place_type":"0","rack_locks":"1"},{"uid":"2585735","lat":"52.2229427","lng":"21.0158211","name":"Plac Konstytucji","spot":"1","number":"9543","bikes":"21","bike_racks":"30","free_racks":"8","terminal_type":"7inch","bike_numbers":"24662,24621,24596,28761,28322,28263,27994,27968,27644,27423,27153,26785,26191,25935,25654,25420,25325,96482,96473,96357,29183","bike_types":{"4":21},"place_type":"0","rack_locks":"1"},{"uid":"2585737","lat":"52.2238152","lng":"21.0207859","name":"Mokotowska - Pi\u0119kna","spot":"1","number":"9544","bikes":"28","bike_racks":"20","free_racks":"0","terminal_type":"7inch","bike_numbers":"24976,24965,24844,24693,28312,27888,27745,27707,27626,27540,27454,27369,27328,27211,27186,26660,26559,26252,26019,25825,25756,25722,25576,29456,28809,96558,96503,96259","bike_types":{"4":28},"place_type":"0","rack_locks":"1"},{"uid":"2585738","lat":"52.2200212","lng":"21.0256299","name":"Plac na Rozdro\u017cu","spot":"1","number":"9545","bikes":"19","bike_racks":"26","free_racks":"7","terminal_type":"7inch","bike_numbers":"24614,28530,28359,28355,27826,27444,27210,27139,27088,26805,26543,26402,26248,26127,29083,29140,28963,96310,96128","bike_types":{"4":18,"0":1},"place_type":"0","rack_locks":"1"},{"uid":"2585742","lat":"52.2249504","lng":"21.0268155","name":"Matejki - Wiejska","spot":"1","number":"9546","bikes":"21","bike_racks":"20","free_racks":"0","terminal_type":"7inch","bike_numbers":"24971,24823,24476,24465,28766,28558,27882,27594,27074,26513,26481,26101,25977,25848,25824,25580,25393,25173,29347,96568,96211","bike_types":{"4":19,"51":2},"place_type":"0","rack_locks":"1"},{"uid":"2585747","lat":"52.2221129","lng":"21.0343873","name":"My\u015bliwiecka - Rozbrat","spot":"1","number":"9547","bikes":"28","bike_racks":"21","free_racks":"7","terminal_type":"7inch","bike_numbers":"24895,24654,28745,28595,28120,28040,27977,27775,27716,27711,27685,27084,26934,26926,26830,26814,26742,26326,26164,25859,25069,29357,28805,28978,96561,96410,96319,29219","bike_types":{"4":28},"place_type":"0","rack_locks":"1"},{"uid":"2585748","lat":"52.2277124","lng":"21.0442955","name":"Port Czerniakowski","spot":"1","number":"9548","bikes":"39","bike_racks":"30","free_racks":"4","terminal_type":"7inch","bike_numbers":"24865,24861,24814,24802,24626,24502,28802,28706,28579,28573,28495,28486,28436,28375,28283,27922,27836,27640,27218,27125,26749,26490,26478,26258,25773,25736,25475,25369,25330,25299,29103,29065,29024,25622,28972,96026,96565,96520,29221","bike_types":{"4":39},"place_type":"0","rack_locks":"1"},{"uid":"2585749","lat":"52.2109711","lng":"20.9759125","name":"Gr\u00f3jecka - Bitwy Warszawskiej 1920 roku","spot":"1","number":"9549","bikes":"3","bike_racks":"20","free_racks":"17","terminal_type":"7inch","bike_numbers":"24961,96423,29148","bike_types":{"4":3},"place_type":"0","rack_locks":"1"},{"uid":"2585750","lat":"52.2130296","lng":"20.9819985","name":"Pasteura - Winnicka - UW","spot":"1","number":"9550","bikes":"23","bike_racks":"24","free_racks":"0","terminal_type":"7inch","bike_numbers":"24638,24458,28722,28721,28491,28474,28379,28196,28027,27189,27064,27027,26519,26384,26075,25644,25452,25430,28949,96056,96383,29240,29227","bike_types":{"4":22,"51":1},"place_type":"0","rack_locks":"1"},{"uid":"2585762","lat":"52.2107722","lng":"20.9847557","name":"Stefana Banacha - UW","spot":"1","number":"9551","bikes":"33","bike_racks":"29","free_racks":"0","terminal_type":"7inch","bike_numbers":"24871,24754,24642,24508,24031,28555,28389,28146,28018,27797,27783,27740,27496,27276,26964,26912,26872,26727,26724,26313,26137,25851,25849,25794,25653,29048,60854,29127,29142,25632,96450,96090,29208","bike_types":{"4":30,"26":1,"0":2},"place_type":"0","rack_locks":"1"},{"uid":"2585764","lat":"52.212671","lng":"21.003437","name":"Biblioteka Narodowa","spot":"1","number":"9552","bikes":"3","bike_racks":"24","free_racks":"22","terminal_type":"7inch","bike_numbers":"26232,25308,25116","bike_types":{"4":3},"place_type":"0","rack_locks":"1"},{"uid":"2585766","lat":"52.21691","lng":"21.01997","name":"Marsza\u0142kowska - Litewska","spot":"1","number":"9553","bikes":"17","bike_racks":"15","free_racks":"1","terminal_type":"7inch","bike_numbers":"28904,28604,28494,28406,28271,27586,27390,27216,27096,26760,26438,26008,25469,25451,25385,96226,29207","bike_types":{"4":17},"place_type":"0","rack_locks":"1"},{"uid":"2585770","lat":"52.2083858","lng":"20.9631103","name":"P\u0119tla Szcz\u0119\u015bliwice","spot":"1","number":"9554","bikes":"24","bike_racks":"19","free_racks":"2","terminal_type":"7inch","bike_numbers":"24956,24519,24482,28697,28192,28133,28112,28034,27935,27421,26975,26890,26725,26426,26267,26026,25844,25610,25062,96006,96529,96253,96125,29169","bike_types":{"4":23,"51":1},"place_type":"0","rack_locks":"1"},{"uid":"2585771","lat":"52.206153650625","lng":"20.970287919044","name":"Dickensa - Geodet\u00f3w","spot":"1","number":"9555","bikes":"1","bike_racks":"16","free_racks":"15","terminal_type":"7inch","bike_numbers":"24996","bike_types":{"4":1},"place_type":"0","rack_locks":"1"},{"uid":"2585772","lat":"52.205361371875","lng":"20.984664559364","name":"\u017bwirki i Wigury - Ksi\u0119cia Trojdena","spot":"1","number":"9556","bikes":"8","bike_racks":"17","free_racks":"9","terminal_type":"7inch","bike_numbers":"24853,24737,27452,25833,25800,25522,29012,29258","bike_types":{"4":8},"place_type":"0","rack_locks":"1"},{"uid":"2585774","lat":"52.205801893754","lng":"20.998928546906","name":"Rakowiecka - \u015aw. A. Boboli","spot":"1","number":"9557","bikes":"15","bike_racks":"17","free_racks":"0","terminal_type":"7inch","bike_numbers":"24850,24783,24040,28804,28732,28589,27061,26922,26865,26766,25408,25193,25112,25022,28950","bike_types":{"4":14,"26":1},"place_type":"0","rack_locks":"1"},{"uid":"2585776","lat":"52.209916","lng":"21.0067794","name":"al. Niepodleg\u0142o\u015bci - Batorego","spot":"1","number":"9558","bikes":"2","bike_racks":"26","free_racks":"25","terminal_type":"7inch","bike_numbers":"28038,25886","bike_types":{"4":2},"place_type":"0","rack_locks":"1"},{"uid":"2585779","lat":"52.2132375","lng":"21.0210568","name":"Plac Unii Lubelskiej","spot":"1","number":"9559","bikes":"21","bike_racks":"24","free_racks":"2","terminal_type":"7inch","bike_numbers":"24753,28819,28755,28550,28398,27669,27420,27296,27148,26927,26710,26189,26079,25904,25362,25361,25311,25175,29073,96140,29251","bike_types":{"4":21},"place_type":"0","rack_locks":"1"},{"uid":"2585781","lat":"52.2027557","lng":"20.9508951","name":"W\u0142odarzewska - Maszynowa","spot":"1","number":"9560","bikes":"4","bike_racks":"18","free_racks":"14","terminal_type":"7inch","bike_numbers":"28659,28220,25239,96089","bike_types":{"4":4},"place_type":"0","rack_locks":"1"},{"uid":"2585782","lat":"52.2017647","lng":"20.9820897","name":"Sanocka - Pruszkowska","spot":"1","number":"9561","bikes":"2","bike_racks":"15","free_racks":"13","terminal_type":"7inch","bike_numbers":"27024,25021","bike_types":{"4":2},"place_type":"0","rack_locks":"1"},{"uid":"2585785","lat":"52.1981365","lng":"20.9833717","name":"\u017bwirki i Wigury - Rac\u0142awicka","spot":"1","number":"9562","bikes":"7","bike_racks":"18","free_racks":"11","terminal_type":"7inch","bike_numbers":"28644,28307,28286,27372,26124,96552,96385","bike_types":{"4":7},"place_type":"0","rack_locks":"1"},{"uid":"2585787","lat":"52.20177","lng":"20.99969","name":"Wo\u0142oska - Kulskiego","spot":"1","number":"9563","bikes":"14","bike_racks":"15","free_racks":"4","terminal_type":"7inch","bike_numbers":"24877,24028,28599,27674,27431,27174,26981,26431,25781,25741,25324,29124,28893,96122","bike_types":{"4":12,"26":1,"0":1},"place_type":"0","rack_locks":"1"},{"uid":"2585788","lat":"52.2042638","lng":"21.014428","name":"Madali\u0144skiego - Kazimierzowska","spot":"1","number":"9564","bikes":"20","bike_racks":"24","free_racks":"4","terminal_type":"7inch","bike_numbers":"24991,24483,28446,27593,27541,27525,27368,26919,26850,26579,26284,26039,25998,25758,25651,25444,29338,28808,96330,29165","bike_types":{"4":19,"51":1},"place_type":"0","rack_locks":"1"},{"uid":"2585789","lat":"52.2055175","lng":"21.0231033","name":"Pu\u0142awska - Dworkowa","spot":"1","number":"9565","bikes":"6","bike_racks":"19","free_racks":"14","terminal_type":"7inch","bike_numbers":"24780,24524,24496,27536,27362,26640","bike_types":{"4":5,"51":1},"place_type":"0","rack_locks":"1"},{"uid":"2585790","lat":"52.2071756","lng":"21.0312643","name":"Belwederska - Gagarina","spot":"1","number":"9566","bikes":"30","bike_racks":"30","free_racks":"4","terminal_type":"7inch","bike_numbers":"24781,24656,24627,24612,28482,28065,28008,27713,27508,27445,27409,27262,27132,27100,26983,26369,26073,25938,25489,25083,28941,28938,29359,28895,96479,96477,96342,96083,29174,29259","bike_types":{"4":30},"place_type":"0","rack_locks":"1"},{"uid":"2585791","lat":"52.2074193","lng":"21.0479621","name":"Czerniakowska - Gagarina","spot":"1","number":"9567","bikes":"35","bike_racks":"25","free_racks":"2","terminal_type":"7inch","bike_numbers":"24816,24773,24645,24607,24584,24534,28586,28341,28136,28121,27956,27932,27866,27510,27343,27302,27181,26465,26309,26285,26115,26042,26030,26006,25990,25589,25454,25341,25086,25046,25033,28952,28935,29641,96426","bike_types":{"4":35},"place_type":"0","rack_locks":"1"},{"uid":"2585794","lat":"52.1938131","lng":"20.9914431","name":"Etiudy Rewolucyjnej - Mi\u0105czy\u0144ska","spot":"1","number":"9568","bikes":"2","bike_racks":"18","free_racks":"16","terminal_type":"7inch","bike_numbers":"24724,27384","bike_types":{"4":2},"place_type":"0","rack_locks":"1"},{"uid":"2585799","lat":"52.1994156","lng":"21.0121384","name":"Metro Rac\u0142awicka","spot":"1","number":"9570","bikes":"15","bike_racks":"30","free_racks":"14","terminal_type":"7inch","bike_numbers":"24550,25009,28626,28142,27809,27389,27051,26936,26821,26586,25639,25350,25210,25206,28872","bike_types":{"4":15},"place_type":"0","rack_locks":"1"},{"uid":"2585800","lat":"52.199505","lng":"21.0240975","name":"Pu\u0142awska - Dolna","spot":"1","number":"9571","bikes":"1","bike_racks":"18","free_racks":"17","terminal_type":"7inch","bike_numbers":"28418","bike_types":{"4":1},"place_type":"0","rack_locks":"1"},{"uid":"2585802","lat":"52.2014754","lng":"21.0360047","name":"Sobieskiego - Che\u0142mska","spot":"1","number":"9572","bikes":"40","bike_racks":"15","free_racks":"0","terminal_type":"7inch","bike_numbers":"24987,24873,24622,28759,28701,28546,28410,28400,28015,27890,27672,27407,27248,27247,27164,27095,27022,26914,26889,26591,26561,26544,26471,26460,26315,25880,25871,25778,25755,25695,25648,25508,25346,25109,28909,28854,96010,96527,96268,96092","bike_types":{"4":40},"place_type":"0","rack_locks":"1"},{"uid":"2585804","lat":"52.1998446","lng":"21.05095","name":"Czerniakowska - ZUS","spot":"1","number":"9573","bikes":"9","bike_racks":"15","free_racks":"5","terminal_type":"7inch","bike_numbers":"24929,28315,27081,26367,26344,26308,26065,25314,28830","bike_types":{"4":9},"place_type":"0","rack_locks":"1"},{"uid":"2585807","lat":"52.1916776","lng":"20.8689688","name":"PKP Ursus-Nied\u017awiadek","spot":"1","number":"9574","bikes":"5","bike_racks":"15","free_racks":"11","terminal_type":"7inch","bike_numbers":"27598,27205,29452,96345,96236","bike_types":{"4":5},"place_type":"0","rack_locks":"1"},{"uid":"2585808","lat":"52.1960469","lng":"20.8849347","name":"PKP Ursus","spot":"1","number":"9575","bikes":"6","bike_racks":"16","free_racks":"10","terminal_type":"7inch","bike_numbers":"27639,26328,25892,25888,25667,96470","bike_types":{"4":6},"place_type":"0","rack_locks":"1"},{"uid":"2585809","lat":"52.1869936","lng":"20.8906478","name":"Sosnkowskiego - OSiR Ursus","spot":"1","number":"9576","bikes":"6","bike_racks":"15","free_racks":"9","terminal_type":"7inch","bike_numbers":"24576,28336,28122,27569,25256,96091","bike_types":{"4":6},"place_type":"0","rack_locks":"1"},{"uid":"2585811","lat":"52.2005548","lng":"20.8937538","name":"Ursus-Ratusz","spot":"1","number":"9577","bikes":"11","bike_racks":"15","free_racks":"4","terminal_type":"7inch","bike_numbers":"24866,24541,28905,28287,28211,27539,27464,26708,26602,25924,25830","bike_types":{"4":11},"place_type":"0","rack_locks":"1"},{"uid":"2585814","lat":"52.1906376","lng":"20.8999443","name":"Skoroszewska - Prystora","spot":"1","number":"9578","bikes":"4","bike_racks":"17","free_racks":"12","terminal_type":"7inch","bike_numbers":"24016,28668,28921,96301","bike_types":{"26":1,"4":3},"place_type":"0","rack_locks":"1"},{"uid":"2585817","lat":"52.1882609","lng":"20.9603771","name":"G\u0142adka - OSiR W\u0142ochy","spot":"1","number":"9579","bikes":"8","bike_racks":"16","free_racks":"8","terminal_type":"7inch","bike_numbers":"24935,24747,24453,28110,26715,25955,25354,28890","bike_types":{"4":7,"51":1},"place_type":"0","rack_locks":"1"},{"uid":"2585820","lat":"52.2056441","lng":"20.9159142","name":"PKP W\u0142ochy","spot":"1","number":"9580","bikes":"9","bike_racks":"17","free_racks":"8","terminal_type":"7inch","bike_numbers":"28591,27942,27918,25323,25221,25194,29104,96400,29173","bike_types":{"4":9},"place_type":"0","rack_locks":"1"},{"uid":"2585821","lat":"52.2012157","lng":"20.9353145","name":"al. Jerozolimskie - Popularna","spot":"1","number":"9581","bikes":"4","bike_racks":"17","free_racks":"13","terminal_type":"7inch","bike_numbers":"28726,27624,25706,96246","bike_types":{"4":4},"place_type":"0","rack_locks":"1"},{"uid":"2585824","lat":"52.1924709","lng":"20.9596664","name":"W\u0142ochy-Ratusz","spot":"1","number":"9582","bikes":"6","bike_racks":"14","free_racks":"8","terminal_type":"7inch","bike_numbers":"28687,28507,28081,25969,25373,24047","bike_types":{"4":5,"26":1},"place_type":"0","rack_locks":"1"},{"uid":"2585825","lat":"52.1946888","lng":"20.9667823","name":"1 Sierpnia - DK W\u0142ochy","spot":"1","number":"9583","bikes":"6","bike_racks":"15","free_racks":"9","terminal_type":"7inch","bike_numbers":"28417,28115,27324,26492,29454,96295","bike_types":{"4":6},"place_type":"0","rack_locks":"1"},{"uid":"2585827","lat":"52.1888962","lng":"21.0175887","name":"Metro Wierzbno","spot":"1","number":"9584","bikes":"0","bike_racks":"20","free_racks":"18","terminal_type":"7inch","place_type":"0","rack_locks":"1","bike_numbers":null,"bike_types":[]},{"uid":"2585830","lat":"52.18648","lng":"21.02538","name":"Pu\u0142awska - Idzikowskiego","spot":"1","number":"9585","bikes":"4","bike_racks":"17","free_racks":"13","terminal_type":"7inch","bike_numbers":"24669,28384,26945,29177","bike_types":{"4":4},"place_type":"0","rack_locks":"1"},{"uid":"2585835","lat":"52.1882861","lng":"21.0498825","name":"Sobieskiego - Mangalia","spot":"1","number":"9586","bikes":"17","bike_racks":"15","free_racks":"4","terminal_type":"7inch","bike_numbers":"28282,27951,27719,27641,27244,27000,26711,26146,25991,25823,25439,25015,28944,28975,96562,96455,96341","bike_types":{"4":17},"place_type":"0","rack_locks":"1"},{"uid":"2585837","lat":"52.178777","lng":"21.0016387","name":"Wo\u0142oska - Marynarska","spot":"1","number":"9588","bikes":"13","bike_racks":"26","free_racks":"13","terminal_type":"7inch","bike_numbers":"24787,24744,28757,27564,27201,27198,26828,26350,26074,25327,28828,96349,96282","bike_types":{"4":13},"place_type":"0","rack_locks":"1"},{"uid":"2585838","lat":"52.1800882","lng":"21.0207403","name":"al. Niepodleg\u0142o\u015bci - al. Wilanowska","spot":"1","number":"9589","bikes":"3","bike_racks":"22","free_racks":"19","terminal_type":"7inch","bike_numbers":"28731,26520,26119","bike_types":{"4":3},"place_type":"0","rack_locks":"1"},{"uid":"2585839","lat":"52.1779163","lng":"21.049562","name":"P\u0119tla Stegny","spot":"1","number":"9590","bikes":"11","bike_racks":"23","free_racks":"12","terminal_type":"7inch","bike_numbers":"24934,24723,28689,26072,26038,25241,25111,29372,96036,96363,96159","bike_types":{"4":11},"place_type":"0","rack_locks":"1"},{"uid":"2585843","lat":"52.1818472","lng":"21.0562822","name":"Sobieskiego - \u015bw. Bonifacego","spot":"1","number":"9591","bikes":"21","bike_racks":"22","free_racks":"5","terminal_type":"7inch","bike_numbers":"28898,28334,27835,27659,27519,27402,26668,26161,26070,25988,25846,25720,25696,25635,25594,25542,25440,25031,28966,96322,96119","bike_types":{"4":21},"place_type":"0","rack_locks":"1"},{"uid":"2585844","lat":"52.1702836","lng":"20.9959132","name":"P\u0119tla Bokserska","spot":"1","number":"9592","bikes":"11","bike_racks":"15","free_racks":"6","terminal_type":"7inch","bike_numbers":"24974,24954,24599,24593,28666,28048,26728,26507,25814,29055,96458","bike_types":{"4":11},"place_type":"0","rack_locks":"1"},{"uid":"2585846","lat":"52.1710498","lng":"21.0059144","name":"Gintrowskiego - Gotarda","spot":"1","number":"9593","bikes":"17","bike_racks":"15","free_racks":"5","terminal_type":"7inch","bike_numbers":"24748,24698,28869,28714,27919,27896,27154,26664,26654,26466,26358,26108,25491,28940,28811,96079,29214","bike_types":{"4":17},"place_type":"0","rack_locks":"1"},{"uid":"2585848","lat":"52.174435","lng":"21.0128814","name":"al. Lotnik\u00f3w - Kaczmarskiego","spot":"1","number":"9594","bikes":"9","bike_racks":"30","free_racks":"21","terminal_type":"7inch","bike_numbers":"24475,24026,28413,27511,26356,25999,96049,96523,96127","bike_types":{"51":1,"26":1,"4":7},"place_type":"0","rack_locks":"1"},{"uid":"2585850","lat":"52.1733132","lng":"21.0257305","name":"Metro S\u0142u\u017cew","spot":"1","number":"9595","bikes":"20","bike_racks":"24","free_racks":"4","terminal_type":"7inch","bike_numbers":"24515,24011,28661,28321,28117,27327,26928,26087,25901,25584,25507,25291,25273,29084,28835,28974,28994,96025,96377,96134","bike_types":{"4":19,"26":1},"place_type":"0","rack_locks":"1"},{"uid":"2585853","lat":"52.17343","lng":"21.03179","name":"Wa\u0142brzyska - Wr\u00f3bla","spot":"1","number":"9596","bikes":"19","bike_racks":"30","free_racks":"12","terminal_type":"7inch","bike_numbers":"24851,28580,27880,27741,27495,26639,26411,26280,26053,25703,25528,25495,25427,25148,28943,28847,28827,96563,29210","bike_types":{"4":19},"place_type":"0","rack_locks":"1"},{"uid":"2585856","lat":"52.170135","lng":"21.0685748","name":"Jana III Sobieskiego - al. Wilanowska","spot":"1","number":"9597","bikes":"15","bike_racks":"15","free_racks":"0","terminal_type":"7inch","bike_numbers":"28361,28304,28256,28131,27348,27159,26734,26646,26458,26365,26364,25242,28917,96050,96251","bike_types":{"4":15},"place_type":"0","rack_locks":"1"},{"uid":"2585860","lat":"52.1655879","lng":"21.0839331","name":"al. Wilanowska - Przycz\u00f3\u0142kowa","spot":"1","number":"9598","bikes":"3","bike_racks":"16","free_racks":"13","terminal_type":"7inch","bike_numbers":"28104,26389,96195","bike_types":{"4":3},"place_type":"0","rack_locks":"1"},{"uid":"2585863","lat":"52.16479","lng":"21.10925","name":"Vogla - Syta","spot":"1","number":"9599","bikes":"5","bike_racks":"16","free_racks":"10","terminal_type":"7inch","bike_numbers":"24910,24012,27988,27474,29349","bike_types":{"4":4,"26":1},"place_type":"0","rack_locks":"1"},{"uid":"2585868","lat":"52.1606257","lng":"21.0723245","name":"al. Rzeczypospolitej - Klimczaka","spot":"1","number":"9600","bikes":"14","bike_racks":"16","free_racks":"2","terminal_type":"7inch","bike_numbers":"28640,28613,27992,27767,27434,27306,26512,25808,25502,25459,25024,96441,96437,96343","bike_types":{"4":14},"place_type":"0","rack_locks":"1"},{"uid":"2585871","lat":"52.1569168","lng":"21.0760903","name":"al. Rzeczypospolitej - Branickiego","spot":"1","number":"9601","bikes":"22","bike_racks":"16","free_racks":"0","terminal_type":"7inch","bike_numbers":"24797,24791,27941,27923,27823,26612,26474,26448,25870,25658,25611,25343,25234,25129,25040,28870,96570,96405,96325,96184,29170,29237","bike_types":{"4":22},"place_type":"0","rack_locks":"1"},{"uid":"2585872","lat":"52.1593735","lng":"21.086449","name":"Przycz\u00f3\u0142kowa - Branickiego","spot":"1","number":"9602","bikes":"15","bike_racks":"16","free_racks":"2","terminal_type":"7inch","bike_numbers":"28615,28513,28497,27961,27834,27241,26598,26230,26114,25829,25501,25232,25185,28881,28991","bike_types":{"4":15},"place_type":"0","rack_locks":"1"},{"uid":"2585873","lat":"52.1618136","lng":"21.0277355","name":"Metro Ursyn\u00f3w II","spot":"1","number":"9603","bikes":"26","bike_racks":"30","free_racks":"4","terminal_type":"7inch","bike_numbers":"24953,24697,28803,28551,28433,28326,28144,27851,27599,27461,27111,27075,26873,26609,25839,25818,25556,25550,25283,25271,29040,29035,29435,28839,96517,96084","bike_types":{"4":26},"place_type":"0","rack_locks":"1"},{"uid":"2585875","lat":"52.1622579","lng":"21.0280761","name":"Metro Ursyn\u00f3w I","spot":"1","number":"9604","bikes":"15","bike_racks":"30","free_racks":"14","terminal_type":"7inch","bike_numbers":"24894,24786,28366,28106,28068,28051,27878,27114,27091,26905,26746,26193,29346,96057,96388","bike_types":{"4":15},"place_type":"0","rack_locks":"1"},{"uid":"2585876","lat":"52.162401","lng":"21.0383811","name":"Jastrz\u0119bowskiego - SGGW","spot":"1","number":"9605","bikes":"12","bike_racks":"28","free_racks":"16","terminal_type":"7inch","bike_numbers":"28818,28505,28327,27976,27829,27352,27117,26935,26904,25954,25877,25426","bike_types":{"4":12},"place_type":"0","rack_locks":"1"},{"uid":"2585880","lat":"52.1557534","lng":"21.0232776","name":"Romera - Pieciolinii","spot":"1","number":"9606","bikes":"12","bike_racks":"16","free_racks":"4","terminal_type":"7inch","bike_numbers":"24975,24822,28111,28056,28029,27547,26707,26669,26155,25737,25274,96402","bike_types":{"4":12},"place_type":"0","rack_locks":"1"},{"uid":"2585883","lat":"52.1568674","lng":"21.0338401","name":"Metro Stok\u0142osy","spot":"1","number":"9607","bikes":"18","bike_racks":"27","free_racks":"9","terminal_type":"7inch","bike_numbers":"24981,24860,24702,28683,27987,27724,27053,26781,26376,26186,26126,25557,25514,29427,28896,63629,96433,96175","bike_types":{"4":18},"place_type":"0","rack_locks":"1"},{"uid":"2585885","lat":"52.1572887","lng":"21.0440084","name":"Roso\u0142a - Ciszewskiego - SGGW","spot":"1","number":"9608","bikes":"3","bike_racks":"30","free_racks":"27","terminal_type":"7inch","bike_numbers":"24708,26499,25789","bike_types":{"4":3},"place_type":"0","rack_locks":"1"},{"uid":"2585888","lat":"52.1521429","lng":"21.0181224","name":"Pu\u0142awska - Pileckiego","spot":"1","number":"9609","bikes":"20","bike_racks":"22","free_racks":"6","terminal_type":"7inch","bike_numbers":"24741,24624,28903,28631,28445,28419,28416,28001,27938,27793,27588,27192,26637,26589,25817,25474,25392,25045,29114,63605","bike_types":{"4":20},"place_type":"0","rack_locks":"1"},{"uid":"2585893","lat":"52.1495064","lng":"21.0332527","name":"Ciszewskiego - Pileckiego","spot":"1","number":"9610","bikes":"15","bike_racks":"22","free_racks":"7","terminal_type":"7inch","bike_numbers":"24637,24554,28010,27855,27820,26434,26105,25665,25172,29096,29053,28979,96425,96338,96179","bike_types":{"4":15},"place_type":"0","rack_locks":"1"},{"uid":"2585894","lat":"52.1549453","lng":"21.0492977","name":"Roso\u0142a - Gandhi","spot":"1","number":"9611","bikes":"4","bike_racks":"22","free_racks":"16","terminal_type":"7inch","bike_numbers":"24922,26671,26056,96230","bike_types":{"4":4},"place_type":"0","rack_locks":"1"},{"uid":"2585897","lat":"52.1493105","lng":"21.0453361","name":"Metro Imielin","spot":"1","number":"9612","bikes":"19","bike_racks":"22","free_racks":"3","terminal_type":"7inch","bike_numbers":"24892,24856,24601,28621,28024,27071,27063,26345,25850,25701,25536,25424,25319,25174,25153,25026,25010,96465,96399","bike_types":{"4":19},"place_type":"0","rack_locks":"1"},{"uid":"2585899","lat":"52.1522333","lng":"21.0563922","name":"Roso\u0142a - Weso\u0142a","spot":"1","number":"9613","bikes":"9","bike_racks":"23","free_racks":"14","terminal_type":"7inch","bike_numbers":"24719,27304,26244,25962,25067,29660,29141,28967,96394","bike_types":{"4":8,"0":1},"place_type":"0","rack_locks":"1"},{"uid":"2585901","lat":"52.1427201","lng":"21.0383624","name":"Pileckiego - Alternatywy","spot":"1","number":"9614","bikes":"12","bike_racks":"30","free_racks":"23","terminal_type":"7inch","bike_numbers":"24886,24715,28002,27583,27529,26993,26574,26333,26094,25867,25718,25285","bike_types":{"4":12},"place_type":"0","rack_locks":"1"},{"uid":"2585902","lat":"52.142735","lng":"21.0448131","name":"Dereniowa - P\u0142askowickiej","spot":"1","number":"9615","bikes":"14","bike_racks":"22","free_racks":"7","terminal_type":"7inch","bike_numbers":"24827,24640,28622,28345,27620,27228,26409,25964,25555,25135,63613,96380,96182,96085","bike_types":{"4":14},"place_type":"0","rack_locks":"1"},{"uid":"2585904","lat":"52.1376039","lng":"21.0505531","name":"Stryje\u0144skich - Belgradzka","spot":"1","number":"9616","bikes":"2","bike_racks":"15","free_racks":"13","terminal_type":"7inch","bike_numbers":"24005,28383","bike_types":{"26":1,"4":1},"place_type":"0","rack_locks":"1"},{"uid":"2585905","lat":"52.1403909","lng":"21.0568187","name":"Metro Natolin","spot":"1","number":"9617","bikes":"28","bike_racks":"30","free_racks":"3","terminal_type":"7inch","bike_numbers":"24984,24544,28748,28403,28343,28298,28059,27556,27308,27234,26487,26341,25893,25874,25535,25377,25225,25161,25068,25059,60855,28982,96053,96039,96020,63628,63621,96277","bike_types":{"4":28},"place_type":"0","rack_locks":"1"},{"uid":"2585906","lat":"52.1420749","lng":"21.0659905","name":"Belgradzka - Roso\u0142a","spot":"1","number":"9618","bikes":"23","bike_racks":"23","free_racks":"4","terminal_type":"7inch","bike_numbers":"24712,28466,28057,27781,27507,27373,27288,26845,26748,26722,26515,26504,26494,25981,25908,25675,25331,25286,25251,29064,29137,60867,29184","bike_types":{"4":22,"0":1},"place_type":"0","rack_locks":"1"},{"uid":"2585908","lat":"52.1314333","lng":"21.0561562","name":"Stryje\u0144skich - W\u0105wozowa","spot":"1","number":"9619","bikes":"9","bike_racks":"23","free_racks":"16","terminal_type":"7inch","bike_numbers":"28221,28099,27585,26304,26212,25490,25236,25224,96040","bike_types":{"4":9},"place_type":"0","rack_locks":"1"},{"uid":"2585911","lat":"52.3326052","lng":"20.9418404","name":"Ordon\u00f3wny - \u015awiatowida","spot":"1","number":"9620","bikes":"20","bike_racks":"22","free_racks":"5","terminal_type":"7inch","bike_numbers":"24993,24882,24743,24677,25003,28671,28314,27664,27450,27447,27335,25936,25030,29045,28995,96042,96481,96199,29181,29272","bike_types":{"4":20},"place_type":"0","rack_locks":"1"},{"uid":"2585913","lat":"52.1310925","lng":"21.0654795","name":"Metro Kabaty","spot":"1","number":"9621","bikes":"30","bike_racks":"22","free_racks":"1","terminal_type":"7inch","bike_numbers":"24942,24887,24817,28377,28349,28340,28311,27635,27618,27613,27549,26984,26753,26726,26652,26421,25934,25828,25735,25636,25582,25389,25246,60831,29421,60863,63615,96504,96312,96162","bike_types":{"4":30},"place_type":"0","rack_locks":"1"},{"uid":"2585916","lat":"52.1332642","lng":"21.0747962","name":"W\u0105wozowa - Roso\u0142a","spot":"1","number":"9622","bikes":"12","bike_racks":"18","free_racks":"6","terminal_type":"7inch","bike_numbers":"24691,28372,27894,27770,27426,27251,27068,27043,26375,26096,25437,28968","bike_types":{"4":12},"place_type":"0","rack_locks":"1"},{"uid":"2585917","lat":"52.324116","lng":"21.05663","name":"Skarbka z G\u00f3r - Berensona","spot":"1","number":"9623","bikes":"14","bike_racks":"26","free_racks":"13","terminal_type":"7inch","bike_numbers":"28657,28587,28350,28277,28090,27821,27680,26881,26768,25587,96430,29209,29246,29233","bike_types":{"4":14},"place_type":"0","rack_locks":"1"},{"uid":"2585919","lat":"52.3485329","lng":"20.9418336","name":"Aluzyjna - Tr\u0105by","spot":"1","number":"9624","bikes":"15","bike_racks":"16","free_racks":"0","terminal_type":"7inch","bike_numbers":"24833,28653,28431,27167,26759,26752,26623,25841,25506,25305,25300,29071,29555,96327,96190","bike_types":{"4":15},"place_type":"0","rack_locks":"1"},{"uid":"2585920","lat":"52.3226982","lng":"20.9448107","name":"\u015awiatowida - Mehoffera","spot":"1","number":"9625","bikes":"10","bike_racks":"16","free_racks":"6","terminal_type":"7inch","bike_numbers":"24818,24504,28524,27721,27587,27415,27152,26461,26018,25646","bike_types":{"4":10},"place_type":"0","rack_locks":"1"},{"uid":"2585921","lat":"52.3212548","lng":"20.9477347","name":"Bia\u0142o\u0142\u0119cki O\u015brodek Sportu","spot":"1","number":"9626","bikes":"7","bike_racks":"30","free_racks":"23","terminal_type":"7inch","bike_numbers":"28426,26954,26575,26489,96463,96257,96078","bike_types":{"4":7},"place_type":"0","rack_locks":"1"},{"uid":"2585922","lat":"52.3211272","lng":"20.9712964","name":"Bia\u0142o\u0142\u0119ka-Ratusz","spot":"1","number":"9627","bikes":"10","bike_racks":"19","free_racks":"11","terminal_type":"7inch","bike_numbers":"24900,28771,28562,27986,27847,27794,27733,26645,25603,96396","bike_types":{"4":10},"place_type":"0","rack_locks":"1"},{"uid":"2585924","lat":"52.3132981","lng":"20.9655324","name":"My\u015bliborska - al. Kukli\u0144skiego","spot":"1","number":"9628","bikes":"17","bike_racks":"22","free_racks":"5","terminal_type":"7inch","bike_numbers":"24713,28628,28395,27902,27895,27673,26967,26835,26551,26060,25915,25577,25564,25419,29025,29373,96306","bike_types":{"4":17},"place_type":"0","rack_locks":"1"},{"uid":"2585925","lat":"52.3031984","lng":"20.9891666","name":"Modli\u0144ska - \u017bera\u0144ska","spot":"1","number":"9629","bikes":"29","bike_racks":"30","free_racks":"3","terminal_type":"7inch","bike_numbers":"24849,24560,28308,27871,27725,27704,27657,27359,27168,27080,26941,26769,26763,26692,26678,26188,25968,25710,25398,25297,25092,29125,29133,96486,96240,96138,96129,96117,29254","bike_types":{"4":27,"0":2},"place_type":"0","rack_locks":"1"},{"uid":"2585926","lat":"52.3150181","lng":"21.0610807","name":"Skarbka z G\u00f3r - Magiczna","spot":"1","number":"9630","bikes":"29","bike_racks":"30","free_racks":"1","terminal_type":"7inch","bike_numbers":"24830,24692,24042,25002,28619,28607,28583,28440,28067,28007,27990,27954,27538,27513,27487,27360,27354,27279,27166,27115,26827,26820,26537,26163,25591,25376,25146,29130,96451","bike_types":{"4":27,"26":1,"0":1},"place_type":"0","rack_locks":"1"},{"uid":"2585928","lat":"52.3000268","lng":"21.0425266","name":"P\u0119tla Br\u00f3dno - Podgrodzie","spot":"1","number":"9631","bikes":"8","bike_racks":"16","free_racks":"7","terminal_type":"7inch","bike_numbers":"24030,27914,27650,27512,26986,25855,25712,29273","bike_types":{"26":1,"4":7},"place_type":"0","rack_locks":"1"},{"uid":"2585929","lat":"52.2939957","lng":"21.0272258","name":"Rembieli\u0144ska - Kondratowicza","spot":"1","number":"9632","bikes":"16","bike_racks":"23","free_racks":"7","terminal_type":"7inch","bike_numbers":"24700,24644,24611,28741,28705,28549,28420,28404,27872,27351,27123,26138,25693,25423,25089,96205","bike_types":{"4":16},"place_type":"0","rack_locks":"1"},{"uid":"2585931","lat":"52.2917236","lng":"21.0481189","name":"Targ\u00f3wek-Ratusz","spot":"1","number":"9633","bikes":"12","bike_racks":"22","free_racks":"10","terminal_type":"7inch","bike_numbers":"24883,24845,28699,28402,28392,28022,26058,25552,96242,96161,96103,29230","bike_types":{"4":12},"place_type":"0","rack_locks":"1"},{"uid":"2585932","lat":"52.292208","lng":"21.0419554","name":"Kondratowicza - Chodecka","spot":"1","number":"9634","bikes":"19","bike_racks":"23","free_racks":"4","terminal_type":"7inch","bike_numbers":"24586,28897,28499,28378,28209,28151,28075,28044,28009,27730,27342,27249,27076,26391,26275,26231,25928,25458,29253","bike_types":{"4":19},"place_type":"0","rack_locks":"1"},{"uid":"2585934","lat":"52.2925145","lng":"21.0573949","name":"Kondratowicza - Przy Grodzisku","spot":"1","number":"9635","bikes":"10","bike_racks":"18","free_racks":"5","terminal_type":"7inch","bike_numbers":"24776,28658,28651,28634,28278,26459,26433,29082,29247,29245","bike_types":{"4":10},"place_type":"0","rack_locks":"1"},{"uid":"2585936","lat":"52.2878069","lng":"21.0213829","name":"Wysockiego - Poborza\u0144ska","spot":"1","number":"9636","bikes":"25","bike_racks":"23","free_racks":"5","terminal_type":"7inch","bike_numbers":"24979,24600,28758,28641,28425,28064,28016,27742,27300,27290,27127,27035,26979,26879,26844,26756,26305,26287,25738,29112,29388,29386,96329,96203,29242","bike_types":{"4":25},"place_type":"0","rack_locks":"1"},{"uid":"2585937","lat":"52.2885915","lng":"21.0310087","name":"Rembieli\u0144ska - Wyszogrodzka","spot":"1","number":"9637","bikes":"12","bike_racks":"30","free_racks":"18","terminal_type":"7inch","bike_numbers":"28566,27576,27498,27462,27124,26362,26214,25356,28908,28987,63608,96336","bike_types":{"4":12},"place_type":"0","rack_locks":"1"},{"uid":"2585938","lat":"52.2864841","lng":"21.0401998","name":"Chodecka - \u017buromi\u0144ska","spot":"1","number":"9638","bikes":"5","bike_racks":"15","free_racks":"11","terminal_type":"7inch","bike_numbers":"28373,28053,27366,26824,25679","bike_types":{"4":5},"place_type":"0","rack_locks":"1"},{"uid":"2585939","lat":"52.281231017533","lng":"21.025852560997","name":"Wysockiego - Matki Teresy z Kalkuty","spot":"1","number":"9639","bikes":"18","bike_racks":"17","free_racks":"0","terminal_type":"7inch","bike_numbers":"28498,28449,27805,27663,27435,27122,26582,26505,26221,25772,25601,25513,25170,29046,29003,96574,96539,96368","bike_types":{"4":18},"place_type":"0","rack_locks":"1"},{"uid":"2585941","lat":"52.2835693","lng":"21.0720858","name":"Blokowa - DK Zacisze","spot":"1","number":"9640","bikes":"24","bike_racks":"18","free_racks":"0","terminal_type":"7inch","bike_numbers":"28678,28394,28267,27862,27832,27584,27561,27261,27225,26980,26716,26644,26634,26501,26237,25821,25435,25357,28954,28863,96261,96132,96120,29274","bike_types":{"4":24},"place_type":"0","rack_locks":"1"},{"uid":"2585942","lat":"52.276259","lng":"21.0530748","name":"P\u0119tla Targ\u00f3wek","spot":"1","number":"9641","bikes":"17","bike_racks":"22","free_racks":"5","terminal_type":"7inch","bike_numbers":"24650,28484,28354,28137,28109,28088,27792,27764,27751,27503,27316,27009,25609,25567,25096,29031,96051","bike_types":{"4":17},"place_type":"0","rack_locks":"1"},{"uid":"2585943","lat":"52.27139","lng":"21.01566","name":"Jagiello\u0144ska - ALK","spot":"1","number":"9642","bikes":"10","bike_racks":"16","free_racks":"6","terminal_type":"7inch","bike_numbers":"24950,24675,24597,28606,28347,27357,26620,25358,25075,28829","bike_types":{"4":10},"place_type":"0","rack_locks":"1"},{"uid":"2585947","lat":"52.2694683","lng":"21.0499817","name":"Ossowskiego","spot":"1","number":"9644","bikes":"15","bike_racks":"17","free_racks":"3","terminal_type":"7inch","bike_numbers":"24606,28629,28456,28279,27978,26817,26530,26529,25929,29030,29139,96536,96231,29281,29239","bike_types":{"4":14,"0":1},"place_type":"0","rack_locks":"1"},{"uid":"2585951","lat":"52.272602123161","lng":"21.063210368156","name":"Radzymi\u0144ska -Trocka","spot":"1","number":"9645","bikes":"6","bike_racks":"20","free_racks":"14","terminal_type":"7inch","bike_numbers":"28471,28362,27864,26485,29434,29199","bike_types":{"4":6},"place_type":"0","rack_locks":"1"},{"uid":"2585953","lat":"52.27347","lng":"21.07698","name":"Bukowiecka - Zamkowa","spot":"1","number":"9646","bikes":"14","bike_racks":"15","free_racks":"2","terminal_type":"7inch","bike_numbers":"24842,24514,24487,28000,27916,27405,27341,26808,25985,25527,25144,29135,28865,96453","bike_types":{"4":12,"51":1,"0":1},"place_type":"0","rack_locks":"1"},{"uid":"2585954","lat":"52.2668885","lng":"21.0585675","name":"Radzymi\u0144ska - Piotra Skargi","spot":"1","number":"9647","bikes":"14","bike_racks":"20","free_racks":"6","terminal_type":"7inch","bike_numbers":"24918,24901,24490,28673,27818,27799,27397,27274,27037,26918,26565,25483,29108,96011","bike_types":{"4":13,"51":1},"place_type":"0","rack_locks":"1"},{"uid":"2585955","lat":"52.2614369","lng":"21.0155744","name":"Wybrze\u017ce Helskie - ZOO","spot":"1","number":"9648","bikes":"3","bike_racks":"22","free_racks":"19","terminal_type":"7inch","bike_numbers":"24855,24799,27899","bike_types":{"4":3},"place_type":"0","rack_locks":"1"},{"uid":"2585956","lat":"52.2632492","lng":"21.0212231","name":"Rondo Starzy\u0144skiego","spot":"1","number":"9649","bikes":"6","bike_racks":"24","free_racks":"18","terminal_type":"7inch","bike_numbers":"24729,28695,26588,25160,29002,28861","bike_types":{"4":6},"place_type":"0","rack_locks":"1"},{"uid":"2585958","lat":"52.26421","lng":"21.02618","name":"Darwina - Nusbauma-Hilarowicza","spot":"1","number":"9650","bikes":"9","bike_racks":"21","free_racks":"15","terminal_type":"7inch","bike_numbers":"24938,28512,28078,26777,26584,25746,25466,25368,25099","bike_types":{"4":9},"place_type":"0","rack_locks":"1"},{"uid":"2585960","lat":"52.26554","lng":"21.03122","name":"Namys\u0142owska - Darwina","spot":"1","number":"9651","bikes":"0","bike_racks":"15","free_racks":"15","terminal_type":"7inch","place_type":"0","rack_locks":"1","bike_numbers":null,"bike_types":[]},{"uid":"2585961","lat":"52.2690405","lng":"21.0379493","name":"Rondo \u017baba","spot":"1","number":"9652","bikes":"23","bike_racks":"22","free_racks":"0","terminal_type":"7inch","bike_numbers":"24573,28750,28652,28543,28329,27616,27520,27323,27240,26758,26616,26440,26168,25775,25553,25470,25211,29374,29441,28891,96544,96302,96280","bike_types":{"4":23},"place_type":"0","rack_locks":"1"},{"uid":"2585963","lat":"52.2591682","lng":"21.0262224","name":"Jagiello\u0144ska - Plac Hallera","spot":"1","number":"9653","bikes":"13","bike_racks":"20","free_racks":"8","terminal_type":"7inch","bike_numbers":"24481,28675,28158,27394,26886,26851,26685,26022,25674,25523,29260,29232,96580","bike_types":{"51":1,"4":12},"place_type":"0","rack_locks":"1"},{"uid":"2585964","lat":"52.2613811","lng":"21.0305437","name":"Plac Hallera - Sawinkowa","spot":"1","number":"9654","bikes":"10","bike_racks":"28","free_racks":"19","terminal_type":"7inch","bike_numbers":"28647,28554,28421,26855,26331,26327,26157,25811,25050,28993","bike_types":{"4":10},"place_type":"0","rack_locks":"1"},{"uid":"2585967","lat":"52.263","lng":"21.03418","name":"Namys\u0142owska - Szymanowskiego","spot":"1","number":"9655","bikes":"5","bike_racks":"16","free_racks":"11","terminal_type":"7inch","bike_numbers":"28432,28376,26771,26247,26229","bike_types":{"4":5},"place_type":"0","rack_locks":"1"},{"uid":"2585968","lat":"52.2538188","lng":"21.0231542","name":"Ratuszowa - ZOO","spot":"1","number":"9656","bikes":"16","bike_racks":"23","free_racks":"7","terminal_type":"7inch","bike_numbers":"28616,28560,28303,27840,27833,27446,27424,27138,26862,26150,26085,25767,25700,25570,96404,29225","bike_types":{"4":16},"place_type":"0","rack_locks":"1"},{"uid":"2585971","lat":"52.256355","lng":"21.029538","name":"Jagiello\u0144ska - Ratuszowa","spot":"1","number":"9657","bikes":"5","bike_racks":"16","free_racks":"11","terminal_type":"7inch","bike_numbers":"27363,26675,26226,25571,28799","bike_types":{"4":5},"place_type":"0","rack_locks":"1"},{"uid":"2585972","lat":"52.261449","lng":"21.037614","name":"11 Listopada - Ratuszowa","spot":"1","number":"9658","bikes":"8","bike_racks":"30","free_racks":"22","terminal_type":"7inch","bike_numbers":"28569,28026,27761,27175,26999,26940,25539,25415","bike_types":{"4":8},"place_type":"0","rack_locks":"1"},{"uid":"2585974","lat":"52.263109","lng":"21.0381895","name":"11 listopada - \u015arodkowa","spot":"1","number":"9659","bikes":"11","bike_racks":"18","free_racks":"7","terminal_type":"7inch","bike_numbers":"28439,26517,26404,26224,26173,25596,25400,96510,96181,29198,29157","bike_types":{"4":11},"place_type":"0","rack_locks":"1"},{"uid":"2585975","lat":"52.25839","lng":"21.03537","name":"Stalowa - 11 Listopada","spot":"1","number":"9660","bikes":"27","bike_racks":"24","free_racks":"0","terminal_type":"7inch","bike_numbers":"24456,28427,28363,27952,27936,27800,27778,27560,26672,26666,26166,26122,26010,25952,25946,25910,25810,25191,25134,25034,29020,29429,28973,96023,96406,29194,29278","bike_types":{"51":1,"4":26},"place_type":"0","rack_locks":"1"},{"uid":"2585978","lat":"52.234791","lng":"21.07905","name":"al. Stan\u00f3w Zjednoczonych - Ostrobramska","spot":"1","number":"9661","bikes":"12","bike_racks":"20","free_racks":"7","terminal_type":"7inch","bike_numbers":"24998,24902,24044,28632,28105,26034,26025,25857,28823,96500,96424,29176","bike_types":{"4":11,"26":1},"place_type":"0","rack_locks":"1"},{"uid":"2585981","lat":"52.2524758","lng":"21.0303479","name":"Floria\u0144ska - Park Praski","spot":"1","number":"9662","bikes":"16","bike_racks":"23","free_racks":"7","terminal_type":"7inch","bike_numbers":"24837,24804,24479,27877,27868,27386,26033,25926,25602,25382,29122,96569,96564,96387,96143,96581","bike_types":{"4":14,"51":1,"0":1},"place_type":"0","rack_locks":"1"},{"uid":"2585982","lat":"52.2549757","lng":"21.0339005","name":"Plac Wile\u0144ski","spot":"1","number":"9663","bikes":"37","bike_racks":"30","free_racks":"0","terminal_type":"7inch","bike_numbers":"24552,24486,28774,28676,28581,28291,28156,28082,28055,27920,27858,27219,27187,27184,27140,26815,26353,26204,26111,26064,25739,25606,25371,25269,25198,25076,29343,29339,29091,29075,29043,28879,28915,96046,96438,96352,29175","bike_types":{"4":36,"51":1},"place_type":"0","rack_locks":"1"},{"uid":"2585983","lat":"52.2579576","lng":"21.0399804","name":"Wile\u0144ska - Rzeszotarskiej","spot":"1","number":"9664","bikes":"10","bike_racks":"16","free_racks":"6","terminal_type":"7inch","bike_numbers":"24800,27489,26744,26366,26206,26143,25565,25091,29097,29062","bike_types":{"4":10},"place_type":"0","rack_locks":"1"},{"uid":"2585984","lat":"52.2475848","lng":"20.9568001","name":"al. Prymasa Tysi\u0105clecia - Obozowa","spot":"1","number":"9665","bikes":"7","bike_racks":"13","free_racks":"6","terminal_type":"7inch","bike_numbers":"24532,27518,26913,25425,25238,25019,96483","bike_types":{"4":7},"place_type":"0","rack_locks":"1"},{"uid":"2585985","lat":"52.248607","lng":"21.029647","name":"Okrzei - Panie\u0144ska","spot":"1","number":"9666","bikes":"17","bike_racks":"16","free_racks":"0","terminal_type":"7inch","bike_numbers":"24775,28575,28435,28139,27817,27706,27627,27612,27330,26847,26787,26511,26041,25835,25477,96133,24055","bike_types":{"4":16,"26":1},"place_type":"0","rack_locks":"1"},{"uid":"2585987","lat":"52.2506334","lng":"21.0311174","name":"Sierakowskiego - K\u0142opotowskiego","spot":"1","number":"9667","bikes":"19","bike_racks":"25","free_racks":"8","terminal_type":"7inch","bike_numbers":"28357,28332,28313,28301,27959,27106,26932,26706,26684,26622,26392,25881,25787,25757,25130,25032,29342,96299,96284","bike_types":{"4":19},"place_type":"0","rack_locks":"1"},{"uid":"2585990","lat":"52.2520876","lng":"21.0381368","name":"Targowa - Z\u0105bkowska","spot":"1","number":"9668","bikes":"30","bike_racks":"18","free_racks":"0","terminal_type":"7inch","bike_numbers":"28452,28299,28292,28087,28003,27974,27856,27803,27589,27577,27451,26894,26880,26866,26848,26807,26690,26572,26379,25918,25766,25751,25150,25053,29368,29120,96002,96163,29261,29229","bike_types":{"4":29,"0":1},"place_type":"0","rack_locks":"1"},{"uid":"2585992","lat":"52.2544855","lng":"21.0433458","name":"Fabryka W\u00f3dek Koneser","spot":"1","number":"9669","bikes":"18","bike_racks":"25","free_racks":"7","terminal_type":"7inch","bike_numbers":"24947,24738,24551,24008,28627,27014,26907,26455,26243,25856,25709,25284,25200,25182,29115,29283,29271,29262","bike_types":{"4":17,"26":1},"place_type":"0","rack_locks":"1"},{"uid":"2585994","lat":"52.2559027","lng":"21.0495613","name":"Radzymi\u0144ska - Wiosenna","spot":"1","number":"9670","bikes":"17","bike_racks":"26","free_racks":"9","terminal_type":"7inch","bike_numbers":"24897,24725,28702,28660,28548,28302,27769,27731,27703,27381,27212,26985,26956,25121,25100,29041,96281","bike_types":{"4":17},"place_type":"0","rack_locks":"1"},{"uid":"2585995","lat":"52.25965","lng":"21.0529","name":"Radzymi\u0144ska - \u0141om\u017cy\u0144ska","spot":"1","number":"9671","bikes":"14","bike_racks":"24","free_racks":"13","terminal_type":"7inch","bike_numbers":"24575,28423,28369,27807,27533,27291,26987,25876,25666,25593,25445,25248,29056,24046","bike_types":{"4":13,"26":1},"place_type":"0","rack_locks":"1"},{"uid":"2585996","lat":"52.2583512","lng":"21.0585337","name":"P\u0119tla Kaw\u0119czy\u0144ska-Bazylika","spot":"1","number":"9672","bikes":"5","bike_racks":"26","free_racks":"21","terminal_type":"7inch","bike_numbers":"27753,26648,26151,96185,24049","bike_types":{"4":4,"26":1},"place_type":"0","rack_locks":"1"},{"uid":"2585997","lat":"52.249864871462","lng":"21.042911410332","name":"Targowa - Kijowska","spot":"1","number":"9673","bikes":"15","bike_racks":"18","free_racks":"3","terminal_type":"7inch","bike_numbers":"24793,24585,28681,28535,28371,28305,27755,27460,26480,26307,25780,25749,25731,25260,29433","bike_types":{"4":15},"place_type":"0","rack_locks":"1"},{"uid":"2586000","lat":"52.252745","lng":"21.0510331","name":"Dworzec Wschodni - Kijowska","spot":"1","number":"9674","bikes":"18","bike_racks":"27","free_racks":"12","terminal_type":"7inch","bike_numbers":"24769,24647,27493,27301,27298,27054,26823,26789,26130,25987,25836,25785,25652,25617,25529,28956,28964,96583","bike_types":{"4":18},"place_type":"0","rack_locks":"1"},{"uid":"2586001","lat":"52.247314","lng":"21.042731","name":"Metro Stadion Narodowy","spot":"1","number":"9675","bikes":"6","bike_racks":"15","free_racks":"10","terminal_type":"7inch","bike_numbers":"28275,27651,26882,25339,29652,96055","bike_types":{"4":6},"place_type":"0","rack_locks":"1"},{"uid":"2586003","lat":"52.2472308","lng":"21.0476456","name":"al. Zieleniecka - Teatr Powszechny","spot":"1","number":"9676","bikes":"6","bike_racks":"14","free_racks":"7","terminal_type":"7inch","bike_numbers":"28310,27169,27110,26454,26063,25620","bike_types":{"4":6},"place_type":"0","rack_locks":"1"},{"uid":"2586005","lat":"52.247346","lng":"21.055947","name":"Grochowska - Mi\u0144ska","spot":"1","number":"9677","bikes":"22","bike_racks":"22","free_racks":"0","terminal_type":"7inch","bike_numbers":"24893,24620,28887,28724,28515,28464,28274,28132,28130,27865,27652,27448,27428,27173,27025,26957,25547,25159,25056,28858,96015,96328","bike_types":{"4":22},"place_type":"0","rack_locks":"1"},{"uid":"2586009","lat":"52.2464","lng":"21.06868","name":"Praga-Po\u0142udnie-Ratusz","spot":"1","number":"9678","bikes":"13","bike_racks":"15","free_racks":"1","terminal_type":"7inch","bike_numbers":"24510,28502,28252,27006,26802,26629,26302,26055,25865,25410,28856,96009,96313","bike_types":{"4":13},"place_type":"0","rack_locks":"1"},{"uid":"2586011","lat":"52.2501129","lng":"21.0772011","name":"Dwernickiego - Siennicka","spot":"1","number":"9679","bikes":"16","bike_racks":"25","free_racks":"9","terminal_type":"7inch","bike_numbers":"24779,27886,27786,27579,27229,26450,26360,26276,26263,25873,25872,25816,25597,25429,29051,96346","bike_types":{"4":16},"place_type":"0","rack_locks":"1"},{"uid":"2586012","lat":"52.260428882956","lng":"21.041538119316","name":"Stalowa - Czynszowa","spot":"1","number":"9680","bikes":"10","bike_racks":"15","free_racks":"5","terminal_type":"7inch","bike_numbers":"24588,27622,27422,26765,25613,25530,25402,96317,29249,29222","bike_types":{"4":10},"place_type":"0","rack_locks":"1"},{"uid":"2586014","lat":"52.2372419","lng":"21.0437644","name":"Wybrze\u017ce Szczeci\u0144skie - Stadion Narodowy","spot":"1","number":"9681","bikes":"20","bike_racks":"23","free_racks":"3","terminal_type":"7inch","bike_numbers":"24982,24494,28597,28077,27971,27605,27546,27466,27178,27172,26750,26655,25779,25546,25374,25353,25101,25063,96507,29182","bike_types":{"4":19,"51":1},"place_type":"0","rack_locks":"1"},{"uid":"2586018","lat":"52.2387103","lng":"21.0507515","name":"Rondo Waszyngtona - Stadion Narodowy","spot":"1","number":"9682","bikes":"24","bike_racks":"18","free_racks":"0","terminal_type":"7inch","bike_numbers":"24972,24964,24770,24676,24500,28039,27998,27698,27065,27044,26415,26154,26036,25641,25217,25028,29105,28960,29461,29646,96318,96270,96176,29215","bike_types":{"4":23,"51":1},"place_type":"0","rack_locks":"1"},{"uid":"2586019","lat":"52.242281006874","lng":"21.071160435677","name":"Waszyngtona - Kinowa","spot":"1","number":"9683","bikes":"11","bike_racks":"15","free_racks":"7","terminal_type":"7inch","bike_numbers":"24960,24613,27907,27592,27440,27404,27135,27094,25235,25958,96443","bike_types":{"4":11},"place_type":"0","rack_locks":"1"},{"uid":"2586021","lat":"52.2445639","lng":"21.0838057","name":"Rondo Wiatraczna","spot":"1","number":"9684","bikes":"28","bike_racks":"30","free_racks":"2","terminal_type":"7inch","bike_numbers":"24792,24526,28557,28074,27819,27523,27388,27376,27232,27183,26473,26061,25953,25905,25895,25798,25245,25169,25011,29340,29070,96044,96017,96513,96429,96291,96197,29152","bike_types":{"4":28},"place_type":"0","rack_locks":"1"},{"uid":"2586022","lat":"52.2347451","lng":"21.053651","name":"Francuska - Walecznych","spot":"1","number":"9685","bikes":"25","bike_racks":"15","free_racks":"0","terminal_type":"7inch","bike_numbers":"24630,24474,28674,28145,28017,27811,27621,27213,26677,26627,26570,25707,25255,25155,25126,25060,28916,29451,28851,96003,96366,96351,96258,29265,29264","bike_types":{"4":24,"51":1},"place_type":"0","rack_locks":"1"},{"uid":"2586024","lat":"52.236598","lng":"21.064774","name":"Mi\u0119dzynarodowa - Walecznych","spot":"1","number":"9686","bikes":"7","bike_racks":"15","free_racks":"9","terminal_type":"7inch","bike_numbers":"28753,28128,27712,26837,26425,25233,96442","bike_types":{"4":7},"place_type":"0","rack_locks":"1"},{"uid":"2586026","lat":"52.243020071904","lng":"21.102375984192","name":"Plac Szembeka","spot":"1","number":"9687","bikes":"12","bike_racks":"15","free_racks":"3","terminal_type":"7inch","bike_numbers":"24880,28642,28367,28194,27837,27788,26043,25141,29422,28906,96045,96449","bike_types":{"4":12},"place_type":"0","rack_locks":"1"},{"uid":"2586028","lat":"52.237559","lng":"21.120087","name":"P\u0119tla Goc\u0142awek","spot":"1","number":"9688","bikes":"14","bike_racks":"16","free_racks":"2","terminal_type":"7inch","bike_numbers":"24939,24592,24546,24029,28693,28126,27408,27361,26502,25996,25670,25364,25107,28848","bike_types":{"4":13,"26":1},"place_type":"0","rack_locks":"1"},{"uid":"2586030","lat":"52.2258359","lng":"21.0600907","name":"Brukselska - PROM","spot":"1","number":"9689","bikes":"11","bike_racks":"15","free_racks":"4","terminal_type":"7inch","bike_numbers":"24685,28690,28411,28085,27243,26691,26016,29110,96491,96148,29192","bike_types":{"4":11},"place_type":"0","rack_locks":"1"},{"uid":"2586031","lat":"52.260205610017","lng":"21.046854257584","name":"al. Solidarno\u015bci - Szwedzka","spot":"1","number":"9690","bikes":"16","bike_racks":"18","free_racks":"2","terminal_type":"7inch","bike_numbers":"24876,24617,28348,28114,28058,26032,26027,25919,25560,29644,96468,96371,29269,29266,29241,24051","bike_types":{"4":15,"26":1},"place_type":"0","rack_locks":"1"},{"uid":"2586032","lat":"52.230088","lng":"21.067948","name":"al. Stan\u00f3w Zjednoczonych - Mi\u0119dzynarodowa","spot":"1","number":"9691","bikes":"19","bike_racks":"26","free_racks":"8","terminal_type":"7inch","bike_numbers":"24864,24457,28195,27675,27634,27554,27315,26635,26400,26250,25853,25467,25196,29005,29459,28860,28853,28970,96262","bike_types":{"4":18,"51":1},"place_type":"0","rack_locks":"1"},{"uid":"2586034","lat":"52.23483","lng":"21.09975","name":"Ostrobramska - Zamieniecka","spot":"1","number":"9692","bikes":"20","bike_racks":"23","free_racks":"3","terminal_type":"7inch","bike_numbers":"24915,28215,27953,27747,27608,27233,27215,26929,26116,25941,25907,25699,25598,25534,25277,25149,25127,29213,96360,96278","bike_types":{"4":20},"place_type":"0","rack_locks":"1"},{"uid":"2586037","lat":"52.2251969","lng":"21.0712892","name":"Afryka\u0144ska - Egipska","spot":"1","number":"9693","bikes":"12","bike_racks":"16","free_racks":"4","terminal_type":"7inch","bike_numbers":"24583,24518,28496,27777,27726,27350,25421,25296,25110,28864,28862,96324","bike_types":{"4":12},"place_type":"0","rack_locks":"1"},{"uid":"2586039","lat":"52.22837","lng":"21.08581","name":"Abrahama - Kapelan\u00f3w AK","spot":"1","number":"9694","bikes":"6","bike_racks":"15","free_racks":"9","terminal_type":"7inch","bike_numbers":"28752,28623,27208,26383,25899,25079","bike_types":{"4":6},"place_type":"0","rack_locks":"1"},{"uid":"2586042","lat":"52.2296088","lng":"21.0945572","name":"Fieldorfa - Bukowskiego","spot":"1","number":"9695","bikes":"8","bike_racks":"20","free_racks":"12","terminal_type":"7inch","bike_numbers":"24969,24888,24766,24009,27476,27410,25963,96018","bike_types":{"4":7,"26":1},"place_type":"0","rack_locks":"1"},{"uid":"2586044","lat":"52.22974","lng":"21.10624","name":"Rechniewskiego - Nowaka-Jeziora\u0144skiego","spot":"1","number":"9696","bikes":"27","bike_racks":"30","free_racks":"3","terminal_type":"7inch","bike_numbers":"24610,24556,24495,24467,28700,28662,28260,27780,27527,27521,27468,27411,27193,26822,26813,26698,26657,26641,26293,26005,25575,25482,29034,29004,28884,28907,96490","bike_types":{"4":25,"51":2},"place_type":"0","rack_locks":"1"},{"uid":"2586045","lat":"52.2223071","lng":"21.0907259","name":"Meissnera - Fieldorfa","spot":"1","number":"9697","bikes":"14","bike_racks":"15","free_racks":"4","terminal_type":"7inch","bike_numbers":"24909,24505,28614,27973,27853,27697,27398,27321,27246,27112,26542,25386,96418,96087","bike_types":{"4":14},"place_type":"0","rack_locks":"1"},{"uid":"2586268","lat":"52.23938046828","lng":"21.016716957092","name":"Krakowskie Przedmie\u015bcie - Traugutta 2","spot":"1","number":"94931","bikes":"23","bike_racks":"24","free_racks":"1","terminal_type":"7inch","bike_numbers":"24755,24681,28820,28773,28525,28490,28309,27632,26995,26939,26784,26436,26216,26086,26020,25585,25441,25416,25226,25070,96013,96207,96172","bike_types":{"4":23},"place_type":"0","rack_locks":"1"},