[{"region_info":{"lat":"52.2345","lng":"21.0024","zoom":"11","name":"VETURILO Poland","hotline":"+4819115","domain":"vp","language":"pl","email":"info@nextbike.pl","timezone":"Europe\/Warsaw","currency":"PLN","country_calling_code":"+48","system_operator_address":"Nextbike Polska S.A. ul. Przasnyska 6B, 01-756 Warszawa","country":"PL","country_name":"Poland","terms":"http:\/\/www.veturilo.waw.pl\/terms\/?v=201701","policy":"","website":"http:\/\/www.veturilo.waw.pl\/","show_free_racks":"1","booked_bikes":"0","set_point_bikes":"5284","available_bikes":"4477"},"places_summary":{"lngMin":20.8689688,"lngMax":21.120087,"latMin":52.117285,"latMax":52.3485329,"lngAvg":21.008117591667,"latAvg":52.230678041088},"places":[{"uid":"2585259","lat":"52.296298","lng":"20.9583575","name":"Dewajtis - UKSW","spot":"1","number":"9402","bikes":"11","bike_racks":"30","free_racks":"17","terminal_type":"7inch","bike_numbers":"24804,28886,27594,26862,26828,26242,25904,25306,28857,96391,24051","bike_types":{"4":10,"26":1},"place_type":"0","rack_locks":"1"},{"uid":"2585263","lat":"52.2909738","lng":"20.9295559","name":"Metro M\u0142ociny","spot":"1","number":"9403","bikes":"20","bike_racks":"30","free_racks":"9","terminal_type":"7inch","bike_numbers":"24966,24865,24699,24675,28873,28729,28444,28340,27997,27427,27094,26955,25915,25650,25605,25406,25317,25264,25102,96453","bike_types":{"4":20},"place_type":"0","rack_locks":"1"},{"uid":"2585265","lat":"52.2901732","lng":"20.9503698","name":"Marymoncka - Dewajtis","spot":"1","number":"9404","bikes":"15","bike_racks":"30","free_racks":"14","terminal_type":"7inch","bike_numbers":"24795,24684,28354,28065,27402,27348,26835,26607,26547,26038,25107,29451,96374,96285,96227","bike_types":{"4":15},"place_type":"0","rack_locks":"1"},{"uid":"2585267","lat":"52.285914","lng":"20.940561","name":"Metro Wawrzyszew","spot":"1","number":"9405","bikes":"6","bike_racks":"20","free_racks":"12","terminal_type":"7inch","bike_numbers":"28282,27811,26873,26591,25897,25221","bike_types":{"4":6},"place_type":"0","rack_locks":"1"},{"uid":"2585269","lat":"52.2336142","lng":"21.0146353","name":"G\u00f3rskiego - Szpitalna","spot":"1","number":"9406","bikes":"3","bike_racks":"16","free_racks":"13","terminal_type":"7inch","bike_numbers":"28319,28276,25838","bike_types":{"4":3},"place_type":"0","rack_locks":"1"},{"uid":"2585271","lat":"52.2816265","lng":"20.9498871","name":"Metro Stare Bielany","spot":"1","number":"9407","bikes":"12","bike_racks":"30","free_racks":"18","terminal_type":"7inch","bike_numbers":"24876,24635,28577,28096,28076,27433,26853,26682,25987,25822,25740,96092","bike_types":{"4":12},"place_type":"0","rack_locks":"1"},{"uid":"2585272","lat":"52.2361217","lng":"21.0219096","name":"Ordynacka - Uniwersytet Muzyczny","spot":"1","number":"9408","bikes":"13","bike_racks":"20","free_racks":"8","terminal_type":"7inch","bike_numbers":"24598,28150,27795,27646,27271,26601,26358,25456,25308,96570,96327,96250,29224","bike_types":{"4":13},"place_type":"0","rack_locks":"1"},{"uid":"2585273","lat":"52.2768774","lng":"20.9481302","name":"Bielany-Ratusz","spot":"1","number":"9409","bikes":"15","bike_racks":"28","free_racks":"10","terminal_type":"7inch","bike_numbers":"24721,27093,26936,26571,26183,26150,25612,25358,25053,29428,28776,96036,96439,29197,96589","bike_types":{"4":15},"place_type":"0","rack_locks":"1"},{"uid":"2585275","lat":"52.2761569","lng":"20.9616673","name":"Metro S\u0142odowiec","spot":"1","number":"9410","bikes":"20","bike_racks":"30","free_racks":"10","terminal_type":"7inch","bike_numbers":"24823,24588,28320,28111,28079,27821,27805,27771,27291,26232,25963,25880,25684,25517,25315,25134,25026,96111,96106,29261","bike_types":{"4":20},"place_type":"0","rack_locks":"1"},{"uid":"2585278","lat":"52.2777751","lng":"20.9856999","name":"Potocka - OSiR \u017boliborz","spot":"1","number":"9411","bikes":"20","bike_racks":"15","free_racks":"0","terminal_type":"7inch","bike_numbers":"28279,27930,27817,27453,27392,27231,27182,27086,27074,26648,26645,26459,25813,25466,25292,25113,28945,29279,29253,29229","bike_types":{"4":20},"place_type":"0","rack_locks":"1"},{"uid":"2585280","lat":"52.273527782989","lng":"20.994186401367","name":"Gwia\u017adzista - Promyka","spot":"1","number":"9412","bikes":"14","bike_racks":"16","free_racks":"3","terminal_type":"7inch","bike_numbers":"24538,28579,28145,28087,27765,27256,27019,26801,26158,25983,25555,28982,96348,96581","bike_types":{"4":14},"place_type":"0","rack_locks":"1"},{"uid":"2585281","lat":"52.270941","lng":"20.9326269","name":"al. Reymonta - Conrada","spot":"1","number":"9413","bikes":"29","bike_racks":"30","free_racks":"1","terminal_type":"7inch","bike_numbers":"24970,24525,24466,28701,28478,28138,28101,28022,27685,27590,27273,27132,26774,26477,26304,26135,26100,25786,25714,25388,25302,25203,29641,25624,96248,96206,96172,96077,96576","bike_types":{"4":28,"51":1},"place_type":"0","rack_locks":"1"},{"uid":"2585283","lat":"52.2706441","lng":"20.9504181","name":"Broniewskiego - Perzy\u0144skiego","spot":"1","number":"9414","bikes":"25","bike_racks":"16","free_racks":"1","terminal_type":"7inch","bike_numbers":"24597,28147,27924,27295,27079,27034,27000,26636,26533,26513,26331,26071,25948,25857,25734,25641,25214,28828,28872,96448,96393,96287,29181,29180,29154","bike_types":{"4":25},"place_type":"0","rack_locks":"1"},{"uid":"2585284","lat":"52.2714203","lng":"20.9727099","name":"Metro Marymont","spot":"1","number":"9415","bikes":"20","bike_racks":"30","free_racks":"10","terminal_type":"7inch","bike_numbers":"24992,28755,28694,28296,28221,28031,26901,26646,26574,26542,25907,25383,25350,25076,25030,29125,28823,28985,29155,29260","bike_types":{"4":19,"0":1},"place_type":"0","rack_locks":"1"},{"uid":"2585285","lat":"52.2694081","lng":"20.9833664","name":"Metro Plac Wilsona","spot":"1","number":"9416","bikes":"13","bike_racks":"21","free_racks":"4","terminal_type":"7inch","bike_numbers":"24616,28324,28100,26956,26926,26663,25668,29042,29445,28863,96018,96113,29240","bike_types":{"4":13},"place_type":"0","rack_locks":"1"},{"uid":"2585286","lat":"52.2668623","lng":"20.9637032","name":"Broniewskiego - W\u0142o\u015bcia\u0144ska","spot":"1","number":"9417","bikes":"32","bike_racks":"19","free_racks":"0","terminal_type":"7inch","bike_numbers":"24799,24716,28898,28737,28563,28534,28413,28338,28336,28210,27761,27432,27142,27078,26921,26745,26326,26274,26256,26243,25989,25953,25031,29110,29089,29051,29050,28814,28810,96423,29233,96578","bike_types":{"4":32},"place_type":"0","rack_locks":"1"},{"uid":"2585288","lat":"52.2643984","lng":"20.9723179","name":"Broniewskiego - Krasi\u0144skiego","spot":"1","number":"9418","bikes":"12","bike_racks":"16","free_racks":"4","maintenance":"1","terminal_type":"7inch","bike_numbers":"28561,27921,27398,27316,27012,26764,26751,26433,26013,25952,25095,96381","bike_types":{"4":12},"place_type":"0","rack_locks":"1"},{"uid":"2585289","lat":"52.267875","lng":"21.0020667","name":"Wybrze\u017ce Gdy\u0144skie - KS Sp\u00f3jnia","spot":"1","number":"9419","bikes":"10","bike_racks":"15","free_racks":"5","terminal_type":"7inch","bike_numbers":"24843,24042,27967,27500,27466,26611,26184,25294,29088,96165","bike_types":{"4":9,"26":1},"place_type":"0","rack_locks":"1"},{"uid":"2585291","lat":"52.2624054","lng":"20.9802551","name":"Plac Grunwaldzki","spot":"1","number":"9420","bikes":"27","bike_racks":"30","free_racks":"1","terminal_type":"7inch","bike_numbers":"24984,24660,28376,28075,27996,27961,27743,26447,26313,26271,26209,25846,25779,25747,25590,25463,25382,25155,25028,29115,29034,28941,28846,28875,96024,96362,96159","bike_types":{"4":27},"place_type":"0","rack_locks":"1"},{"uid":"2585296","lat":"52.2612575","lng":"20.9863191","name":"Zaj\u0105czka - Bitwy Pod Rokitn\u0105","spot":"1","number":"9421","bikes":"12","bike_racks":"15","free_racks":"3","terminal_type":"7inch","bike_numbers":"24802,24608,28468,28374,27834,26995,26844,26673,25954,25712,96003,29232","bike_types":{"4":12},"place_type":"0","rack_locks":"1"},{"uid":"2585297","lat":"52.2645018","lng":"20.9895998","name":"Plac Inwalid\u00f3w","spot":"1","number":"9422","bikes":"11","bike_racks":"15","free_racks":"4","terminal_type":"7inch","bike_numbers":"24569,24475,28658,28017,26971,26742,26442,25316,29041,29387,29435","bike_types":{"4":10,"51":1},"place_type":"0","rack_locks":"1"},{"uid":"2585299","lat":"52.258245356688","lng":"20.898613929749","name":"P\u0119tla Stare Bemowo","spot":"1","number":"9423","bikes":"10","bike_racks":"21","free_racks":"11","terminal_type":"7inch","bike_numbers":"24782,24540,28514,27808,27614,26733,26659,25201,96535,96112","bike_types":{"4":10},"place_type":"0","rack_locks":"1"},{"uid":"2585301","lat":"52.260895125763","lng":"20.923923254013","name":"P\u0119tla Nowe Bemowo","spot":"1","number":"9424","bikes":"19","bike_racks":"25","free_racks":"6","terminal_type":"7inch","bike_numbers":"24624,24487,28486,27752,27737,27656,27565,27469,27125,26475,25872,25435,25428,25420,29454,96268,96235,96223,96183","bike_types":{"4":18,"51":1},"place_type":"0","rack_locks":"1"},{"uid":"2585304","lat":"52.2575903","lng":"20.9323374","name":"Obro\u0144c\u00f3w Tobruku - Pieni\u0105\u017cka","spot":"1","number":"9425","bikes":"27","bike_racks":"22","free_racks":"0","terminal_type":"7inch","bike_numbers":"24930,24658,24478,28763,28716,28681,28604,28472,28406,28107,27723,27345,27044,26968,26851,26788,26494,25749,25157,25116,25036,28825,28911,96321,96278,96160,29211","bike_types":{"4":26,"51":1},"place_type":"0","rack_locks":"1"},{"uid":"2585305","lat":"52.2593225","lng":"20.9605511","name":"Pow\u0105zkowska - Krasi\u0144skiego","spot":"1","number":"9426","bikes":"16","bike_racks":"23","free_racks":"4","terminal_type":"7inch","bike_numbers":"24672,24028,24020,28394,28040,27389,26929,25850,25471,25325,25079,29079,96372,96313,96083,29220","bike_types":{"4":14,"26":2},"place_type":"0","rack_locks":"1"},{"uid":"2585306","lat":"52.2563145","lng":"20.9682307","name":"Pow\u0105zkowska - Plac Niemena","spot":"1","number":"9427","bikes":"29","bike_racks":"16","free_racks":"0","terminal_type":"7inch","bike_numbers":"24955,24671,24024,28555,28525,28475,28051,27901,27694,27686,27559,27435,27373,27187,26842,26425,26286,25564,25342,25199,25195,25192,28813,96058,96530,96414,96272,29172,96592","bike_types":{"4":28,"26":1},"place_type":"0","rack_locks":"1"},{"uid":"2585307","lat":"52.258524460024","lng":"20.970931649208","name":"Przasnyska - Rydygiera","spot":"1","number":"9428","bikes":"17","bike_racks":"15","free_racks":"0","terminal_type":"7inch","bike_numbers":"24779,24567,28687,28522,28193,27877,27381,27179,27148,26375,26099,26026,25694,25561,25099,96152,96577","bike_types":{"4":17},"place_type":"0","rack_locks":"1"},{"uid":"2585308","lat":"52.253594","lng":"20.9798744","name":"Pow\u0105zkowska - Burakowska","spot":"1","number":"9429","bikes":"5","bike_racks":"20","free_racks":"14","terminal_type":"7inch","bike_numbers":"26783,26421,25286,28832,96134","bike_types":{"4":5},"place_type":"0","rack_locks":"1"},{"uid":"2585311","lat":"52.2576018","lng":"20.9944975","name":"Metro Dworzec Gda\u0144ski","spot":"1","number":"9430","bikes":"20","bike_racks":"30","free_racks":"9","terminal_type":"7inch","bike_numbers":"24740,24505,28523,28131,28088,27959,27673,27568,27505,27228,26642,26297,26186,25875,25839,25534,25257,28851,96396,29182","bike_types":{"4":20},"place_type":"0","rack_locks":"1"},{"uid":"2585315","lat":"52.2465952","lng":"20.9429216","name":"Obozowa - Cio\u0142ka","spot":"1","number":"9432","bikes":"13","bike_racks":"13","free_racks":"0","terminal_type":"7inch","bike_numbers":"24029,28754,28655,28457,27617,27449,27415,27317,27063,96562,96208,96128,96101","bike_types":{"26":1,"4":12},"place_type":"0","rack_locks":"1"},{"uid":"2585317","lat":"52.227621983552","lng":"20.956758856773","name":"al. Prymasa Tysi\u0105clecia - Kasprzaka","spot":"1","number":"9433","bikes":"11","bike_racks":"23","free_racks":"11","terminal_type":"7inch","bike_numbers":"24742,24458,27820,27620,26740,25922,25825,25554,25472,25323,96196","bike_types":{"4":10,"51":1},"place_type":"0","rack_locks":"1"},{"uid":"2585319","lat":"52.246037","lng":"20.962463","name":"Obozowa - Radziwie","spot":"1","number":"9434","bikes":"26","bike_racks":"13","free_racks":"0","terminal_type":"7inch","bike_numbers":"24824,24628,24492,28622,28311,28288,27945,27489,27328,27138,26822,26721,26694,26321,26289,26197,26019,25390,25229,29348,29426,29134,96575,96564,96503,96415","bike_types":{"4":25,"51":1},"place_type":"0","rack_locks":"1"},{"uid":"2585321","lat":"52.2514708","lng":"20.9857053","name":"al. Jana Paw\u0142a II - Stawki","spot":"1","number":"9435","bikes":"4","bike_racks":"23","free_racks":"17","terminal_type":"7inch","bike_numbers":"24537,28309,27926,26005","bike_types":{"4":4},"place_type":"0","rack_locks":"1"},{"uid":"2585323","lat":"52.2535305","lng":"20.9924922","name":"Stawki - Dubois","spot":"1","number":"9436","bikes":"12","bike_racks":"13","free_racks":"2","terminal_type":"7inch","bike_numbers":"24881,24738,24634,24603,25004,28591,28132,28038,27026,26498,26102,25097","bike_types":{"4":12},"place_type":"0","rack_locks":"1"},{"uid":"2585326","lat":"52.2541702","lng":"20.9980649","name":"Andersa - Muranowska","spot":"1","number":"9437","bikes":"9","bike_racks":"30","free_racks":"19","terminal_type":"7inch","bike_numbers":"24683,28034,27809,26675,26461,25981,25884,25707,25046","bike_types":{"4":9},"place_type":"0","rack_locks":"1"},{"uid":"2585327","lat":"52.255877","lng":"21.0099819","name":"Sanguszki - Wybrze\u017ce Gda\u0144skie","spot":"1","number":"9438","bikes":"15","bike_racks":"28","free_racks":"12","terminal_type":"7inch","bike_numbers":"28602,28586,28151,27759,27698,27301,26814,26686,26486,26201,26162,26157,25988,25614,29002","bike_types":{"4":15},"place_type":"0","rack_locks":"1"},{"uid":"2585330","lat":"52.24418","lng":"20.97794","name":"Okopowa - Anielewicza","spot":"1","number":"9440","bikes":"14","bike_racks":"20","free_racks":"6","terminal_type":"7inch","bike_numbers":"28820,28559,28440,28093,27624,27059,27036,26241,26063,25866,29455,28971,96323,96209","bike_types":{"4":14},"place_type":"0","rack_locks":"1"},{"uid":"2585333","lat":"52.2486","lng":"20.98352","name":"Smocza - Mi\u0142a","spot":"1","number":"9441","bikes":"10","bike_racks":"15","free_racks":"5","terminal_type":"7inch","bike_numbers":"24838,27724,27609,27151,26939,26348,25945,25336,25065,29123","bike_types":{"4":9,"0":1},"place_type":"0","rack_locks":"1"},{"uid":"2585334","lat":"52.24616","lng":"20.98538","name":"Smocza - Anielewicza","spot":"1","number":"9442","bikes":"18","bike_racks":"17","free_racks":"0","terminal_type":"7inch","bike_numbers":"24875,24857,24662,24636,27900,27073,26889,26747,26415,26299,26225,26132,25153,29352,96053,96022,96406,96371","bike_types":{"4":18},"place_type":"0","rack_locks":"1"},{"uid":"2585335","lat":"52.247226","lng":"20.9893155","name":"al. Jana Paw\u0142a II - Anielewicza","spot":"1","number":"9443","bikes":"15","bike_racks":"22","free_racks":"5","terminal_type":"7inch","bike_numbers":"24895,28903,28741,28663,28030,27555,27420,26981,26977,26324,26032,25790,25337,28888,96571","bike_types":{"4":15},"place_type":"0","rack_locks":"1"},{"uid":"2585337","lat":"52.249052","lng":"20.9948923","name":"Anielewicza - Zamenhofa","spot":"1","number":"9444","bikes":"10","bike_racks":"15","free_racks":"4","terminal_type":"7inch","bike_numbers":"24793,27577,27544,26777,25770,25571,25374,29066,96195,96150","bike_types":{"4":10},"place_type":"0","rack_locks":"1"},{"uid":"2585338","lat":"52.2492196","lng":"20.9971878","name":"Anielewicza - Andersa","spot":"1","number":"9445","bikes":"17","bike_racks":"20","free_racks":"0","terminal_type":"7inch","bike_numbers":"24780,24461,28016,27841,27753,27579,27296,27193,27134,26025,25889,25784,25659,25268,25198,28812,96082","bike_types":{"4":16,"51":1},"place_type":"0","rack_locks":"1"},{"uid":"2585340","lat":"52.251549","lng":"21.002749","name":"Bonifraterska - Franciszka\u0144ska","spot":"1","number":"9446","bikes":"17","bike_racks":"18","free_racks":"0","terminal_type":"7inch","bike_numbers":"28535,28351,28156,27778,27769,27748,26861,26432,26401,26368,25914,25577,25541,25429,25381,29067,63630","bike_types":{"4":17},"place_type":"0","rack_locks":"1"},{"uid":"2585342","lat":"52.2541119","lng":"21.0093342","name":"Ko\u015bcielna - Piesza","spot":"1","number":"9448","bikes":"10","bike_racks":"26","free_racks":"15","terminal_type":"7inch","bike_numbers":"24599,24546,28057,27468,27257,27244,26085,25236,28962,96346","bike_types":{"4":10},"place_type":"0","rack_locks":"1"},{"uid":"2585344","lat":"52.2392622","lng":"20.8987641","name":"P\u0119tla Os. G\u00f3rczewska","spot":"1","number":"9449","bikes":"6","bike_racks":"15","free_racks":"9","terminal_type":"7inch","bike_numbers":"28640,28593,28042,27777,26448,25685","bike_types":{"4":6},"place_type":"0","rack_locks":"1"},{"uid":"2585345","lat":"52.2389287","lng":"20.9139535","name":"Bemowo-Ratusz","spot":"1","number":"9450","bikes":"25","bike_racks":"20","free_racks":"1","terminal_type":"7inch","bike_numbers":"24849,24592,28750,28060,27470,27413,27318,27221,27195,27002,26749,26654,26222,26127,25847,25742,25665,25568,25259,25011,28777,96035,96534,96311,96296","bike_types":{"4":25},"place_type":"0","rack_locks":"1"},{"uid":"2585346","lat":"52.2387861","lng":"20.9424946","name":"Okocimska - Olbrachta","spot":"1","number":"9451","bikes":"11","bike_racks":"18","free_racks":"6","terminal_type":"7inch","bike_numbers":"24917,25002,28489,28064,27823,26466,25663,25660,96386,96286,96079","bike_types":{"4":11},"place_type":"0","rack_locks":"1"},{"uid":"2585349","lat":"52.2506241","lng":"21.0533611","name":"Dworzec Wschodni - Lubelska","spot":"1","number":"9452","bikes":"8","bike_racks":"15","free_racks":"5","terminal_type":"7inch","bike_numbers":"24724,24550,24545,28511,27713,26240,25739,96496","bike_types":{"4":8},"place_type":"0","rack_locks":"1"},{"uid":"2585351","lat":"52.2369249","lng":"20.9723559","name":"Leszno - M\u0142ynarska","spot":"1","number":"9453","bikes":"5","bike_racks":"30","free_racks":"22","terminal_type":"7inch","bike_numbers":"28487,28416,28278,28029,25710","bike_types":{"4":5},"place_type":"0","rack_locks":"1"},{"uid":"2585352","lat":"52.2430451","lng":"20.9803864","name":"Dzielna - Bellottiego","spot":"1","number":"9454","bikes":"4","bike_racks":"13","free_racks":"7","terminal_type":"7inch","bike_numbers":"28329,25160,96421,96084","bike_types":{"4":4},"place_type":"0","rack_locks":"1"},{"uid":"2585353","lat":"52.24108","lng":"20.98316","name":"Wolno\u015b\u0107 - Bellottiego","spot":"1","number":"9455","bikes":"16","bike_racks":"16","free_racks":"4","terminal_type":"7inch","bike_numbers":"24794,28300,27934,27566,27070,26887,26794,26329,25678,25546,25446,25309,29063,29388,96008,29247","bike_types":{"4":16},"place_type":"0","rack_locks":"1"},{"uid":"2585354","lat":"52.2435448","lng":"20.9873507","name":"Smocza - Nowolipki","spot":"1","number":"9456","bikes":"17","bike_racks":"16","free_racks":"0","terminal_type":"7inch","bike_numbers":"24978,24855,24643,28650,28482,27891,27768,27447,27217,27192,27186,26999,25906,29072,29026,29367,96329","bike_types":{"4":17},"place_type":"0","rack_locks":"1"},{"uid":"2585356","lat":"52.2445767","lng":"20.99177","name":"al. Jana Paw\u0142a II - Nowolipki","spot":"1","number":"9457","bikes":"11","bike_racks":"16","free_racks":"3","terminal_type":"7inch","bike_numbers":"24523,24472,28454,27979,27840,27410,27289,26679,25168,25165,96504","bike_types":{"4":10,"51":1},"place_type":"0","rack_locks":"1"},{"uid":"2585358","lat":"52.22868","lng":"20.91509","name":"Powsta\u0144c\u00f3w \u015al\u0105skich - Cz\u0142uchowska","spot":"1","number":"9458","bikes":"13","bike_racks":"16","free_racks":"1","terminal_type":"7inch","bike_numbers":"24953,24862,24595,27742,27679,27665,29139,96055,96533,96471,96451,96427,96217","bike_types":{"4":12,"0":1},"place_type":"0","rack_locks":"1"},{"uid":"2585360","lat":"52.2342032","lng":"20.934689","name":"Jana Olbrachta - Antka Rozpylacza","spot":"1","number":"9459","bikes":"15","bike_racks":"13","free_racks":"0","terminal_type":"7inch","bike_numbers":"24755,24510,28292,28012,27893,27785,26668,26568,25253,29080,28866,96522,96368,96260,96246","bike_types":{"4":15},"place_type":"0","rack_locks":"1"},{"uid":"2585364","lat":"52.2401623","lng":"20.9877277","name":"Wola-Ratusz","spot":"1","number":"9460","bikes":"10","bike_racks":"15","free_racks":"5","terminal_type":"7inch","bike_numbers":"24549,28735,28728,28584,27534,27242,26776,25321,25094,96033","bike_types":{"4":10},"place_type":"0","rack_locks":"1"},{"uid":"2585368","lat":"52.2445326","lng":"20.99998","name":"Plac Bankowy - Kino Muran\u00f3w","spot":"1","number":"9462","bikes":"15","bike_racks":"17","free_racks":"4","terminal_type":"7inch","bike_numbers":"24719,24551,28485,28441,28357,28134,27888,27055,26422,25345,29087,60850,29434,96298,29187","bike_types":{"4":15},"place_type":"0","rack_locks":"1"},{"uid":"2585369","lat":"52.2449465","lng":"21.0012943","name":"Andersa - D\u0142uga","spot":"1","number":"9463","bikes":"11","bike_racks":"30","free_racks":"20","terminal_type":"7inch","bike_numbers":"28659,28503,28458,28149,27156,28921,96403,96232,96126,29255,29251","bike_types":{"4":11},"place_type":"0","rack_locks":"1"},{"uid":"2585370","lat":"52.2442666","lng":"21.0015893","name":"Marsza\u0142kowska - al. Solidarno\u015bci","spot":"1","number":"9464","bikes":"14","bike_racks":"30","free_racks":"16","terminal_type":"7inch","bike_numbers":"24580,28589,28445,27897,27757,27202,27181,26863,25766,25690,25680,29357,28896,96310","bike_types":{"4":14},"place_type":"0","rack_locks":"1"},{"uid":"2585371","lat":"52.2431975","lng":"21.0016603","name":"Plac Bankowy - Ratusz","spot":"1","number":"9465","bikes":"17","bike_racks":"30","free_racks":"13","terminal_type":"7inch","bike_numbers":"24911,24728,24682,24666,28507,28084,27946,27370,27090,26643,26397,26224,25468,25060,29373,96203,96151","bike_types":{"4":17},"place_type":"0","rack_locks":"1"},{"uid":"2585373","lat":"52.2435719","lng":"21.0066801","name":"Senatorska - Biela\u0144ska","spot":"1","number":"9466","bikes":"15","bike_racks":"17","free_racks":"0","terminal_type":"7inch","bike_numbers":"24485,28662,28330,27980,27968,27923,27715,27146,26994,26789,26128,25536,25023,96417,96143","bike_types":{"51":1,"4":14},"place_type":"0","rack_locks":"1"},{"uid":"2585377","lat":"52.246314509834","lng":"21.0113042593","name":"Miodowa","spot":"1","number":"9467","bikes":"13","bike_racks":"24","free_racks":"11","terminal_type":"7inch","bike_numbers":"24775,28427,27707,27396,26624,26252,25671,25504,29143,29142,96130,96097,29265","bike_types":{"4":11,"0":2},"place_type":"0","rack_locks":"1"},{"uid":"2585378","lat":"52.2435965","lng":"21.0140803","name":"Krakowskie Przedmie\u015bcie - Tr\u0119backa","spot":"1","number":"9468","bikes":"12","bike_racks":"14","free_racks":"0","terminal_type":"7inch","bike_numbers":"28690,28608,28393,27976,27561,26959,26471,25833,29030,29021,96508,29189","bike_types":{"4":12},"place_type":"0","rack_locks":"1"},{"uid":"2585379","lat":"52.2465625","lng":"21.0174345","name":"Mariensztat","spot":"1","number":"9469","bikes":"18","bike_racks":"15","free_racks":"2","terminal_type":"7inch","bike_numbers":"24650,24036,27667,27554,27521,26843,26389,26140,25819,25796,25698,25566,25550,25469,25411,25252,29013,96146","bike_types":{"4":17,"54":1},"place_type":"0","rack_locks":"1"},{"uid":"2585381","lat":"52.224934","lng":"20.945489","name":"Jana Kazimierza - Giz\u00f3w","spot":"1","number":"9471","bikes":"20","bike_racks":"13","free_racks":"0","terminal_type":"7inch","bike_numbers":"24655,24528,28424,28112,27948,27878,27638,27527,27283,27208,26987,26920,26880,26219,25645,25596,25244,25241,25191,96523","bike_types":{"4":20},"place_type":"0","rack_locks":"1"},{"uid":"2585385","lat":"52.23016","lng":"20.951558","name":"Wolska - Elekcyjna","spot":"1","number":"9472","bikes":"4","bike_racks":"20","free_racks":"16","terminal_type":"7inch","bike_numbers":"24765,25344,25183,29169","bike_types":{"4":4},"place_type":"0","rack_locks":"1"},{"uid":"2585387","lat":"52.237662392829","lng":"20.955492854118","name":"al. Prymasa Tysi\u0105clecia - G\u00f3rczewska","spot":"1","number":"9473","bikes":"7","bike_racks":"20","free_racks":"12","terminal_type":"7inch","bike_numbers":"27899,27513,27062,26865,25675,28944,29239","bike_types":{"4":7},"place_type":"0","rack_locks":"1"},{"uid":"2585389","lat":"52.2333374","lng":"20.9652776","name":"Wolska - P\u0142ocka","spot":"1","number":"9474","bikes":"26","bike_racks":"20","free_racks":"0","terminal_type":"7inch","bike_numbers":"24932,24706,24676,24514,28724,28667,28429,28002,27942,27910,26967,26942,26935,26819,26786,26658,26112,25835,25771,25689,25661,25226,29056,96436,29152,29272","bike_types":{"4":26},"place_type":"0","rack_locks":"1"},{"uid":"2585391","lat":"52.228522296173","lng":"20.969638824463","name":"Kasprzaka - Skierniewicka","spot":"1","number":"9475","bikes":"2","bike_racks":"21","free_racks":"18","terminal_type":"7inch","bike_numbers":"26690,29269","bike_types":{"4":2},"place_type":"0","rack_locks":"1"},{"uid":"2585394","lat":"52.22898","lng":"20.97843","name":"Kasprzaka - Karolkowa","spot":"1","number":"9476","bikes":"1","bike_racks":"15","free_racks":"13","terminal_type":"7inch","bike_numbers":"96252","bike_types":{"4":1},"place_type":"0","rack_locks":"1"},{"uid":"2585396","lat":"52.2328752","lng":"20.9805411","name":"Muzeum Powstania Warszawskiego","spot":"1","number":"9477","bikes":"4","bike_racks":"10","free_racks":"4","terminal_type":"7inch","bike_numbers":"24868,28665,28430,27629","bike_types":{"4":4},"place_type":"0","rack_locks":"1"},{"uid":"2585398","lat":"52.22983","lng":"20.983123","name":"Metro Rondo Daszy\u0144skiego","spot":"1","number":"9478","bikes":"3","bike_racks":"26","free_racks":"22","terminal_type":"7inch","bike_numbers":"24901,27807,29257","bike_types":{"4":3},"place_type":"0","rack_locks":"1"},{"uid":"2585400","lat":"52.23145","lng":"20.98869","name":"Prosta - Wronia","spot":"1","number":"9479","bikes":"11","bike_racks":"15","free_racks":"4","terminal_type":"7inch","bike_numbers":"28345,28061,27379,27082,26984,26695,26424,26072,25691,25385,25239","bike_types":{"4":11},"place_type":"0","rack_locks":"1"},{"uid":"2585401","lat":"52.2373141","lng":"20.9888488","name":"\u017belazna - Ch\u0142odna","spot":"1","number":"9480","bikes":"2","bike_racks":"15","free_racks":"13","terminal_type":"7inch","bike_numbers":"28565,25578","bike_types":{"4":2},"place_type":"0","rack_locks":"1"},{"uid":"2585402","lat":"52.2344946","lng":"20.9905117","name":"\u017belazna - Grzybowska","spot":"1","number":"9481","bikes":"6","bike_racks":"20","free_racks":"14","terminal_type":"7inch","bike_numbers":"24948,28668,28549,28501,28011,25422","bike_types":{"4":6},"place_type":"0","rack_locks":"1"},{"uid":"2585405","lat":"52.238666","lng":"20.9957314","name":"al. Jana Paw\u0142a II - Plac Mirowski","spot":"1","number":"9482","bikes":"13","bike_racks":"21","free_racks":"7","terminal_type":"7inch","bike_numbers":"24805,24734,24501,28874,28257,28024,27518,27499,26108,26045,25744,25588,29138","bike_types":{"4":12,"0":1},"place_type":"0","rack_locks":"1"},{"uid":"2585406","lat":"52.2357151","lng":"20.9966071","name":"al. Jana Paw\u0142a II - Grzybowska","spot":"1","number":"9483","bikes":"2","bike_racks":"30","free_racks":"26","terminal_type":"7inch","bike_numbers":"25593,28967","bike_types":{"4":2},"place_type":"0","rack_locks":"1"},{"uid":"2585410","lat":"52.23958","lng":"21.00027","name":"Ptasia - Zimna","spot":"1","number":"9485","bikes":"19","bike_racks":"16","free_racks":"0","terminal_type":"7inch","bike_numbers":"28685,28562,27701,27543,27404,27140,27099,27028,27010,26993,26848,26736,26462,26357,25644,25171,25078,29421,96238","bike_types":{"4":19},"place_type":"0","rack_locks":"1"},{"uid":"2585412","lat":"52.2336314","lng":"21.0028795","name":"Emilii Plater - \u015awi\u0119tokrzyska","spot":"1","number":"9486","bikes":"7","bike_racks":"26","free_racks":"19","terminal_type":"7inch","bike_numbers":"24560,28448,28420,28411,27693,26093,25724","bike_types":{"4":7},"place_type":"0","rack_locks":"1"},{"uid":"2585413","lat":"52.2358704","lng":"21.0037806","name":"Plac Grzybowski","spot":"1","number":"9487","bikes":"9","bike_racks":"26","free_racks":"14","terminal_type":"7inch","bike_numbers":"27539,27180,27092,25986,25979,25222,29365,96302,96167","bike_types":{"4":9},"place_type":"0","rack_locks":"1"},{"uid":"2585416","lat":"52.2384853","lng":"21.0067552","name":"Marsza\u0142kowska - Kr\u00f3lewska","spot":"1","number":"9488","bikes":"0","bike_racks":"19","free_racks":"18","terminal_type":"7inch","place_type":"0","rack_locks":"1","bike_numbers":null,"bike_types":[]},{"uid":"2585417","lat":"52.2364206","lng":"21.0072407","name":"Marsza\u0142kowska - Zielna","spot":"1","number":"9489","bikes":"2","bike_racks":"30","free_racks":"28","terminal_type":"7inch","bike_numbers":"26970,26220","bike_types":{"4":2},"place_type":"0","rack_locks":"1"},{"uid":"2585420","lat":"52.2397008","lng":"21.0119292","name":"Plac Ma\u0142achowskiego","spot":"1","number":"9491","bikes":"3","bike_racks":"16","free_racks":"13","terminal_type":"7inch","bike_numbers":"24897,28638,25874","bike_types":{"4":3},"place_type":"0","rack_locks":"1"},{"uid":"2585422","lat":"52.2359114","lng":"21.0135654","name":"Plac Powsta\u0144c\u00f3w Warszawy","spot":"1","number":"9492","bikes":"1","bike_racks":"20","free_racks":"16","terminal_type":"7inch","bike_numbers":"24800","bike_types":{"4":1},"place_type":"0","rack_locks":"1"},{"uid":"2585423","lat":"52.2393559","lng":"21.016603","name":"Krakowskie Przedmie\u015bcie - Traugutta","spot":"1","number":"9493","bikes":"3","bike_racks":"24","free_racks":"20","terminal_type":"7inch","bike_numbers":"27119,26325,29280","bike_types":{"4":3},"place_type":"0","rack_locks":"1"},{"uid":"2585429","lat":"52.238298","lng":"21.0184014","name":"Obo\u017ana - Kopernika","spot":"1","number":"9495","bikes":"13","bike_racks":"22","free_racks":"9","terminal_type":"7inch","bike_numbers":"28775,28348,27562,26938,26854,26565,26525,26295,25130,28934,29552,96509,96328","bike_types":{"4":13},"place_type":"0","rack_locks":"1"},{"uid":"2585430","lat":"52.24190654256","lng":"21.024259328842","name":"Lipowa - Dobra","spot":"1","number":"9496","bikes":"17","bike_racks":"19","free_racks":"7","terminal_type":"7inch","bike_numbers":"24467,28695,28479,28139,27239,27167,26918,26423,26386,26284,26077,25965,25942,25633,25372,63602,96464","bike_types":{"51":1,"4":16},"place_type":"0","rack_locks":"1"},{"uid":"2585431","lat":"52.2413087","lng":"21.0281727","name":"Centrum Nauki Kopernik","spot":"1","number":"9497","bikes":"30","bike_racks":"30","free_racks":"0","terminal_type":"7inch","bike_numbers":"24967,24677,24571,24032,28601,27772,27674,27625,27517,26930,26662,26589,26511,26510,26482,26051,25793,25674,25529,25279,25093,29027,29362,24555,28978,28993,96002,96487,96357,96199","bike_types":{"4":29,"26":1},"place_type":"0","rack_locks":"1"},{"uid":"2585432","lat":"52.2264464","lng":"20.9837164","name":"Kolejowa","spot":"1","number":"9498","bikes":"11","bike_racks":"16","free_racks":"3","terminal_type":"7inch","bike_numbers":"24890,24659,28661,27941,27375,27018,26678,26551,26189,25924,96105","bike_types":{"4":11},"place_type":"0","rack_locks":"1"},{"uid":"2585433","lat":"52.22983","lng":"20.993996","name":"\u017belazna - Sienna","spot":"1","number":"9499","bikes":"8","bike_racks":"30","free_racks":"20","terminal_type":"7inch","bike_numbers":"27315,26810,26756,26020,25913,25580,25184,96076","bike_types":{"4":8},"place_type":"0","rack_locks":"1"},{"uid":"2585435","lat":"52.230201297582","lng":"20.999550819397","name":"al. Jana Paw\u0142a II - Z\u0142ota","spot":"1","number":"9500","bikes":"3","bike_racks":"16","free_racks":"13","terminal_type":"7inch","bike_numbers":"28587,28289,26518","bike_types":{"4":3},"place_type":"0","rack_locks":"1"},{"uid":"2585438","lat":"52.2309778","lng":"21.0036755","name":"Emilii Plater - Z\u0142ota","spot":"1","number":"9501","bikes":"17","bike_racks":"30","free_racks":"12","terminal_type":"7inch","bike_numbers":"28761,27801,27383,27337,26813,26546,25798,25677,25594,25333,29046,28942,29449,28964,63608,96220,96181","bike_types":{"4":17},"place_type":"0","rack_locks":"1"},{"uid":"2585440","lat":"52.232816601853","lng":"21.006980538368","name":"Pa\u0142ac Kultury i Nauki","spot":"1","number":"9502","bikes":"4","bike_racks":"17","free_racks":"11","terminal_type":"7inch","bike_numbers":"28146,27346,27033,26949","bike_types":{"4":4},"place_type":"0","rack_locks":"1"},{"uid":"2585442","lat":"52.232934","lng":"21.0101791","name":"Marsza\u0142kowska - Z\u0142ota","spot":"1","number":"9503","bikes":"0","bike_racks":"22","free_racks":"20","terminal_type":"7inch","place_type":"0","rack_locks":"1","bike_numbers":null,"bike_types":[]},{"uid":"2585445","lat":"52.231987","lng":"21.016092","name":"Bracka - Krucza","spot":"1","number":"9504","bikes":"2","bike_racks":"20","free_racks":"18","terminal_type":"7inch","bike_numbers":"27111,26403","bike_types":{"4":2},"place_type":"0","rack_locks":"1"},{"uid":"2585446","lat":"52.2355713","lng":"21.0179642","name":"Nowy \u015awiat - Warecka","spot":"1","number":"9505","bikes":"5","bike_racks":"24","free_racks":"18","terminal_type":"7inch","bike_numbers":"24621,24531,27297,26000,25058","bike_types":{"4":5},"place_type":"0","rack_locks":"1"},{"uid":"2585447","lat":"52.2337571","lng":"21.0202789","name":"Ga\u0142czy\u0144skiego - Foksal","spot":"1","number":"9506","bikes":"9","bike_racks":"24","free_racks":"14","terminal_type":"7inch","bike_numbers":"28598,27203,26671,25719,25576,25175,25098,29448,28891","bike_types":{"4":9},"place_type":"0","rack_locks":"1"},{"uid":"2585450","lat":"52.2375934","lng":"21.0256487","name":"Topiel - Tamka","spot":"1","number":"9507","bikes":"20","bike_racks":"20","free_racks":"0","terminal_type":"7inch","bike_numbers":"24902,24770,24692,24509,27826,27706,27215,27066,27023,26975,26947,26693,26545,25977,25931,25767,25449,63619,29195,29225","bike_types":{"4":20},"place_type":"0","rack_locks":"1"},{"uid":"2585452","lat":"52.2358752","lng":"21.0317323","name":"Solec - Jaracza","spot":"1","number":"9508","bikes":"10","bike_racks":"15","free_racks":"4","terminal_type":"7inch","bike_numbers":"28678,28365,28359,26449,25976,25193,25122,28900,96017,96573","bike_types":{"4":10},"place_type":"0","rack_locks":"1"},{"uid":"2585453","lat":"52.2218874","lng":"20.9795301","name":"al. Jerozolimskie - Niemcewicza","spot":"1","number":"9509","bikes":"10","bike_racks":"19","free_racks":"9","terminal_type":"7inch","bike_numbers":"28897,28887,28466,28130,28062,25649,96536,96275,96264,96242","bike_types":{"4":10},"place_type":"0","rack_locks":"1"},{"uid":"2585455","lat":"52.2222155","lng":"20.9866293","name":"Ochota-Ratusz","spot":"1","number":"9510","bikes":"2","bike_racks":"23","free_racks":"20","terminal_type":"7inch","bike_numbers":"24652,25888","bike_types":{"4":2},"place_type":"0","rack_locks":"1"},{"uid":"2585457","lat":"52.2249718","lng":"20.9897661","name":"Plac Zawiszy","spot":"1","number":"9511","bikes":"3","bike_racks":"24","free_racks":"21","terminal_type":"7inch","bike_numbers":"24044,26710,96114","bike_types":{"26":1,"4":2},"place_type":"0","rack_locks":"1"},{"uid":"2585460","lat":"52.22626","lng":"20.9961309","name":"al. Jerozolimskie - Lindleya","spot":"1","number":"9512","bikes":"4","bike_racks":"15","free_racks":"10","terminal_type":"7inch","bike_numbers":"24818,28483,26404,96467","bike_types":{"4":4},"place_type":"0","rack_locks":"1"},{"uid":"2585462","lat":"52.2241455","lng":"20.9975244","name":"Lindleya - szpital","spot":"1","number":"9513","bikes":"13","bike_racks":"28","free_racks":"14","terminal_type":"7inch","bike_numbers":"24769,24627,24585,28455,27642,27423,27243,25711,25615,28910,29121,96290,29236","bike_types":{"4":12,"0":1},"place_type":"0","rack_locks":"1"},{"uid":"2585464","lat":"52.227861","lng":"21.0008509","name":"Warszawa \u015ar\u00f3dmie\u015bcie WKD","spot":"1","number":"9514","bikes":"0","bike_racks":"18","free_racks":"17","terminal_type":"7inch","place_type":"0","rack_locks":"1","bike_numbers":null,"bike_types":[]},{"uid":"2585466","lat":"52.2249555","lng":"21.0031664","name":"Oczki - WUM","spot":"1","number":"9515","bikes":"6","bike_racks":"19","free_racks":"12","terminal_type":"7inch","bike_numbers":"28762,28473,27608,27210,25096,96284","bike_types":{"4":6},"place_type":"0","rack_locks":"1"},{"uid":"2585469","lat":"52.2290464","lng":"21.0054544","name":"Emilii Plater - Al. Jerozolimskie","spot":"1","number":"9517","bikes":"13","bike_racks":"30","free_racks":"18","terminal_type":"7inch","bike_numbers":"24792,24648,24601,28495,28358,27437,26800,26123,25804,25611,25331,25080,96481","bike_types":{"4":13},"place_type":"0","rack_locks":"1"},{"uid":"2585470","lat":"52.2259343","lng":"21.0067537","name":"Emilii Plater - Wsp\u00f3lna","spot":"1","number":"9518","bikes":"2","bike_racks":"15","free_racks":"12","terminal_type":"7inch","bike_numbers":"24730,29264","bike_types":{"4":2},"place_type":"0","rack_locks":"1"},{"uid":"2585472","lat":"52.23001","lng":"21.01088","name":"Metro Centrum","spot":"1","number":"9519","bikes":"18","bike_racks":"30","free_racks":"11","terminal_type":"7inch","bike_numbers":"24874,28899,28743,28280,27526,26934,26759,26562,26200,26177,26115,25991,25967,25657,25655,25640,25021,96244","bike_types":{"4":18},"place_type":"0","rack_locks":"1"},{"uid":"2585473","lat":"52.229347019086","lng":"21.011314988136","name":"Marsza\u0142kowska - Al. Jerozolimskie","spot":"1","number":"9520","bikes":"3","bike_racks":"24","free_racks":"19","terminal_type":"7inch","bike_numbers":"27338,25589,25464","bike_types":{"4":3},"place_type":"0","rack_locks":"1"},{"uid":"2585476","lat":"52.230418150276","lng":"21.013610959053","name":"al. Jerozolimskie - rejon Rotundy","spot":"1","number":"9521","bikes":"10","bike_racks":"24","free_racks":"13","terminal_type":"7inch","bike_numbers":"28712,28459,28402,27414,27343,27160,26829,26580,25854,29275","bike_types":{"4":10},"place_type":"0","rack_locks":"1"},{"uid":"2585477","lat":"52.2262882","lng":"21.0135705","name":"Marsza\u0142kowska - Ho\u017ca","spot":"1","number":"9522","bikes":"0","bike_racks":"15","free_racks":"14","terminal_type":"7inch","place_type":"0","rack_locks":"1","bike_numbers":null,"bike_types":[]},{"uid":"2585492","lat":"52.2282923","lng":"21.0178542","name":"Krucza - Wsp\u00f3lna","spot":"1","number":"9523","bikes":"17","bike_racks":"28","free_racks":"11","terminal_type":"7inch","bike_numbers":"24723,27735,27648,27436,26885,26606,26034,25359,25330,25277,25185,29076,29032,28989,96046,96350,96086","bike_types":{"4":17},"place_type":"0","rack_locks":"1"},{"uid":"2585684","lat":"52.23144","lng":"21.0213036","name":"Rondo de Gaulle'a","spot":"1","number":"9524","bikes":"0","bike_racks":"22","free_racks":"22","terminal_type":"7inch","place_type":"0","rack_locks":"1","bike_numbers":null,"bike_types":[]},{"uid":"2585694","lat":"52.2278487","lng":"21.0235084","name":"Plac Trzech Krzy\u017cy","spot":"1","number":"9525","bikes":"3","bike_racks":"23","free_racks":"20","maintenance":"1","terminal_type":"7inch","bike_numbers":"27750,25240,25022","bike_types":{"4":3},"place_type":"0","rack_locks":"1"},{"uid":"2585695","lat":"52.23324","lng":"21.0261179","name":"Smolna - PKP Powi\u015ble","spot":"1","number":"9526","bikes":"14","bike_racks":"18","free_racks":"4","terminal_type":"7inch","bike_numbers":"28732,28018,27323,25862,25583,25454,25397,25209,25141,29015,29461,96550,96515,96122","bike_types":{"4":14},"place_type":"0","rack_locks":"1"},{"uid":"2585699","lat":"52.2340191","lng":"21.0300328","name":"Herberta - PKP Powi\u015ble","spot":"1","number":"9527","bikes":"32","bike_racks":"26","free_racks":"0","terminal_type":"7inch","bike_numbers":"24777,24736,24680,28717,28385,27581,27520,27408,27386,27041,27014,26798,26666,26582,26113,26083,25950,25775,25478,25441,25379,29102,29073,29045,28861,28973,96047,96553,96549,96280,96100,29252","bike_types":{"4":32},"place_type":"0","rack_locks":"1"},{"uid":"2585704","lat":"52.2347879","lng":"21.0340991","name":"Solec - al. 3 Maja","spot":"1","number":"9528","bikes":"17","bike_racks":"24","free_racks":"7","terminal_type":"7inch","bike_numbers":"24722,28581,28033,27497,26997,26793,26596,26528,25997,25974,25732,25701,29037,29456,96334,29153,29201","bike_types":{"4":17},"place_type":"0","rack_locks":"1"},{"uid":"2585708","lat":"52.2301405","lng":"21.0303694","name":"Ksi\u0105\u017c\u0119ca - Rozbrat","spot":"1","number":"9529","bikes":"11","bike_racks":"15","free_racks":"4","terminal_type":"7inch","bike_numbers":"24626,28691,28498,28216,27069,26137,26064,25043,29043,29654,96489","bike_types":{"4":11},"place_type":"0","rack_locks":"1"},{"uid":"2585711","lat":"52.2172177","lng":"20.9713608","name":"Szcz\u0119\u015bliwicka - APS","spot":"1","number":"9530","bikes":"5","bike_racks":"22","free_racks":"16","terminal_type":"7inch","bike_numbers":"26767,25735,25114,28981,96475","bike_types":{"4":5},"place_type":"0","rack_locks":"1"},{"uid":"2585712","lat":"52.2179474","lng":"20.9775567","name":"Kopi\u0144ska - Bia\u0142obrzeska","spot":"1","number":"9531","bikes":"9","bike_racks":"15","free_racks":"5","terminal_type":"7inch","bike_numbers":"24858,28214,28142,28140,28003,27540,26040,25425,29256","bike_types":{"4":9},"place_type":"0","rack_locks":"1"},{"uid":"2585714","lat":"52.2178554","lng":"20.9828138","name":"Plac Narutowicza","spot":"1","number":"9532","bikes":"29","bike_racks":"30","free_racks":"0","terminal_type":"7inch","bike_numbers":"24847,28901,28882,28641,28312,28155,27874,27812,27463,27399,27363,27123,27104,26785,26715,26390,25830,25723,25151,25139,25032,28798,28847,28918,63623,96441,96261,29186,29242","bike_types":{"4":29},"place_type":"0","rack_locks":"1"},{"uid":"2585716","lat":"52.216641","lng":"20.9879476","name":"Raszy\u0144ska - Wawelska","spot":"1","number":"9533","bikes":"1","bike_racks":"20","free_racks":"15","terminal_type":"7inch","bike_numbers":"26302","bike_types":{"4":1},"place_type":"0","rack_locks":"1"},{"uid":"2585717","lat":"52.2191029","lng":"20.9890149","name":"Raszy\u0144ska - Filtrowa","spot":"1","number":"9534","bikes":"11","bike_racks":"22","free_racks":"11","terminal_type":"7inch","bike_numbers":"24707,24504,28758,26864,26092,25936,25298,29122,28865,96433,96194","bike_types":{"4":10,"0":1},"place_type":"0","rack_locks":"1"},{"uid":"2585720","lat":"52.220676","lng":"21.0045554","name":"al. Niepodleg\u0142o\u015bci - Nowowiejska","spot":"1","number":"9535","bikes":"8","bike_racks":"30","free_racks":"23","terminal_type":"7inch","bike_numbers":"24678,28576,28071,27782,27483,96400,96173,29226","bike_types":{"4":8},"place_type":"0","rack_locks":"1"},{"uid":"2585721","lat":"52.2174693","lng":"21.0056537","name":"Kaczy\u0144skiego - al. Niepodleg\u0142o\u015bci","spot":"1","number":"9536","bikes":"9","bike_racks":"16","free_racks":"7","terminal_type":"7inch","bike_numbers":"24927,28620,28208,27008,26538,26159,26070,25142,96186","bike_types":{"4":9},"place_type":"0","rack_locks":"1"},{"uid":"2585722","lat":"52.2226831","lng":"21.0081097","name":"Noakowskiego - Koszykowa","spot":"1","number":"9537","bikes":"4","bike_racks":"24","free_racks":"16","terminal_type":"7inch","bike_numbers":"28442,27005,26216,96365","bike_types":{"4":4},"place_type":"0","rack_locks":"1"},{"uid":"2585724","lat":"52.219916","lng":"21.0116824","name":"Plac Politechniki","spot":"1","number":"9538","bikes":"0","bike_racks":"27","free_racks":"27","terminal_type":"7inch","place_type":"0","rack_locks":"1","bike_numbers":null,"bike_types":[]},{"uid":"2585727","lat":"52.223503","lng":"21.0128519","name":"Pozna\u0144ska - Zesp\u00f3\u0142 Szk\u00f3\u0142 Gastronomicznych","spot":"1","number":"9539","bikes":"1","bike_racks":"18","free_racks":"18","terminal_type":"7inch","bike_numbers":"26223","bike_types":{"4":1},"place_type":"0","rack_locks":"1"},{"uid":"2585728","lat":"52.2174857","lng":"21.0142949","name":"Rondo Jazdy Polskiej","spot":"1","number":"9540","bikes":"1","bike_racks":"24","free_racks":"22","terminal_type":"7inch","bike_numbers":"28720","bike_types":{"4":1},"place_type":"0","rack_locks":"1"},{"uid":"2585729","lat":"52.2197435","lng":"21.0157353","name":"ul. Wary\u0144skiego-ul. Nowowiejska-Metro Politechnika ","spot":"1","number":"9541","bikes":"8","bike_racks":"20","free_racks":"15","terminal_type":"7inch","bike_numbers":"28425,27896,26470,26091,25801,25636,28867,96569","bike_types":{"4":8},"place_type":"0","rack_locks":"1"},{"uid":"2585731","lat":"52.2197681","lng":"21.0172775","name":"Plac Zbawiciela","spot":"1","number":"9542","bikes":"6","bike_racks":"12","free_racks":"5","terminal_type":"7inch","bike_numbers":"24564,24465,28383,25339,29433,29192","bike_types":{"4":5,"51":1},"place_type":"0","rack_locks":"1"},{"uid":"2585735","lat":"52.2229427","lng":"21.0158211","name":"Plac Konstytucji","spot":"1","number":"9543","bikes":"2","bike_racks":"30","free_racks":"26","terminal_type":"7inch","bike_numbers":"28537,96029","bike_types":{"4":2},"place_type":"0","rack_locks":"1"},{"uid":"2585737","lat":"52.2238152","lng":"21.0207859","name":"Mokotowska - Pi\u0119kna","spot":"1","number":"9544","bikes":"2","bike_racks":"22","free_racks":"19","terminal_type":"7inch","bike_numbers":"28453,28395","bike_types":{"4":2},"place_type":"0","rack_locks":"1"},{"uid":"2585738","lat":"52.2200212","lng":"21.0256299","name":"Plac na Rozdro\u017cu","spot":"1","number":"9545","bikes":"10","bike_racks":"26","free_racks":"15","terminal_type":"7inch","bike_numbers":"24582,27274,27157,26886,26621,26004,25960,25061,29140,96191","bike_types":{"4":9,"0":1},"place_type":"0","rack_locks":"1"},{"uid":"2585742","lat":"52.2249504","lng":"21.0268155","name":"Matejki - Wiejska","spot":"1","number":"9546","bikes":"3","bike_racks":"20","free_racks":"17","terminal_type":"7inch","bike_numbers":"28317,26088,96500","bike_types":{"4":3},"place_type":"0","rack_locks":"1"},{"uid":"2585747","lat":"52.2221129","lng":"21.0343873","name":"My\u015bliwiecka - Rozbrat","spot":"1","number":"9547","bikes":"15","bike_racks":"21","free_racks":"6","terminal_type":"7inch","bike_numbers":"24590,28715,28544,28104,27973,27658,27452,26879,26857,26734,25695,25452,25077,96494,29234","bike_types":{"4":15},"place_type":"0","rack_locks":"1"},{"uid":"2585748","lat":"52.2277124","lng":"21.0442955","name":"Port Czerniakowski","spot":"1","number":"9548","bikes":"31","bike_racks":"30","free_racks":"2","terminal_type":"7inch","bike_numbers":"24754,24669,24637,24620,24584,24491,24455,28597,28531,28304,28054,27471,27460,27451,27319,27303,26657,26248,26178,25934,25860,25461,25363,25126,25083,29349,29647,28849,28844,96425,96588","bike_types":{"4":29,"51":2},"place_type":"0","rack_locks":"1"},{"uid":"2585749","lat":"52.2109711","lng":"20.9759125","name":"Gr\u00f3jecka - Bitwy Warszawskiej 1920 roku","spot":"1","number":"9549","bikes":"9","bike_racks":"20","free_racks":"10","terminal_type":"7inch","bike_numbers":"24581,28350,28322,27473,27406,26044,25817,96574,24050","bike_types":{"4":8,"26":1},"place_type":"0","rack_locks":"1"},{"uid":"2585750","lat":"52.2130296","lng":"20.9819985","name":"Pasteura - Winnicka - UW","spot":"1","number":"9550","bikes":"0","bike_racks":"24","free_racks":"22","terminal_type":"7inch","place_type":"0","rack_locks":"1","bike_numbers":null,"bike_types":[]},{"uid":"2585762","lat":"52.2107722","lng":"20.9847557","name":"Stefana Banacha - UW","spot":"1","number":"9551","bikes":"1","bike_racks":"29","free_racks":"27","terminal_type":"7inch","bike_numbers":"28271","bike_types":{"4":1},"place_type":"0","rack_locks":"1"},{"uid":"2585764","lat":"52.212671","lng":"21.003437","name":"Biblioteka Narodowa","spot":"1","number":"9552","bikes":"2","bike_racks":"24","free_racks":"21","terminal_type":"7inch","bike_numbers":"27610,96528","bike_types":{"4":2},"place_type":"0","rack_locks":"1"},{"uid":"2585766","lat":"52.21691","lng":"21.01997","name":"Marsza\u0142kowska - Litewska","spot":"1","number":"9553","bikes":"3","bike_racks":"15","free_racks":"9","terminal_type":"7inch","bike_numbers":"24945,24797,28477","bike_types":{"4":3},"place_type":"0","rack_locks":"1"},{"uid":"2585770","lat":"52.2083858","lng":"20.9631103","name":"P\u0119tla Szcz\u0119\u015bliwice ","spot":"1","number":"9554","bikes":"18","bike_racks":"19","free_racks":"0","terminal_type":"7inch","bike_numbers":"28550,28419,28263,27455,27268,27245,27081,27075,26129,25928,25764,25709,25283,25256,25162,96520,96491,96449","bike_types":{"4":18},"place_type":"0","rack_locks":"1"},{"uid":"2585771","lat":"52.206153650625","lng":"20.970287919044","name":"Dickensa - Geodet\u00f3w","spot":"1","number":"9555","bikes":"22","bike_racks":"16","free_racks":"0","terminal_type":"7inch","bike_numbers":"24559,28801,28447,28438,27440,27425,27171,27170,27106,26983,26506,26451,26371,26179,26010,25966,25539,25533,28943,28808,96214,96587","bike_types":{"4":22},"place_type":"0","rack_locks":"1"},{"uid":"2585772","lat":"52.205361371875","lng":"20.984664559364","name":"\u017bwirki i Wigury - Ksi\u0119cia Trojdena","spot":"1","number":"9556","bikes":"3","bike_racks":"17","free_racks":"12","terminal_type":"7inch","bike_numbers":"24043,26048,96115","bike_types":{"26":1,"4":2},"place_type":"0","rack_locks":"1"},{"uid":"2585774","lat":"52.205801893754","lng":"20.998928546906","name":"Rakowiecka - \u015aw. A. Boboli","spot":"1","number":"9557","bikes":"6","bike_racks":"17","free_racks":"10","terminal_type":"7inch","bike_numbers":"28664,27175,27054,26377,25216,96052","bike_types":{"4":6},"place_type":"0","rack_locks":"1"},{"uid":"2585776","lat":"52.209916","lng":"21.0067794","name":"al. Niepodleg\u0142o\u015bci - Batorego","spot":"1","number":"9558","bikes":"27","bike_racks":"26","free_racks":"3","terminal_type":"7inch","bike_numbers":"24999,24995,24801,24570,24474,28548,28533,27974,27911,27248,27152,26988,26570,26497,26352,26073,25559,25227,25158,29340,29200,60854,60831,28915,96274,96156,29248","bike_types":{"4":26,"51":1},"place_type":"0","rack_locks":"1"},{"uid":"2585779","lat":"52.2132375","lng":"21.0210568","name":"Plac Unii Lubelskiej","spot":"1","number":"9559","bikes":"17","bike_racks":"24","free_racks":"8","terminal_type":"7inch","bike_numbers":"24605,24529,28449,28355,28035,27884,27846,27545,27496,26772,26544,25996,25911,25433,25384,25291,29198","bike_types":{"4":17},"place_type":"0","rack_locks":"1"},{"uid":"2585781","lat":"52.2027557","lng":"20.9508951","name":"W\u0142odarzewska - Maszynowa","spot":"1","number":"9560","bikes":"15","bike_racks":"18","free_racks":"2","terminal_type":"7inch","bike_numbers":"28677,28517,28379,27965,27810,27189,27042,26855,26780,26553,25067,28959,28986,96370,96344","bike_types":{"4":15},"place_type":"0","rack_locks":"1"},{"uid":"2585782","lat":"52.2017647","lng":"20.9820897","name":"Sanocka - Pruszkowska","spot":"1","number":"9561","bikes":"15","bike_racks":"15","free_racks":"0","terminal_type":"7inch","bike_numbers":"24996,24914,24479,24476,28450,28207,27949,27479,27355,26860,26455,25782,25326,25145,25059","bike_types":{"4":13,"51":2},"place_type":"0","rack_locks":"1"},{"uid":"2585785","lat":"52.1981365","lng":"20.9833717","name":"\u017bwirki i Wigury - Rac\u0142awicka","spot":"1","number":"9562","bikes":"9","bike_racks":"18","free_racks":"7","terminal_type":"7inch","bike_numbers":"28547,28409,27250,27116,26560,26559,26465,26388,28841","bike_types":{"4":9},"place_type":"0","rack_locks":"1"},{"uid":"2585787","lat":"52.20177","lng":"20.99969","name":"Wo\u0142oska - Kulskiego","spot":"1","number":"9563","bikes":"5","bike_racks":"15","free_racks":"3","terminal_type":"7inch","bike_numbers":"28643,28085,26910,26845,25237","bike_types":{"4":5},"place_type":"0","rack_locks":"1"},{"uid":"2585788","lat":"52.2042638","lng":"21.014428","name":"Madali\u0144skiego - Kazimierzowska","spot":"1","number":"9564","bikes":"9","bike_racks":"24","free_racks":"10","terminal_type":"7inch","bike_numbers":"28734,28512,28196,26962,25702,25597,25508,29551,96430","bike_types":{"4":9},"place_type":"0","rack_locks":"1"},{"uid":"2585789","lat":"52.2055175","lng":"21.0231033","name":"Pu\u0142awska - Dworkowa","spot":"1","number":"9565","bikes":"1","bike_racks":"19","free_racks":"14","terminal_type":"7inch","bike_numbers":"27966","bike_types":{"4":1},"place_type":"0","rack_locks":"1"},{"uid":"2585790","lat":"52.2071756","lng":"21.0312643","name":"Belwederska - Gagarina","spot":"1","number":"9566","bikes":"47","bike_racks":"30","free_racks":"1","terminal_type":"7inch","bike_numbers":"24940,24732,24690,24607,28885,28702,28644,28635,28588,28366,28307,28143,27745,27546,27522,27174,27071,26961,26748,26660,26463,26350,26334,26309,26244,26074,25858,25727,25527,25482,25322,25245,25215,25068,29346,29129,28855,28987,96501,96428,96383,96352,96341,96301,96249,96175,29190","bike_types":{"4":46,"0":1},"place_type":"0","rack_locks":"1"},{"uid":"2585791","lat":"52.2074193","lng":"21.0479621","name":"Czerniakowska - Gagarina","spot":"1","number":"9567","bikes":"59","bike_racks":"25","free_racks":"0","terminal_type":"7inch","bike_numbers":"24943,24774,24717,24697,24681,24502,24489,28752,28719,28631,28621,28110,28046,28039,27940,27866,27853,27612,27476,27445,27418,27305,27133,27038,26802,26708,26615,26501,26480,26276,26249,26226,26163,26126,25867,25721,25592,25487,25346,25319,25311,25273,25027,29116,29010,29447,28913,96490,96488,96484,96457,96442,96418,96411,96349,96177,96090,29231,24054","bike_types":{"4":57,"51":1,"26":1},"place_type":"0","rack_locks":"1"},{"uid":"2585794","lat":"52.1938131","lng":"20.9914431","name":"Etiudy Rewolucyjnej - Mi\u0105czy\u0144ska","spot":"1","number":"9568","bikes":"9","bike_racks":"18","free_racks":"7","terminal_type":"7inch","bike_numbers":"24586,28389,28026,27509,26266,26131,25962,25573,25278","bike_types":{"4":9},"place_type":"0","rack_locks":"1"},{"uid":"2585799","lat":"52.1994156","lng":"21.0121384","name":"Metro Rac\u0142awicka","spot":"1","number":"9570","bikes":"21","bike_racks":"30","free_racks":"7","terminal_type":"7inch","bike_numbers":"28692,28435,28397,27938,27881,27564,27384,27229,27143,26766,26400,26392,25990,25901,25881,25409,25084,29644,96059,63620,29179","bike_types":{"4":21},"place_type":"0","rack_locks":"1"},{"uid":"2585800","lat":"52.199505","lng":"21.0240975","name":"Pu\u0142awska - Dolna","spot":"1","number":"9571","bikes":"10","bike_racks":"18","free_racks":"5","terminal_type":"7inch","bike_numbers":"24827,28575,28461,28092,27970,27935,27050,25404,25324,29270","bike_types":{"4":10},"place_type":"0","rack_locks":"1"},{"uid":"2585802","lat":"52.2014754","lng":"21.0360047","name":"Sobieskiego - Che\u0142mska","spot":"1","number":"9572","bikes":"26","bike_racks":"15","free_racks":"0","terminal_type":"7inch","bike_numbers":"24541,24521,28707,28412,28410,28334,28126,28095,27992,27832,27739,27569,27548,27430,27241,27128,26945,26522,26479,26450,25893,25392,25386,25627,96253,96178","bike_types":{"4":26},"place_type":"0","rack_locks":"1"},{"uid":"2585804","lat":"52.1998446","lng":"21.05095","name":"Czerniakowska - ZUS","spot":"1","number":"9573","bikes":"18","bike_racks":"15","free_racks":"0","terminal_type":"7inch","bike_numbers":"24903,24870,24848,24778,28623,28252,28152,27100,26811,26532,26211,25937,25729,96004,96426,96142,29276,29244","bike_types":{"4":18},"place_type":"0","rack_locks":"1"},{"uid":"2585807","lat":"52.1916776","lng":"20.8689688","name":"PKP Ursus-Nied\u017awiadek","spot":"1","number":"9574","bikes":"14","bike_racks":"15","free_racks":"1","terminal_type":"7inch","bike_numbers":"27659,27438,26954,26797,26172,26006,25840,25768,25161,29459,96007,96398,96340,29278","bike_types":{"4":14},"place_type":"0","rack_locks":"1"},{"uid":"2585808","lat":"52.1960469","lng":"20.8849347","name":"PKP Ursus","spot":"1","number":"9575","bikes":"11","bike_racks":"16","free_racks":"4","terminal_type":"7inch","bike_numbers":"28287,28083,27598,26976,26143,25826,25599,25380,96486,96345,29262","bike_types":{"4":11},"place_type":"0","rack_locks":"1"},{"uid":"2585809","lat":"52.1869936","lng":"20.8906478","name":"Sosnkowskiego - OSiR Ursus","spot":"1","number":"9576","bikes":"6","bike_racks":"15","free_racks":"9","terminal_type":"7inch","bike_numbers":"28747,27388,29106,96048,96363,96187","bike_types":{"4":6},"place_type":"0","rack_locks":"1"},{"uid":"2585811","lat":"52.2005548","lng":"20.8937538","name":"Ursus-Ratusz","spot":"1","number":"9577","bikes":"8","bike_racks":"15","free_racks":"6","terminal_type":"7inch","bike_numbers":"24748,24744,28721,28710,27720,26876,26258,26215","bike_types":{"4":8},"place_type":"0","rack_locks":"1"},{"uid":"2585814","lat":"52.1906376","lng":"20.8999443","name":"Skoroszewska - Prystora","spot":"1","number":"9578","bikes":"17","bike_racks":"17","free_racks":"0","terminal_type":"7inch","bike_numbers":"24968,24685,24462,28905,28460,26758,26362,25876,25500,25477,25340,25304,29095,96049,96461,96251,96582","bike_types":{"4":16,"51":1},"place_type":"0","rack_locks":"1"},{"uid":"2585817","lat":"52.1882609","lng":"20.9603771","name":"G\u0142adka - OSiR W\u0142ochy","spot":"1","number":"9579","bikes":"5","bike_racks":"16","free_racks":"11","terminal_type":"7inch","bike_numbers":"28538,27269,26652,25895,96060","bike_types":{"4":5},"place_type":"0","rack_locks":"1"},{"uid":"2585820","lat":"52.2056441","lng":"20.9159142","name":"PKP W\u0142ochy","spot":"1","number":"9580","bikes":"5","bike_racks":"17","free_racks":"10","terminal_type":"7inch","bike_numbers":"27855,26366,26230,25856,29230","bike_types":{"4":5},"place_type":"0","rack_locks":"1"},{"uid":"2585821","lat":"52.2012157","lng":"20.9353145","name":"al. Jerozolimskie - Popularna","spot":"1","number":"9581","bikes":"7","bike_racks":"19","free_racks":"12","terminal_type":"7inch","bike_numbers":"24030,24001,27837,25919,25387,25261,28952","bike_types":{"26":2,"4":5},"place_type":"0","rack_locks":"1"},{"uid":"2585824","lat":"52.1924709","lng":"20.9596664","name":"W\u0142ochy-Ratusz","spot":"1","number":"9582","bikes":"4","bike_racks":"15","free_racks":"13","terminal_type":"7inch","bike_numbers":"24887,28253,25853,96343","bike_types":{"4":4},"place_type":"0","rack_locks":"1"},{"uid":"2585825","lat":"52.1946888","lng":"20.9667823","name":"1 Sierpnia - DK W\u0142ochy","spot":"1","number":"9583","bikes":"18","bike_racks":"15","free_racks":"0","terminal_type":"7inch","bike_numbers":"24631,28551,28331,28194,27939,27718,26755,26069,25733,25603,25413,25258,25232,29117,28939,29374,29452,96080","bike_types":{"4":18},"place_type":"0","rack_locks":"1"},{"uid":"2585827","lat":"52.1888962","lng":"21.0175887","name":"Metro Wierzbno","spot":"1","number":"9584","bikes":"8","bike_racks":"20","free_racks":"12","terminal_type":"7inch","bike_numbers":"28510,28499,28439,28384,27117,26985,25758,96006","bike_types":{"4":8},"place_type":"0","rack_locks":"1"},{"uid":"2585830","lat":"52.18648","lng":"21.02538","name":"Pu\u0142awska - Idzikowskiego","spot":"1","number":"9585","bikes":"4","bike_racks":"17","free_racks":"13","terminal_type":"7inch","bike_numbers":"27488,27361,26784,26096","bike_types":{"4":4},"place_type":"0","rack_locks":"1"},{"uid":"2585835","lat":"52.1882861","lng":"21.0498825","name":"Sobieskiego - Mangalia","spot":"1","number":"9586","bikes":"22","bike_racks":"15","free_racks":"0","terminal_type":"7inch","bike_numbers":"24640,24522,28599,28596,28346,28315,28261,28047,27448,26753,26719,26500,26396,26382,25510,25423,25410,25172,25029,96316,96300,29162","bike_types":{"4":22},"place_type":"0","rack_locks":"1"},{"uid":"2585837","lat":"52.178777","lng":"21.0016387","name":"Wo\u0142oska - Marynarska","spot":"1","number":"9588","bikes":"19","bike_racks":"26","free_racks":"7","terminal_type":"7inch","bike_numbers":"24871,24791,24532,27989,27875,27861,27790,26502,26229,25620,25579,25494,25218,25118,28975,63601,96338,96279,29282","bike_types":{"4":19},"place_type":"0","rack_locks":"1"},{"uid":"2585838","lat":"52.1800882","lng":"21.0207403","name":"al. Niepodleg\u0142o\u015bci - al. Wilanowska","spot":"1","number":"9589","bikes":"3","bike_racks":"22","free_racks":"19","terminal_type":"7inch","bike_numbers":"26982,25679,25320","bike_types":{"4":3},"place_type":"0","rack_locks":"1"},{"uid":"2585839","lat":"52.1779163","lng":"21.049562","name":"P\u0119tla Stegny","spot":"1","number":"9590","bikes":"33","bike_racks":"23","free_racks":"2","terminal_type":"7inch","bike_numbers":"24947,28738,28476,27859,27599,27563,27482,27266,26965,26613,25932,25873,25761,25595,25556,25412,25394,25169,25152,25100,25012,29003,60834,60863,28833,28877,96413,96385,96342,96299,96295,96245,29208","bike_types":{"4":33},"place_type":"0","rack_locks":"1"},{"uid":"2585843","lat":"52.1818472","lng":"21.0562822","name":"Sobieskiego - \u015bw. Bonifacego","spot":"1","number":"9591","bikes":"28","bike_racks":"22","free_racks":"2","terminal_type":"7inch","bike_numbers":"24931,24909,24463,24015,28770,28674,27491,27431,27154,27039,26858,26516,26496,26279,26168,26037,25865,25290,25242,25174,25015,28946,28824,28979,28977,96043,96312,96583","bike_types":{"4":26,"51":1,"26":1},"place_type":"0","rack_locks":"1"},{"uid":"2585844","lat":"52.1702836","lng":"20.9959132","name":"P\u0119tla Bokserska","spot":"1","number":"9592","bikes":"6","bike_racks":"15","free_racks":"6","terminal_type":"7inch","bike_numbers":"24691,28217,27865,27084,27006,25465","bike_types":{"4":6},"place_type":"0","rack_locks":"1"},{"uid":"2585846","lat":"52.1710498","lng":"21.0059144","name":"Gintrowskiego - Gotarda","spot":"1","number":"9593","bikes":"19","bike_racks":"15","free_racks":"0","terminal_type":"7inch","bike_numbers":"24835,24518,24459,24021,28377,28264,27978,27236,27126,27015,26867,26458,26283,26106,25585,25371,25295,25049,96474","bike_types":{"4":17,"51":1,"26":1},"place_type":"0","rack_locks":"1"},{"uid":"2585848","lat":"52.174435","lng":"21.0128814","name":"al. Lotnik\u00f3w - Kaczmarskiego","spot":"1","number":"9594","bikes":"16","bike_racks":"30","free_racks":"13","terminal_type":"7inch","bike_numbers":"24629,24040,28639,27789,27531,27498,26905,26364,26046,25992,25814,25686,25377,28879,96495,96378","bike_types":{"4":15,"26":1},"place_type":"0","rack_locks":"1"},{"uid":"2585850","lat":"52.1733132","lng":"21.0257305","name":"Metro S\u0142u\u017cew","spot":"1","number":"9595","bikes":"7","bike_racks":"24","free_racks":"15","terminal_type":"7inch","bike_numbers":"27784,27716,26898,26490,25683,25353,96390","bike_types":{"4":7},"place_type":"0","rack_locks":"1"},{"uid":"2585853","lat":"52.17343","lng":"21.03179","name":"Wa\u0142brzyska - Wr\u00f3bla","spot":"1","number":"9596","bikes":"0","bike_racks":"30","free_racks":"26","terminal_type":"7inch","place_type":"0","rack_locks":"1","bike_numbers":null,"bike_types":[]},{"uid":"2585856","lat":"52.170135","lng":"21.0685748","name":"Jana III Sobieskiego - al. Wilanowska","spot":"1","number":"9597","bikes":"12","bike_racks":"15","free_racks":"7","terminal_type":"7inch","bike_numbers":"28392,28045,27780,27704,27583,27512,27227,27161,26998,26833,25848,96205","bike_types":{"4":12},"place_type":"0","rack_locks":"1"},{"uid":"2585860","lat":"52.1655879","lng":"21.0839331","name":"al. Wilanowska - Przycz\u00f3\u0142kowa","spot":"1","number":"9598","bikes":"6","bike_racks":"16","free_racks":"11","terminal_type":"7inch","bike_numbers":"24817,24718,26245,26180,25111,29136","bike_types":{"4":5,"0":1},"place_type":"0","rack_locks":"1"},{"uid":"2585863","lat":"52.16479","lng":"21.10925","name":"Vogla - Syta","spot":"1","number":"9599","bikes":"12","bike_racks":"16","free_racks":"5","terminal_type":"7inch","bike_numbers":"28262,27993,27781,27605,26434,26011,25910,25816,25476,25287,28999,96255","bike_types":{"4":12},"place_type":"0","rack_locks":"1"},{"uid":"2585868","lat":"52.1606257","lng":"21.0723245","name":"al. Rzeczypospolitej - Klimczaka","spot":"1","number":"9600","bikes":"30","bike_racks":"16","free_racks":"1","terminal_type":"7inch","bike_numbers":"24976,24873,24764,24709,24670,24611,28817,28675,28303,28048,27903,27702,27493,27419,27096,26637,26345,26237,25899,25725,25664,25418,25050,25025,96358,96347,96325,96307,96256,29158","bike_types":{"4":30},"place_type":"0","rack_locks":"1"},{"uid":"2585871","lat":"52.1569168","lng":"21.0760903","name":"al. Rzeczypospolitej - Branickiego","spot":"1","number":"9601","bikes":"15","bike_racks":"16","free_racks":"2","terminal_type":"7inch","bike_numbers":"24747,24646,24610,24591,24553,24481,28494,28490,26960,26176,26057,25908,28906,63605,96513","bike_types":{"4":14,"51":1},"place_type":"0","rack_locks":"1"},{"uid":"2585872","lat":"52.1593735","lng":"21.086449","name":"Przycz\u00f3\u0142kowa - Branickiego","spot":"1","number":"9602","bikes":"11","bike_racks":"16","free_racks":"6","terminal_type":"7inch","bike_numbers":"24762,28660,28464,27842,27556,26376,25562,25431,25104,96216,96188","bike_types":{"4":11},"place_type":"0","rack_locks":"1"},{"uid":"2585873","lat":"52.1618136","lng":"21.0277355","name":"Metro Ursyn\u00f3w II","spot":"1","number":"9603","bikes":"12","bike_racks":"30","free_racks":"18","terminal_type":"7inch","bike_numbers":"27953,27831,27687,27631,27622,27178,26883,26507,25706,25462,25401,28997","bike_types":{"4":12},"place_type":"0","rack_locks":"1"},{"uid":"2585875","lat":"52.1622579","lng":"21.0280761","name":"Metro Ursyn\u00f3w I","spot":"1","number":"9604","bikes":"9","bike_racks":"30","free_racks":"17","terminal_type":"7inch","bike_numbers":"24878,24604,28301,27027,25133,25109,96554,96437,96088","bike_types":{"4":9},"place_type":"0","rack_locks":"1"},{"uid":"2585876","lat":"52.162401","lng":"21.0383811","name":"Jastrz\u0119bowskiego - SGGW","spot":"1","number":"9605","bikes":"9","bike_racks":"28","free_racks":"19","terminal_type":"7inch","bike_numbers":"28821,28700,27655,27139,26923,26146,25426,29092,28881","bike_types":{"4":9},"place_type":"0","rack_locks":"1"},{"uid":"2585880","lat":"52.1557534","lng":"21.0232776","name":"Romera - Pieciolinii","spot":"1","number":"9606","bikes":"17","bike_racks":"16","free_racks":"7","terminal_type":"7inch","bike_numbers":"24828,24619,25003,28630,28326,27591,27159,26205,25581,25560,25557,25117,29096,29035,63618,96541,96289","bike_types":{"4":17},"place_type":"0","rack_locks":"1"},{"uid":"2585883","lat":"52.1568674","lng":"21.0338401","name":"Metro Stok\u0142osy","spot":"1","number":"9607","bikes":"23","bike_racks":"27","free_racks":"1","terminal_type":"7inch","bike_numbers":"24974,28756,28256,28015,27401,27333,27240,26966,26912,26665,26605,26512,26454,26426,26411,26306,26114,26042,26008,25964,25297,96544,29170","bike_types":{"4":23},"place_type":"0","rack_locks":"1"},{"uid":"2585885","lat":"52.1572887","lng":"21.0440084","name":"Roso\u0142a - Ciszewskiego - SGGW","spot":"1","number":"9608","bikes":"19","bike_racks":"30","free_racks":"11","terminal_type":"7inch","bike_numbers":"24977,24776,24661,28556,28552,28513,28372,27508,27184,27114,25993,25756,25416,25347,25204,25196,25178,25177,96265","bike_types":{"4":19},"place_type":"0","rack_locks":"1"},{"uid":"2585888","lat":"52.1521429","lng":"21.0181224","name":"Pu\u0142awska - Pileckiego","spot":"1","number":"9609","bikes":"8","bike_racks":"22","free_racks":"14","terminal_type":"7inch","bike_numbers":"28726,28136,28056,26437,26405,25940,96015,63606","bike_types":{"4":8},"place_type":"0","rack_locks":"1"},{"uid":"2585893","lat":"52.1495064","lng":"21.0332527","name":"Ciszewskiego - Pileckiego","spot":"1","number":"9610","bikes":"9","bike_racks":"22","free_racks":"12","terminal_type":"7inch","bike_numbers":"24942,24543,28434,28272,27524,26487,25343,29053,29268","bike_types":{"4":9},"place_type":"0","rack_locks":"1"},{"uid":"2585894","lat":"52.1549453","lng":"21.0492977","name":"Roso\u0142a - Gandhi","spot":"1","number":"9611","bikes":"6","bike_racks":"22","free_racks":"16","terminal_type":"7inch","bike_numbers":"24950,27957,27141,25978,96395,96226","bike_types":{"4":6},"place_type":"0","rack_locks":"1"},{"uid":"2585897","lat":"52.1493105","lng":"21.0453361","name":"Metro Imielin","spot":"1","number":"9612","bikes":"14","bike_racks":"22","free_racks":"14","terminal_type":"7inch","bike_numbers":"24997,24696,24031,27637,27485,27205,26716,26557,26468,26246,25602,29098,63629,96579","bike_types":{"4":13,"26":1},"place_type":"0","rack_locks":"1"},{"uid":"2585899","lat":"52.1522333","lng":"21.0563922","name":"Roso\u0142a - Weso\u0142a","spot":"1","number":"9613","bikes":"2","bike_racks":"23","free_racks":"21","terminal_type":"7inch","bike_numbers":"25173,28836","bike_types":{"4":2},"place_type":"0","rack_locks":"1"},{"uid":"2585901","lat":"52.1427201","lng":"21.0383624","name":"Pileckiego - Alternatywy","spot":"1","number":"9614","bikes":"13","bike_racks":"30","free_racks":"16","terminal_type":"7inch","bike_numbers":"24575,28299,27461,27032,26428,26144,29361,29141,25628,28826,63628,96444,96225","bike_types":{"4":12,"0":1},"place_type":"0","rack_locks":"1"},{"uid":"2585902","lat":"52.142735","lng":"21.0448131","name":"Dereniowa - P\u0142askowickiej","spot":"1","number":"9615","bikes":"9","bike_racks":"22","free_racks":"12","terminal_type":"7inch","bike_numbers":"24701,28215,27793,27760,27103,26743,25254,25045,28809","bike_types":{"4":9},"place_type":"0","rack_locks":"1"},{"uid":"2585904","lat":"52.1376039","lng":"21.0505531","name":"Stryje\u0144skich - Belgradzka","spot":"1","number":"9616","bikes":"14","bike_racks":"15","free_racks":"1","terminal_type":"7inch","bike_numbers":"24705,24017,28689,27913,26928,26818,25927,25923,25892,25728,25081,96037,96507,96140","bike_types":{"4":13,"26":1},"place_type":"0","rack_locks":"1"},{"uid":"2585905","lat":"52.1403909","lng":"21.0568187","name":"Metro Natolin","spot":"1","number":"9617","bikes":"22","bike_racks":"30","free_racks":"7","terminal_type":"7inch","bike_numbers":"24712,28360,28069,27981,26288,26207,26195,25491,25490,25310,25054,28800,28854,28871,28870,96399,96304,96293,96231,96144,29194,29150","bike_types":{"4":22},"place_type":"0","rack_locks":"1"},{"uid":"2585906","lat":"52.1420749","lng":"21.0659905","name":"Belgradzka - Roso\u0142a","spot":"1","number":"9618","bikes":"22","bike_racks":"23","free_racks":"0","terminal_type":"7inch","bike_numbers":"24985,25007,27880,27829,27407,27223,26878,26609,26584,25917,25646,29342,28842,60867,96567,96243,96241,96184,96174,96141,96102,29258","bike_types":{"4":22},"place_type":"0","rack_locks":"1"},{"uid":"2585908","lat":"52.1314333","lng":"21.0561562","name":"Stryje\u0144skich - W\u0105wozowa","spot":"1","number":"9619","bikes":"25","bike_racks":"23","free_racks":"0","terminal_type":"7inch","bike_numbers":"24973,24954,24866,24803,24554,28260,28068,28027,27613,27525,27308,27299,27207,27135,26499,26075,26001,25832,25737,25648,25269,25020,60855,60828,96561","bike_types":{"4":25},"place_type":"0","rack_locks":"1"},{"uid":"2585911","lat":"52.3326052","lng":"20.9418404","name":"Ordon\u00f3wny - \u015awiatowida","spot":"1","number":"9620","bikes":"20","bike_racks":"22","free_racks":"4","terminal_type":"7inch","bike_numbers":"28652,27982,27847,27806,27787,27514,27486,27176,27165,26986,26953,26651,25609,25608,25489,29077,28938,96257,96185,29185","bike_types":{"4":20},"place_type":"0","rack_locks":"1"},{"uid":"2585913","lat":"52.1310925","lng":"21.0654795","name":"Metro Kabaty","spot":"1","number":"9621","bikes":"21","bike_racks":"22","free_racks":"0","terminal_type":"7inch","bike_numbers":"24960,24892,24888,24632,24625,24038,28316,27578,26612,26569,26098,26036,25898,25575,25553,25548,25519,60836,60815,28829,96218","bike_types":{"4":20,"26":1},"place_type":"0","rack_locks":"1"},{"uid":"2585916","lat":"52.1332642","lng":"21.0747962","name":"W\u0105wozowa - Roso\u0142a","spot":"1","number":"9622","bikes":"14","bike_racks":"18","free_racks":"4","terminal_type":"7inch","bike_numbers":"28298,28251,27975,27804,26407,26149,25955,25703,25467,29432,29144,96040,96424,29178","bike_types":{"4":13,"0":1},"place_type":"0","rack_locks":"1"},{"uid":"2585917","lat":"52.324116","lng":"21.05663","name":"Skarbka z G\u00f3r - Berensona","spot":"1","number":"9623","bikes":"11","bike_racks":"26","free_racks":"15","terminal_type":"7inch","bike_numbers":"28657,28526,28277,27882,27465,26413,26259,26142,25755,96431,96204","bike_types":{"4":11},"place_type":"0","rack_locks":"1"},{"uid":"2585919","lat":"52.3485329","lng":"20.9418336","name":"Aluzyjna - Tr\u0105by","spot":"1","number":"9624","bikes":"10","bike_racks":"16","free_racks":"6","terminal_type":"7inch","bike_numbers":"24896,24854,28612,28314,27158,26655,26269,25905,96401,96317","bike_types":{"4":10},"place_type":"0","rack_locks":"1"},{"uid":"2585920","lat":"52.3226982","lng":"20.9448107","name":"\u015awiatowida - Mehoffera","spot":"1","number":"9625","bikes":"13","bike_racks":"16","free_racks":"2","terminal_type":"7inch","bike_numbers":"24882,24470,28433,27895,26408,26338,26210,26030,28950,28850,96005,96531,29160","bike_types":{"4":12,"51":1},"place_type":"0","rack_locks":"1"},{"uid":"2585921","lat":"52.3212548","lng":"20.9477347","name":"Bia\u0142o\u0142\u0119cki O\u015brodek Sportu","spot":"1","number":"9626","bikes":"24","bike_racks":"30","free_racks":"6","terminal_type":"7inch","bike_numbers":"24993,24900,24886,24859,28749,28642,28431,27833,27664,27327,26941,26893,26667,26265,25900,25859,25480,25219,29105,29359,28864,96010,96516,96137","bike_types":{"4":24},"place_type":"0","rack_locks":"1"},{"uid":"2585922","lat":"52.3211272","lng":"20.9712964","name":"Bia\u0142o\u0142\u0119ka-Ratusz","spot":"1","number":"9627","bikes":"18","bike_racks":"19","free_racks":"1","terminal_type":"7inch","bike_numbers":"28154,27986,27529,27219,27172,26915,26834,26735,26623,26472,26263,26024,25356,29023,28966,96434,96335,96138","bike_types":{"4":18},"place_type":"0","rack_locks":"1"},{"uid":"2585924","lat":"52.3132981","lng":"20.9655324","name":"My\u015bliborska - al. Kukli\u0144skiego","spot":"1","number":"9628","bikes":"17","bike_racks":"22","free_racks":"5","terminal_type":"7inch","bike_numbers":"24486,28437,28404,28390,27919,27912,27504,27004,26989,26171,26018,25197,25156,25135,29108,28995,96373","bike_types":{"51":1,"4":16},"place_type":"0","rack_locks":"1"},{"uid":"2585925","lat":"52.3031984","lng":"20.9891666","name":"Modli\u0144ska - \u017bera\u0144ska","spot":"1","number":"9629","bikes":"26","bike_racks":"30","free_racks":"3","terminal_type":"7inch","bike_numbers":"24918,24743,24622,28590,28127,27284,27108,27030,26763,26760,26738,26692,26489,26236,26033,25738,25538,25528,25479,25408,29135,29133,96521,96263,96247,96094","bike_types":{"4":24,"0":2},"place_type":"0","rack_locks":"1"},{"uid":"2585926","lat":"52.3150181","lng":"21.0610807","name":"Skarbka z G\u00f3r - Magiczna","spot":"1","number":"9630","bikes":"22","bike_racks":"30","free_racks":"8","terminal_type":"7inch","bike_numbers":"24939,24562,24526,28745,28645,28583,28456,27870,27626,27321,27147,26815,26757,26707,26669,26641,26346,25376,25071,28878,28994,96038","bike_types":{"4":22},"place_type":"0","rack_locks":"1"},{"uid":"2585928","lat":"52.3000268","lng":"21.0425266","name":"P\u0119tla Br\u00f3dno - Podgrodzie","spot":"1","number":"9631","bikes":"10","bike_racks":"20","free_racks":"8","terminal_type":"7inch","bike_numbers":"24005,28610,27916,26639,26308,25483,25415,28835,29203,29219","bike_types":{"26":1,"4":9},"place_type":"0","rack_locks":"1"},{"uid":"2585929","lat":"52.2939957","lng":"21.0272258","name":"Rembieli\u0144ska - Kondratowicza","spot":"1","number":"9632","bikes":"16","bike_racks":"23","free_racks":"7","terminal_type":"7inch","bike_numbers":"24898,28772,28607,28553,28327,28073,27908,27378,27288,27020,26270,26153,25938,25063,96376,96369","bike_types":{"4":16},"place_type":"0","rack_locks":"1"},{"uid":"2585931","lat":"52.2917236","lng":"21.0481189","name":"Targ\u00f3wek-Ratusz","spot":"1","number":"9633","bikes":"17","bike_racks":"28","free_racks":"10","terminal_type":"7inch","bike_numbers":"28686,28617,28417,27681,27454,27022,26484,26264,26087,25780,25106,25040,28992,29127,96353,96193,96103","bike_types":{"4":16,"0":1},"place_type":"0","rack_locks":"1"},{"uid":"2585932","lat":"52.292208","lng":"21.0419554","name":"Kondratowicza - Chodecka","spot":"1","number":"9634","bikes":"22","bike_racks":"23","free_racks":"0","terminal_type":"7inch","bike_numbers":"24956,28505,28153,28044,28001,27663,27282,27077,26958,26457,26119,26054,25985,25916,25635,25314,25285,29090,29084,29130,96482,96435","bike_types":{"4":21,"0":1},"place_type":"0","rack_locks":"1"},{"uid":"2585934","lat":"52.2925145","lng":"21.0573949","name":"Kondratowicza - Przy Grodzisku","spot":"1","number":"9635","bikes":"18","bike_racks":"18","free_racks":"0","terminal_type":"7inch","bike_numbers":"24987,24790,28627,27969,27690,27616,27357,27277,27124,26718,26152,26103,25263,29040,96224,96132,96119,96078","bike_types":{"4":18},"place_type":"0","rack_locks":"1"},{"uid":"2585936","lat":"52.2878069","lng":"21.0213829","name":"Wysockiego - Poborza\u0144ska","spot":"1","number":"9636","bikes":"17","bike_racks":"23","free_racks":"7","terminal_type":"7inch","bike_numbers":"24916,28496,28066,27918,27835,26979,26335,26151,25488,25470,25170,28935,25625,28806,28969,96392,29222","bike_types":{"4":17},"place_type":"0","rack_locks":"1"},{"uid":"2585937","lat":"52.2885915","lng":"21.0310087","name":"Rembieli\u0144ska - Wyszogrodzka","spot":"1","number":"9637","bikes":"24","bike_racks":"30","free_racks":"6","terminal_type":"7inch","bike_numbers":"24720,24565,24484,28876,28736,28671,28624,28606,28137,28120,27740,27725,27300,26685,26453,26281,25760,25180,25075,96497,96407,96148,96121,29161","bike_types":{"4":23,"51":1},"place_type":"0","rack_locks":"1"},{"uid":"2585938","lat":"52.2864841","lng":"21.0401998","name":"Chodecka - \u017buromi\u0144ska","spot":"1","number":"9638","bikes":"14","bike_racks":"15","free_racks":"2","terminal_type":"7inch","bike_numbers":"27854,27549,27360,27220,27051,26841,25243,29047,29039,29146,96538,96259,96182,29209","bike_types":{"4":13,"0":1},"place_type":"0","rack_locks":"1"},{"uid":"2585939","lat":"52.281231017533","lng":"21.025852560997","name":"Wysockiego - Matki Teresy z Kalkuty","spot":"1","number":"9639","bikes":"10","bike_racks":"17","free_racks":"7","terminal_type":"7inch","bike_numbers":"24820,24811,27619,27216,27199,25651,25572,25213,25146,29347","bike_types":{"4":10},"place_type":"0","rack_locks":"1"},{"uid":"2585941","lat":"52.2835693","lng":"21.0720858","name":"Blokowa - DK Zacisze","spot":"1","number":"9640","bikes":"11","bike_racks":"18","free_racks":"7","terminal_type":"7inch","bike_numbers":"28628,28567,28123,27502,25926,25621,25270,25246,96054,96020,96081","bike_types":{"4":11},"place_type":"0","rack_locks":"1"},{"uid":"2585942","lat":"52.276259","lng":"21.0530748","name":"P\u0119tla Targ\u00f3wek","spot":"1","number":"9641","bikes":"26","bike_racks":"22","free_racks":"1","terminal_type":"7inch","bike_numbers":"24991,28869,28676,28378,27717,27660,27632,27462,27342,27144,26564,26491,26435,26399,26214,26104,26009,25828,25448,25445,25124,25033,28907,96529,96200,96158","bike_types":{"4":26},"place_type":"0","rack_locks":"1"},{"uid":"2585943","lat":"52.27139","lng":"21.01566","name":"Jagiello\u0144ska - ALK","spot":"1","number":"9642","bikes":"9","bike_racks":"16","free_racks":"7","terminal_type":"7inch","bike_numbers":"24657,24534,28611,27359,26504,26441,28912,96420,96267","bike_types":{"4":9},"place_type":"0","rack_locks":"1"},{"uid":"2585947","lat":"52.2694683","lng":"21.0499817","name":"Ossowskiego","spot":"1","number":"9644","bikes":"17","bike_racks":"17","free_racks":"0","terminal_type":"7inch","bike_numbers":"24949,24746,24530,25006,28774,28516,28342,27776,27017,26744,26239,25855,25544,25460,25235,29082,28996","bike_types":{"4":17},"place_type":"0","rack_locks":"1"},{"uid":"2585951","lat":"52.272602123161","lng":"21.063210368156","name":"Radzymi\u0144ska -Trocka","spot":"1","number":"9645","bikes":"18","bike_racks":"20","free_racks":"2","terminal_type":"7inch","bike_numbers":"24952,24787,24614,24508,24482,28722,28491,27990,27922,27828,27700,27224,26932,26809,26290,25070,29350,29137","bike_types":{"4":16,"51":1,"0":1},"place_type":"0","rack_locks":"1"},{"uid":"2585953","lat":"52.27347","lng":"21.07698","name":"Bukowiecka - Zamkowa","spot":"1","number":"9646","bikes":"11","bike_racks":"15","free_racks":"4","terminal_type":"7inch","bike_numbers":"28305,27998,26963,26868,26529,26041,26007,25474,25455,25405,29443","bike_types":{"4":11},"place_type":"0","rack_locks":"1"},{"uid":"2585954","lat":"52.2668885","lng":"21.0585675","name":"Radzymi\u0144ska - Piotra Skargi","spot":"1","number":"9647","bikes":"15","bike_racks":"20","free_racks":"5","terminal_type":"7inch","bike_numbers":"24832,24714,24016,28268,27211,26787,26754,26722,26581,26369,26356,25882,25378,25125,96305","bike_types":{"4":14,"26":1},"place_type":"0","rack_locks":"1"},{"uid":"2585955","lat":"52.2614369","lng":"21.0155744","name":"Wybrze\u017ce Helskie - ZOO","spot":"1","number":"9648","bikes":"16","bike_racks":"22","free_racks":"6","terminal_type":"7inch","bike_numbers":"24726,24702,24471,27907,26746,26572,26495,26456,26089,25705,28960,24498,28858,96402,96192,96189","bike_types":{"4":14,"51":2},"place_type":"0","rack_locks":"1"},{"uid":"2585956","lat":"52.2632492","lng":"21.0212231","name":"Rondo Starzy\u0144skiego","spot":"1","number":"9649","bikes":"18","bike_racks":"24","free_racks":"5","terminal_type":"7inch","bike_numbers":"24527,24515,28616,28356,27856,27788,27652,27352,27087,26874,26768,26537,25944,25912,28951,28839,96044,63615","bike_types":{"4":18},"place_type":"0","rack_locks":"1"},{"uid":"2585958","lat":"52.26421","lng":"21.02618","name":"Darwina - Nusbauma-Hilarowicza","spot":"1","number":"9650","bikes":"18","bike_racks":"21","free_racks":"4","terminal_type":"7inch","bike_numbers":"24783,24737,24456,27654,26192,26154,26094,25935,25730,25360,25280,96438,96322,96233,96163,96110,29205,24048","bike_types":{"4":16,"51":1,"26":1},"place_type":"0","rack_locks":"1"},{"uid":"2585960","lat":"52.26554","lng":"21.03122","name":"Namys\u0142owska - Darwina","spot":"1","number":"9651","bikes":"13","bike_racks":"15","free_racks":"2","terminal_type":"7inch","bike_numbers":"24831,28578,28560,28128,27444,27255,27016,26633,26630,26549,26097,25224,96031","bike_types":{"4":13},"place_type":"0","rack_locks":"1"},{"uid":"2585961","lat":"52.2690405","lng":"21.0379493","name":"Rondo \u017baba","spot":"1","number":"9652","bikes":"11","bike_racks":"22","free_racks":"10","terminal_type":"7inch","bike_numbers":"28656,28041,27672,27541,27058,27035,26791,29036,29019,96552,24053","bike_types":{"4":10,"26":1},"place_type":"0","rack_locks":"1"},{"uid":"2585963","lat":"52.2591682","lng":"21.0262224","name":"Jagiello\u0144ska - Plac Hallera","spot":"1","number":"9653","bikes":"20","bike_racks":"20","free_racks":"2","terminal_type":"7inch","bike_numbers":"24837,24566,24002,28408,28102,28077,27676,27356,27131,26872,26622,25843,25249,25127,25110,29012,96023,96171,29193,29228","bike_types":{"4":19,"26":1},"place_type":"0","rack_locks":"1"},{"uid":"2585964","lat":"52.2613811","lng":"21.0305437","name":"Plac Hallera - Sawinkowa","spot":"1","number":"9654","bikes":"22","bike_racks":"28","free_racks":"4","terminal_type":"7inch","bike_numbers":"24924,24816,28647,28558,28484,28133,28080,27671,27651,27645,27434,27313,26807,26696,25805,25781,25778,29097,29081,25632,96527,29277","bike_types":{"4":22},"place_type":"0","rack_locks":"1"},{"uid":"2585967","lat":"52.263","lng":"21.03418","name":"Namys\u0142owska - Szymanowskiego","spot":"1","number":"9655","bikes":"7","bike_racks":"16","free_racks":"9","terminal_type":"7inch","bike_numbers":"28082,27550,26156,26059,25736,25631,28880","bike_types":{"4":7},"place_type":"0","rack_locks":"1"},{"uid":"2585968","lat":"52.2538188","lng":"21.0231542","name":"Ratuszowa - ZOO","spot":"1","number":"9656","bikes":"13","bike_racks":"23","free_racks":"10","terminal_type":"7inch","bike_numbers":"24708,24589,24022,27595,27551,26261,25877,25851,25792,25667,25525,29048,96099","bike_types":{"4":12,"26":1},"place_type":"0","rack_locks":"1"},{"uid":"2585971","lat":"52.256355","lng":"21.029538","name":"Jagiello\u0144ska - Ratuszowa","spot":"1","number":"9657","bikes":"7","bike_racks":"16","free_racks":"8","terminal_type":"7inch","bike_numbers":"28574,28568,27995,27481,25586,25121,29120","bike_types":{"4":6,"0":1},"place_type":"0","rack_locks":"1"},{"uid":"2585972","lat":"52.261449","lng":"21.037614","name":"11 Listopada - Ratuszowa","spot":"1","number":"9658","bikes":"14","bike_racks":"30","free_racks":"17","terminal_type":"7inch","bike_numbers":"24844,28467,28362,28270,27796,27744,27163,26781,26174,26012,25929,63625,96510,96118","bike_types":{"4":14},"place_type":"0","rack_locks":"1"},{"uid":"2585974","lat":"52.263109","lng":"21.0381895","name":"11 listopada - \u015arodkowa","spot":"1","number":"9659","bikes":"15","bike_racks":"18","free_racks":"3","terminal_type":"7inch","bike_numbers":"28570,28446,26919,26732,26594,26464,26275,25795,25398,25018,28909,29660,28972,96419,29271","bike_types":{"4":15},"place_type":"0","rack_locks":"1"},{"uid":"2585975","lat":"52.25839","lng":"21.03537","name":"Stalowa - 11 Listopada","spot":"1","number":"9660","bikes":"17","bike_racks":"24","free_racks":"7","terminal_type":"7inch","bike_numbers":"24556,28672,28382,28275,27634,27597,27137,26109,25831,25788,25567,25495,29124,29132,25958,96315,96124","bike_types":{"4":15,"0":2},"place_type":"0","rack_locks":"1"},{"uid":"2585978","lat":"52.234791","lng":"21.07905","name":"al. Stan\u00f3w Zjednoczonych - Ostrobramska","spot":"1","number":"9661","bikes":"19","bike_racks":"20","free_racks":"2","terminal_type":"7inch","bike_numbers":"24004,28902,28352,28103,28089,27575,27260,27222,27112,26118,25653,25284,25238,29113,29065,28845,96478,96359,96201","bike_types":{"26":1,"4":18},"place_type":"0","rack_locks":"1"},{"uid":"2585981","lat":"52.2524758","lng":"21.0303479","name":"Floria\u0144ska - Park Praski","spot":"1","number":"9662","bikes":"12","bike_racks":"23","free_racks":"8","terminal_type":"7inch","bike_numbers":"24006,28452,28050,28010,27803,27515,26552,26250,25918,60862,96324,29204","bike_types":{"26":1,"4":11},"place_type":"0","rack_locks":"1"},{"uid":"2585982","lat":"52.2549757","lng":"21.0339005","name":"Plac Wile\u0144ski","spot":"1","number":"9663","bikes":"23","bike_racks":"30","free_racks":"12","terminal_type":"7inch","bike_numbers":"24623,24557,28760,28432,28074,28053,28023,27580,27443,27411,26964,26895,26687,26079,25896,25878,25642,25267,25163,25101,60845,96477,96136","bike_types":{"4":23},"place_type":"0","rack_locks":"1"},{"uid":"2585983","lat":"52.2579576","lng":"21.0399804","name":"Wile\u0144ska - Rzeszotarskiej","spot":"1","number":"9664","bikes":"22","bike_racks":"16","free_racks":"0","terminal_type":"7inch","bike_numbers":"24961,28405,28081,27962,27951,27792,27372,27331,27312,26991,26948,26610,26167,26161,26117,25973,25820,25716,29024,96485,96443,96336","bike_types":{"4":22},"place_type":"0","rack_locks":"1"},{"uid":"2585984","lat":"52.2475848","lng":"20.9568001","name":"al. Prymasa Tysi\u0105clecia - Obozowa","spot":"1","number":"9665","bikes":"15","bike_racks":"13","free_racks":"0","terminal_type":"7inch","bike_numbers":"28703,28013,27097,26847,26595,26319,26066,25810,25718,25305,25228,25112,28883,96405,29254","bike_types":{"4":15},"place_type":"0","rack_locks":"1"},{"uid":"2585985","lat":"52.248607","lng":"21.029647","name":"Okrzei - Panie\u0144ska","spot":"1","number":"9666","bikes":"9","bike_racks":"16","free_racks":"3","terminal_type":"7inch","bike_numbers":"24907,24845,27390,27330,27324,26972,25746,96519,24055","bike_types":{"4":8,"26":1},"place_type":"0","rack_locks":"1"},{"uid":"2585987","lat":"52.2506334","lng":"21.0311174","name":"Sierakowskiego - K\u0142opotowskiego","spot":"1","number":"9667","bikes":"18","bike_racks":"25","free_racks":"6","terminal_type":"7inch","bike_numbers":"24926,28114,28099,28072,27844,27582,27397,27275,26974,26649,26556,25943,25696,25658,25334,28933,28834,96166","bike_types":{"4":18},"place_type":"0","rack_locks":"1"},{"uid":"2585990","lat":"52.2520876","lng":"21.0381368","name":"Targowa - Z\u0105bkowska","spot":"1","number":"9668","bikes":"20","bike_racks":"18","free_racks":"6","terminal_type":"7inch","bike_numbers":"24753,24602,25009,28892,28646,28629,28585,27530,27477,25368,25327,25230,25069,96013,96540,96281,96147,96127,29174,29237","bike_types":{"4":20},"place_type":"0","rack_locks":"1"},{"uid":"2585992","lat":"52.2544855","lng":"21.0433458","name":"Fabryka W\u00f3dek Koneser","spot":"1","number":"9669","bikes":"30","bike_racks":"25","free_racks":"0","terminal_type":"7inch","bike_numbers":"24928,24913,24861,24771,28714,28683,28520,28190,28098,27936,27848,27362,27262,27046,26714,26634,26597,26554,26530,26378,26296,26166,25968,25570,25523,25357,96039,96555,96505,96170","bike_types":{"4":30},"place_type":"0","rack_locks":"1"},{"uid":"2585994","lat":"52.2559027","lng":"21.0495613","name":"Radzymi\u0144ska - Wiosenna","spot":"1","number":"9670","bikes":"12","bike_racks":"26","free_racks":"15","terminal_type":"7inch","bike_numbers":"28436,27727,27661,27519,27246,27064,26440,26282,25925,25200,29075,29168","bike_types":{"4":12},"place_type":"0","rack_locks":"1"},{"uid":"2585995","lat":"52.25965","lng":"21.0529","name":"Radzymi\u0144ska - \u0141om\u017cy\u0144ska","spot":"1","number":"9671","bikes":"19","bike_racks":"24","free_racks":"4","terminal_type":"7inch","bike_numbers":"24630,24583,28347,28115,27798,27586,27417,27403,27249,27212,27197,26717,26603,26587,25364,25159,28889,28895,29218","bike_types":{"4":19},"place_type":"0","rack_locks":"1"},{"uid":"2585996","lat":"52.2583512","lng":"21.0585337","name":"P\u0119tla Kaw\u0119czy\u0144ska-Bazylika","spot":"1","number":"9672","bikes":"20","bike_racks":"26","free_racks":"4","terminal_type":"7inch","bike_numbers":"24893,24814,24788,24010,28764,27683,27650,27344,27007,26638,26573,26508,26315,26076,25998,25802,28990,96469,96176,96153","bike_types":{"4":19,"26":1},"place_type":"0","rack_locks":"1"},{"uid":"2585997","lat":"52.249864871462","lng":"21.042911410332","name":"Targowa - Kijowska","spot":"1","number":"9673","bikes":"5","bike_racks":"18","free_racks":"13","terminal_type":"7inch","bike_numbers":"28554,28493,27031,25341,25064","bike_types":{"4":5},"place_type":"0","rack_locks":"1"},{"uid":"2586000","lat":"52.252745","lng":"21.0510331","name":"Dworzec Wschodni - Kijowska","spot":"1","number":"9674","bikes":"26","bike_racks":"27","free_racks":"6","terminal_type":"7inch","bike_numbers":"25008,28603,28369,28308,28211,27902,27731,27669,27421,27237,27068,26827,26795,26473,26028,25634,25447,25366,25128,25035,28949,29128,96468,96452,29281,29245","bike_types":{"4":25,"0":1},"place_type":"0","rack_locks":"1"},{"uid":"2586001","lat":"52.247314","lng":"21.042731","name":"Metro Stadion Narodowy","spot":"1","number":"9675","bikes":"7","bike_racks":"15","free_racks":"9","terminal_type":"7inch","bike_numbers":"27380,27201,27155,27024,26359,25787,96409","bike_types":{"4":7},"place_type":"0","rack_locks":"1"},{"uid":"2586003","lat":"52.2472308","lng":"21.0476456","name":"al. Zieleniecka - Teatr Powszechny","spot":"1","number":"9676","bikes":"12","bike_racks":"14","free_racks":"6","terminal_type":"7inch","bike_numbers":"28502,28148,28108,28004,27621,27213,26914,25980,25039,96380,96197,96157","bike_types":{"4":12},"place_type":"0","rack_locks":"1"},{"uid":"2586005","lat":"52.247136","lng":"21.056658","name":"Grochowska - Mi\u0144ska","spot":"1","number":"9677","bikes":"30","bike_racks":"30","free_racks":"0","terminal_type":"7inch","bike_numbers":"24796,24761,28632,28515,27755,27368,27353,27209,27173,27045,26770,26588,26583,26517,26058,25849,25607,25512,25439,25188,25182,25148,25129,29104,29014,60830,25629,96472,96361,29263","bike_types":{"4":30},"place_type":"0","rack_locks":"1"},{"uid":"2586009","lat":"52.2464","lng":"21.06868","name":"Praga-Po\u0142udnie-Ratusz","spot":"1","number":"9678","bikes":"4","bike_racks":"15","free_racks":"11","terminal_type":"7inch","bike_numbers":"27043,26398,26307,25338","bike_types":{"4":4},"place_type":"0","rack_locks":"1"},{"uid":"2586011","lat":"52.2501129","lng":"21.0772011","name":"Dwernickiego - Siennicka","spot":"1","number":"9679","bikes":"41","bike_racks":"25","free_racks":"0","terminal_type":"7inch","bike_numbers":"24969,24880,24729,24577,24539,28697,28527,28295,28254,28014,27858,27827,27770,27733,27714,27441,27314,27194,26387,26383,26212,26203,25969,25836,25773,25587,25303,25299,25186,25167,25089,25047,28958,96483,96422,96314,96123,96120,29171,29149,29249","bike_types":{"4":41},"place_type":"0","rack_locks":"1"},{"uid":"2586012","lat":"52.260428882956","lng":"21.041538119316","name":"Stalowa - Czynszowa","spot":"1","number":"9680","bikes":"2","bike_racks":"15","free_racks":"13","terminal_type":"7inch","bike_numbers":"28822,26394","bike_types":{"4":2},"place_type":"0","rack_locks":"1"},{"uid":"2586014","lat":"52.2372419","lng":"21.0437644","name":"Wybrze\u017ce Szczeci\u0144skie - Stadion Narodowy","spot":"1","number":"9681","bikes":"26","bike_racks":"23","free_racks":"2","terminal_type":"7inch","bike_numbers":"24694,24644,24639,28592,28274,27641,27480,27426,27371,27272,27252,26750,26701,26653,26361,26155,26101,25894,25453,25275,25233,29126,28837,96025,96014,96001","bike_types":{"4":25,"0":1},"place_type":"0","rack_locks":"1"},{"uid":"2586018","lat":"52.2387103","lng":"21.0507515","name":"Rondo Waszyngtona - Stadion Narodowy","spot":"1","number":"9682","bikes":"18","bike_racks":"27","free_racks":"14","terminal_type":"7inch","bike_numbers":"24798,24731,24693,28488,28286,27914,27393,27188,26790,26579,26199,25688,25618,25473,25451,25211,28894,96042","bike_types":{"4":18},"place_type":"0","rack_locks":"1"},{"uid":"2586019","lat":"52.242281006874","lng":"21.071160435677","name":"Waszyngtona - Kinowa","spot":"1","number":"9683","bikes":"15","bike_racks":"15","free_racks":"0","terminal_type":"7inch","bike_numbers":"24513,28524,28398,27775,27061,26771,26531,26443,26277,25745,25293,25062,28853,96009,96356","bike_types":{"4":15},"place_type":"0","rack_locks":"1"},{"uid":"2586021","lat":"52.2445639","lng":"21.0838057","name":"Rondo Wiatraczna","spot":"1","number":"9684","bikes":"20","bike_racks":"30","free_racks":"8","terminal_type":"7inch","bike_numbers":"24668,24596,24593,28037,27779,27387,27276,27130,26839,26343,26196,25821,25041,29078,29446,29659,25622,96514,96294,96271","bike_types":{"4":20},"place_type":"0","rack_locks":"1"},{"uid":"2586022","lat":"52.2347451","lng":"21.053651","name":"Francuska - Walecznych","spot":"1","number":"9685","bikes":"5","bike_racks":"15","free_racks":"9","terminal_type":"7inch","bike_numbers":"24908,24606,27692,27122,96116","bike_types":{"4":5},"place_type":"0","rack_locks":"1"},{"uid":"2586024","lat":"52.236598","lng":"21.064774","name":"Mi\u0119dzynarodowa - Walecznych","spot":"1","number":"9686","bikes":"17","bike_racks":"15","free_racks":"0","terminal_type":"7inch","bike_numbers":"24750,24496,24012,27538,27474,27162,26773,26427,25776,25681,25619,25272,25176,96548,96476,96282,96155","bike_types":{"4":15,"51":1,"26":1},"place_type":"0","rack_locks":"1"},{"uid":"2586026","lat":"52.243020071904","lng":"21.102375984192","name":"Plac Szembeka","spot":"1","number":"9687","bikes":"20","bike_racks":"15","free_racks":"1","terminal_type":"7inch","bike_numbers":"24809,24700,28367,27615,27053,26830,26796,26709,26617,26505,26344,26061,25757,25522,25496,25427,25255,29103,28954,96337","bike_types":{"4":20},"place_type":"0","rack_locks":"1"},{"uid":"2586028","lat":"52.237559","lng":"21.120087","name":"P\u0119tla Goc\u0142awek","spot":"1","number":"9688","bikes":"11","bike_racks":"16","free_racks":"4","terminal_type":"7inch","bike_numbers":"28465,27709,27088,25824,25458,29364,28827,96543,96502,29267,29243","bike_types":{"4":11},"place_type":"0","rack_locks":"1"},{"uid":"2586030","lat":"52.2258359","lng":"21.0600907","name":"Brukselska - PROM","spot":"1","number":"9689","bikes":"13","bike_racks":"15","free_racks":"2","terminal_type":"7inch","bike_numbers":"24490,28116,27593,27533,27424,27253,27183,25863,25844,25524,25332,25119,29083","bike_types":{"51":1,"4":12},"place_type":"0","rack_locks":"1"},{"uid":"2586031","lat":"52.260205610017","lng":"21.046854257584","name":"al. Solidarno\u015bci - Szwedzka","spot":"1","number":"9690","bikes":"14","bike_racks":"18","free_racks":"3","terminal_type":"7inch","bike_numbers":"24975,27927,26640,26558,26527,26509,26354,25902,25753,25088,25052,29436,28859,96135","bike_types":{"4":14},"place_type":"0","rack_locks":"1"},{"uid":"2586032","lat":"52.230088","lng":"21.067948","name":"al. Stan\u00f3w Zjednoczonych - Mi\u0119dzynarodowa","spot":"1","number":"9691","bikes":"26","bike_racks":"26","free_racks":"0","terminal_type":"7inch","bike_numbers":"24665,28773,28766,28636,27815,27763,27747,27503,26181,26031,25885,25807,25499,25355,25300,25260,29119,28976,28974,96558,96518,96404,96269,96117,29217,29216","bike_types":{"4":26},"place_type":"0","rack_locks":"1"},{"uid":"2586034","lat":"52.23483","lng":"21.09975","name":"Ostrobramska - Zamieniecka","spot":"1","number":"9692","bikes":"13","bike_racks":"23","free_racks":"9","terminal_type":"7inch","bike_numbers":"24009,28582,27657,27422,27225,26906,26817,26720,26635,26292,26122,25956,96375","bike_types":{"26":1,"4":12},"place_type":"0","rack_locks":"1"},{"uid":"2586037","lat":"52.2251969","lng":"21.0712892","name":"Afryka\u0144ska - Egipska","spot":"1","number":"9693","bikes":"14","bike_racks":"16","free_racks":"5","terminal_type":"7inch","bike_numbers":"24649,27640,27382,26217,26148,26067,26052,25984,25946,25726,25639,28914,96566,29274","bike_types":{"4":14},"place_type":"0","rack_locks":"1"},{"uid":"2586039","lat":"52.22837","lng":"21.08581","name":"Abrahama - Kapelan\u00f3w AK","spot":"1","number":"9694","bikes":"12","bike_racks":"15","free_racks":"3","terminal_type":"7inch","bike_numbers":"28418,27988,27145,26866,26524,26414,26385,25971,25697,25217,96565,96332","bike_types":{"4":12},"place_type":"0","rack_locks":"1"},{"uid":"2586042","lat":"52.2296088","lng":"21.0945572","name":"Fieldorfa - Bukowskiego","spot":"1","number":"9695","bikes":"24","bike_racks":"20","free_racks":"2","terminal_type":"7inch","bike_numbers":"28819,28615,28532,28290,28144,28118,28094,27732,27589,26691,26446,25827,25748,25604,25210,29071,28838,96559,96480,96397,96288,96262,96198,96091","bike_types":{"4":24},"place_type":"0","rack_locks":"1"},{"uid":"2586044","lat":"52.22974","lng":"21.10624","name":"Rechniewskiego - Nowaka-Jeziora\u0144skiego","spot":"1","number":"9696","bikes":"22","bike_racks":"30","free_racks":"8","terminal_type":"7inch","bike_numbers":"28370,28332,28212,28032,27920,27849,27802,27464,27394,27367,26360,26355,25829,25722,25513,25438,25189,29038,28970,96450,96291,96108","bike_types":{"4":22},"place_type":"0","rack_locks":"1"},{"uid":"2586045","lat":"52.2223071","lng":"21.0907259","name":"Meissnera - Fieldorfa","spot":"1","number":"9697","bikes":"14","bike_racks":"15","free_racks":"1","terminal_type":"7inch","bike_numbers":"24972,24964,24884,24517,28380,28310,28106,27889,27164,27129,26291,25419,63613,96228","bike_types":{"4":14},"place_type":"0","rack_locks":"1"},{"uid":"2586268","lat":"52.23938046828","lng":"21.016716957092","name":"Krakowskie Przedmie\u015bcie - Traugutta 2","spot":"1","number":"94931","bikes":"0","bike_racks":"24","free_racks":"24","terminal_type":"7inch","place_type":"0","rack_locks":"1","bike_numbers":null,"bike_types":[]},{"uid":"2586270","lat":"52.241814568386","lng":"21.024039387703","name":"Lipowa - Dobra 2","spot":"1","number":"94961","bikes":"19","bike_racks":"19","free_racks":"1","terminal_type":"7inch","bike_numbers":"24663,28653,28426,27730,27584,27115,26852,26585,26563,26514,26023,25772,25056,29338,29114,29057,96297,96211,29177","bike_types":{"4":19},"place_type":"0","rack_locks":"1"},{"uid":"2586272","lat":"52.219916006513","lng":"21.011733412743","name":"Plac Politechniki 2","spot":"1","number":"95381","bikes":"0","bike_racks":"27","free_racks":"26","terminal_type":"7inch","place_type":"0","rack_locks":"1","bike_numbers":null,"bike_types":[]},