[{"region_info":{"lat":"52.2345","lng":"21.0024","zoom":"11","name":"VETURILO Poland","hotline":"+4819115","domain":"vp","language":"pl","email":"info@nextbike.pl","timezone":"Europe\/Warsaw","currency":"PLN","country_calling_code":"+48","system_operator_address":"Nextbike Polska S.A. ul. Przasnyska 6B, 01-756 Warszawa","country":"PL","country_name":"Poland","terms":"http:\/\/www.veturilo.waw.pl\/terms\/?v=201701","policy":"","website":"http:\/\/www.veturilo.waw.pl\/","show_free_racks":"1","booked_bikes":"0","set_point_bikes":"5283","available_bikes":"4120"},"places_summary":{"lngMin":20.8689688,"lngMax":21.120087,"latMin":52.117285,"latMax":52.3485329,"lngAvg":21.008117591667,"latAvg":52.230678041088},"places":[{"uid":"2585259","lat":"52.296298","lng":"20.9583575","name":"Dewajtis - UKSW","spot":"1","number":"9402","bikes":"14","bike_racks":"30","free_racks":"15","terminal_type":"7inch","bike_numbers":"24992,24799,24795,24699,28354,28065,27924,27086,26828,26242,26038,25306,28991,96329","bike_types":{"4":14},"place_type":"0","rack_locks":"1"},{"uid":"2585263","lat":"52.2909738","lng":"20.9295559","name":"Metro M\u0142ociny","spot":"1","number":"9403","bikes":"10","bike_racks":"30","free_racks":"17","terminal_type":"7inch","bike_numbers":"24966,24865,24720,24470,27671,27427,25734,25102,25046,96453","bike_types":{"4":9,"51":1},"place_type":"0","rack_locks":"1"},{"uid":"2585265","lat":"52.2901732","lng":"20.9503698","name":"Marymoncka - Dewajtis","spot":"1","number":"9404","bikes":"7","bike_racks":"30","free_racks":"23","terminal_type":"7inch","bike_numbers":"28737,27805,26547,26150,25963,25317,96374","bike_types":{"4":7},"place_type":"0","rack_locks":"1"},{"uid":"2585267","lat":"52.285914","lng":"20.940561","name":"Metro Wawrzyszew","spot":"1","number":"9405","bikes":"4","bike_racks":"20","free_racks":"15","terminal_type":"7inch","bike_numbers":"27656,25897,96026,96391","bike_types":{"4":4},"place_type":"0","rack_locks":"1"},{"uid":"2585269","lat":"52.2336142","lng":"21.0146353","name":"G\u00f3rskiego - Szpitalna","spot":"1","number":"9406","bikes":"3","bike_racks":"16","free_racks":"13","terminal_type":"7inch","bike_numbers":"28708,26913,26524","bike_types":{"4":3},"place_type":"0","rack_locks":"1"},{"uid":"2585271","lat":"52.2816265","lng":"20.9498871","name":"Metro Stare Bielany","spot":"1","number":"9407","bikes":"10","bike_racks":"30","free_racks":"18","terminal_type":"7inch","bike_numbers":"24675,24635,28577,28096,27049,26862,26513,26159,26044,25740","bike_types":{"4":10},"place_type":"0","rack_locks":"1"},{"uid":"2585272","lat":"52.2361217","lng":"21.0219096","name":"Ordynacka - Uniwersytet Muzyczny","spot":"1","number":"9408","bikes":"16","bike_racks":"20","free_racks":"4","terminal_type":"7inch","bike_numbers":"28641,28524,28150,27813,27795,27646,27271,27100,27055,26646,26128,25421,25308,25010,29063,96186","bike_types":{"4":16},"place_type":"0","rack_locks":"1"},{"uid":"2585273","lat":"52.2768774","lng":"20.9481302","name":"Bielany-Ratusz","spot":"1","number":"9409","bikes":"9","bike_racks":"28","free_racks":"14","terminal_type":"7inch","bike_numbers":"28721,27348,25841,29428,28776,96570,96372,29197,29253","bike_types":{"4":9},"place_type":"0","rack_locks":"1"},{"uid":"2585275","lat":"52.2761569","lng":"20.9616673","name":"Metro S\u0142odowiec","spot":"1","number":"9410","bikes":"6","bike_racks":"30","free_racks":"24","terminal_type":"7inch","bike_numbers":"24588,26879,26338,29084,96191,96172","bike_types":{"4":6},"place_type":"0","rack_locks":"1"},{"uid":"2585278","lat":"52.2777751","lng":"20.9856999","name":"Potocka - OSiR \u017boliborz","spot":"1","number":"9411","bikes":"11","bike_racks":"15","free_racks":"4","terminal_type":"7inch","bike_numbers":"24870,28145,27996,27593,27231,26842,26427,26278,25220,96131,29229","bike_types":{"4":11},"place_type":"0","rack_locks":"1"},{"uid":"2585280","lat":"52.273527782989","lng":"20.994186401367","name":"Gwia\u017adzista - Promyka","spot":"1","number":"9412","bikes":"10","bike_racks":"16","free_racks":"6","terminal_type":"7inch","bike_numbers":"24020,28579,28398,27289,25668,25532,25077,28851,96484,96417","bike_types":{"26":1,"4":9},"place_type":"0","rack_locks":"1"},{"uid":"2585281","lat":"52.270941","lng":"20.9326269","name":"al. Reymonta - Conrada","spot":"1","number":"9413","bikes":"13","bike_racks":"30","free_racks":"15","terminal_type":"7inch","bike_numbers":"24510,24453,28406,28138,27638,27273,27132,26774,26447,26301,26095,25624,96111","bike_types":{"4":12,"51":1},"place_type":"0","rack_locks":"1"},{"uid":"2585283","lat":"52.2706441","lng":"20.9504181","name":"Broniewskiego - Perzy\u0144skiego","spot":"1","number":"9414","bikes":"12","bike_racks":"16","free_racks":"3","terminal_type":"7inch","bike_numbers":"27901,27716,27683,27518,26847,26367,25869,25053,25625,96047,96353,29208","bike_types":{"4":12},"place_type":"0","rack_locks":"1"},{"uid":"2585284","lat":"52.2714203","lng":"20.9727099","name":"Metro Marymont","spot":"1","number":"9415","bikes":"19","bike_racks":"30","free_racks":"11","terminal_type":"7inch","bike_numbers":"24608,24475,28338,28282,28210,28031,27573,27523,27198,26901,26622,26459,26403,26271,25344,25337,25264,25026,29125","bike_types":{"4":17,"51":1,"0":1},"place_type":"0","rack_locks":"1"},{"uid":"2585285","lat":"52.2694081","lng":"20.9833664","name":"Metro Plac Wilsona","spot":"1","number":"9416","bikes":"8","bike_racks":"21","free_racks":"12","terminal_type":"7inch","bike_numbers":"27546,27256,26533,25983,29042,96393,29181,96576","bike_types":{"4":8},"place_type":"0","rack_locks":"1"},{"uid":"2585286","lat":"52.2668623","lng":"20.9637032","name":"Broniewskiego - W\u0142o\u015bcia\u0144ska","spot":"1","number":"9417","bikes":"18","bike_racks":"19","free_racks":"0","terminal_type":"7inch","bike_numbers":"28563,27761,27237,27179,26983,26921,26654,26531,26326,25789,25775,25502,25145,25034,29110,29051,28816,96473","bike_types":{"4":18},"place_type":"0","rack_locks":"1"},{"uid":"2585288","lat":"52.2643984","lng":"20.9723179","name":"Broniewskiego - Krasi\u0144skiego","spot":"1","number":"9418","bikes":"6","bike_racks":"16","free_racks":"10","maintenance":"1","terminal_type":"7inch","bike_numbers":"27989,27345,27116,26755,26673,28844","bike_types":{"4":6},"place_type":"0","rack_locks":"1"},{"uid":"2585289","lat":"52.267875","lng":"21.0020667","name":"Wybrze\u017ce Gdy\u0144skie - KS Sp\u00f3jnia","spot":"1","number":"9419","bikes":"9","bike_racks":"15","free_racks":"5","terminal_type":"7inch","bike_numbers":"24483,28716,28687,28619,26618,26607,25197,25044,96348","bike_types":{"51":1,"4":8},"place_type":"0","rack_locks":"1"},{"uid":"2585291","lat":"52.2624054","lng":"20.9802551","name":"Plac Grunwaldzki","spot":"1","number":"9420","bikes":"5","bike_racks":"30","free_racks":"23","terminal_type":"7inch","bike_numbers":"28452,27743,27450,25989,25381","bike_types":{"4":5},"place_type":"0","rack_locks":"1"},{"uid":"2585296","lat":"52.2612575","lng":"20.9863191","name":"Zaj\u0105czka - Bitwy Pod Rokitn\u0105","spot":"1","number":"9421","bikes":"8","bike_racks":"15","free_racks":"7","terminal_type":"7inch","bike_numbers":"25004,28302,27462,27404,26807,26598,26136,29088","bike_types":{"4":8},"place_type":"0","rack_locks":"1"},{"uid":"2585297","lat":"52.2645018","lng":"20.9895998","name":"Plac Inwalid\u00f3w","spot":"1","number":"9422","bikes":"5","bike_racks":"15","free_racks":"10","terminal_type":"7inch","bike_numbers":"24913,27961,27074,26933,25214","bike_types":{"4":5},"place_type":"0","rack_locks":"1"},{"uid":"2585299","lat":"52.258245356688","lng":"20.898613929749","name":"P\u0119tla Stare Bemowo","spot":"1","number":"9423","bikes":"9","bike_racks":"21","free_racks":"12","terminal_type":"7inch","bike_numbers":"24540,24458,25957,25201,29343,28924,96311,96249,96109","bike_types":{"4":8,"51":1},"place_type":"0","rack_locks":"1"},{"uid":"2585301","lat":"52.260895125763","lng":"20.923923254013","name":"P\u0119tla Nowe Bemowo","spot":"1","number":"9424","bikes":"18","bike_racks":"25","free_racks":"7","terminal_type":"7inch","bike_numbers":"24971,24752,24487,28413,27891,27752,27125,26536,26475,26294,25872,25436,25428,25259,29454,96379,96268,96183","bike_types":{"4":17,"51":1},"place_type":"0","rack_locks":"1"},{"uid":"2585304","lat":"52.2575903","lng":"20.9323374","name":"Obro\u0144c\u00f3w Tobruku - Pieni\u0105\u017cka","spot":"1","number":"9425","bikes":"14","bike_racks":"22","free_racks":"8","terminal_type":"7inch","bike_numbers":"24930,24478,28633,28604,28514,28285,27950,27723,26968,26395,25036,28798,96574,29211","bike_types":{"4":13,"51":1},"place_type":"0","rack_locks":"1"},{"uid":"2585305","lat":"52.2593225","lng":"20.9605511","name":"Pow\u0105zkowska - Krasi\u0144skiego","spot":"1","number":"9426","bikes":"14","bike_racks":"23","free_racks":"9","terminal_type":"7inch","bike_numbers":"24551,28699,27639,27323,26798,26636,26304,25987,25243,29079,29660,28863,96362,29232","bike_types":{"4":14},"place_type":"0","rack_locks":"1"},{"uid":"2585306","lat":"52.2563145","lng":"20.9682307","name":"Pow\u0105zkowska - Plac Niemena","spot":"1","number":"9427","bikes":"0","bike_racks":"16","free_racks":"16","terminal_type":"7inch","place_type":"0","rack_locks":"1","bike_numbers":null,"bike_types":[]},{"uid":"2585307","lat":"52.258524460024","lng":"20.970931649208","name":"Przasnyska - Rydygiera","spot":"1","number":"9428","bikes":"13","bike_racks":"15","free_racks":"2","terminal_type":"7inch","bike_numbers":"24881,24567,24519,28717,28216,28211,27065,26601,26129,25272,96418,96221,29252","bike_types":{"4":13},"place_type":"0","rack_locks":"1"},{"uid":"2585308","lat":"52.253594","lng":"20.9798744","name":"Pow\u0105zkowska - Burakowska","spot":"1","number":"9429","bikes":"1","bike_racks":"20","free_racks":"19","terminal_type":"7inch","bike_numbers":"26421","bike_types":{"4":1},"place_type":"0","rack_locks":"1"},{"uid":"2585311","lat":"52.2576018","lng":"20.9944975","name":"Metro Dworzec Gda\u0144ski","spot":"1","number":"9430","bikes":"13","bike_racks":"30","free_racks":"15","terminal_type":"7inch","bike_numbers":"24827,24508,28611,28362,27372,27014,26390,29657,28890,28975,96509,96396,96201","bike_types":{"4":13},"place_type":"0","rack_locks":"1"},{"uid":"2585315","lat":"52.2465952","lng":"20.9429216","name":"Obozowa - Cio\u0142ka","spot":"1","number":"9432","bikes":"0","bike_racks":"13","free_racks":"13","terminal_type":"7inch","place_type":"0","rack_locks":"1","bike_numbers":null,"bike_types":[]},{"uid":"2585317","lat":"52.227621983552","lng":"20.956758856773","name":"al. Prymasa Tysi\u0105clecia - Kasprzaka","spot":"1","number":"9433","bikes":"10","bike_racks":"23","free_racks":"12","terminal_type":"7inch","bike_numbers":"28904,28654,27447,27104,26627,25939,25446,29339,96034,29169","bike_types":{"4":10},"place_type":"0","rack_locks":"1"},{"uid":"2585319","lat":"52.246037","lng":"20.962463","name":"Obozowa - Radziwie","spot":"1","number":"9434","bikes":"12","bike_racks":"13","free_racks":"1","terminal_type":"7inch","bike_numbers":"24719,28897,27405,27252,26801,26517,25875,25547,25397,28832,96113,96097","bike_types":{"4":12},"place_type":"0","rack_locks":"1"},{"uid":"2585321","lat":"52.2514708","lng":"20.9857053","name":"al. Jana Paw\u0142a II - Stawki","spot":"1","number":"9435","bikes":"6","bike_racks":"23","free_racks":"18","terminal_type":"7inch","bike_numbers":"27565,27217,27182,96420,29188,24051","bike_types":{"4":5,"26":1},"place_type":"0","rack_locks":"1"},{"uid":"2585323","lat":"52.2535305","lng":"20.9924922","name":"Stawki - Dubois","spot":"1","number":"9436","bikes":"1","bike_racks":"13","free_racks":"12","terminal_type":"7inch","bike_numbers":"27696","bike_types":{"4":1},"place_type":"0","rack_locks":"1"},{"uid":"2585326","lat":"52.2541702","lng":"20.9980649","name":"Andersa - Muranowska","spot":"1","number":"9437","bikes":"12","bike_racks":"30","free_racks":"18","terminal_type":"7inch","bike_numbers":"24607,24538,24471,28279,26926,26357,26319,26313,25921,25884,25698,29066","bike_types":{"4":11,"51":1},"place_type":"0","rack_locks":"1"},{"uid":"2585327","lat":"52.255877","lng":"21.0099819","name":"Sanguszki - Wybrze\u017ce Gda\u0144skie","spot":"1","number":"9438","bikes":"83","bike_racks":"28","free_racks":"0","terminal_type":"7inch","bike_numbers":"24961,24954,24917,24777,24753,24751,24662,24612,24586,24585,24546,24500,24482,25002,28739,28638,28602,28503,28475,28122,28081,27923,27921,27888,27861,27834,27828,27700,27698,27674,27609,27512,27482,27451,27445,27429,27387,27341,27274,27260,27239,27187,27173,27094,26925,26686,26649,26498,26490,26486,26461,26386,26226,26222,26110,26053,26047,25901,25825,25782,25747,25580,25484,25448,25383,25325,25321,25060,25047,25038,28938,28933,29443,29652,29127,96024,96467,96373,96302,96219,96214,29186,29275","bike_types":{"4":80,"51":2,"0":1},"place_type":"0","rack_locks":"1"},{"uid":"2585330","lat":"52.24418","lng":"20.97794","name":"Okopowa - Anielewicza","spot":"1","number":"9440","bikes":"4","bike_racks":"20","free_racks":"15","terminal_type":"7inch","bike_numbers":"24779,28370,28075,26740","bike_types":{"4":4},"place_type":"0","rack_locks":"1"},{"uid":"2585333","lat":"52.2486","lng":"20.98352","name":"Smocza - Mi\u0142a","spot":"1","number":"9441","bikes":"3","bike_racks":"15","free_racks":"12","terminal_type":"7inch","bike_numbers":"27624,96540,96300","bike_types":{"4":3},"place_type":"0","rack_locks":"1"},{"uid":"2585334","lat":"52.24616","lng":"20.98538","name":"Smocza - Anielewicza","spot":"1","number":"9442","bikes":"7","bike_racks":"17","free_racks":"9","terminal_type":"7inch","bike_numbers":"24944,28493,28147,27091,26308,63630,96422","bike_types":{"4":7},"place_type":"0","rack_locks":"1"},{"uid":"2585335","lat":"52.247226","lng":"20.9893155","name":"al. Jana Paw\u0142a II - Anielewicza","spot":"1","number":"9443","bikes":"1","bike_racks":"22","free_racks":"21","terminal_type":"7inch","bike_numbers":"26266","bike_types":{"4":1},"place_type":"0","rack_locks":"1"},{"uid":"2585337","lat":"52.249052","lng":"20.9948923","name":"Anielewicza - Zamenhofa","spot":"1","number":"9444","bikes":"8","bike_racks":"15","free_racks":"5","terminal_type":"7inch","bike_numbers":"27745,27661,26751,26538,25785,25080,29056,29233","bike_types":{"4":8},"place_type":"0","rack_locks":"1"},{"uid":"2585338","lat":"52.2492196","lng":"20.9971878","name":"Anielewicza - Andersa","spot":"1","number":"9445","bikes":"0","bike_racks":"20","free_racks":"19","terminal_type":"7inch","place_type":"0","rack_locks":"1","bike_numbers":null,"bike_types":[]},{"uid":"2585340","lat":"52.251549","lng":"21.002749","name":"Bonifraterska - Franciszka\u0144ska","spot":"1","number":"9446","bikes":"8","bike_racks":"18","free_racks":"9","terminal_type":"7inch","bike_numbers":"24804,28033,27967,27765,27705,26034,25431,25148","bike_types":{"4":8},"place_type":"0","rack_locks":"1"},{"uid":"2585342","lat":"52.2541119","lng":"21.0093342","name":"Ko\u015bcielna - Piesza","spot":"1","number":"9448","bikes":"19","bike_racks":"26","free_racks":"6","terminal_type":"7inch","bike_numbers":"24716,24573,27952,27926,27799,27724,27002,26777,26504,26502,26005,25920,25236,29034,28962,96001,96328,29187,29205","bike_types":{"4":19},"place_type":"0","rack_locks":"1"},{"uid":"2585344","lat":"52.2392622","lng":"20.8987641","name":"P\u0119tla Os. G\u00f3rczewska","spot":"1","number":"9449","bikes":"10","bike_racks":"15","free_racks":"0","terminal_type":"7inch","bike_numbers":"28640,28042,27823,27590,27489,26568,25863,25507,25393,96427","bike_types":{"4":10},"place_type":"0","rack_locks":"1"},{"uid":"2585345","lat":"52.2389287","lng":"20.9139535","name":"Bemowo-Ratusz","spot":"1","number":"9450","bikes":"19","bike_racks":"20","free_racks":"0","terminal_type":"7inch","bike_numbers":"24830,24485,28760,28060,27865,27324,27148,26942,26865,26532,25665,25661,25501,25420,25135,28777,28911,96055,96101","bike_types":{"4":18,"51":1},"place_type":"0","rack_locks":"1"},{"uid":"2585346","lat":"52.2387861","lng":"20.9424946","name":"Okocimska - Olbrachta","spot":"1","number":"9451","bikes":"6","bike_racks":"18","free_racks":"9","terminal_type":"7inch","bike_numbers":"24849,27797,27268,25183,96223,96079","bike_types":{"4":6},"place_type":"0","rack_locks":"1"},{"uid":"2585349","lat":"52.2506241","lng":"21.0533611","name":"Dworzec Wschodni - Lubelska","spot":"1","number":"9452","bikes":"9","bike_racks":"15","free_racks":"6","terminal_type":"7inch","bike_numbers":"24687,24577,28515,27353,25524,29032,96376,96295,29217","bike_types":{"4":9},"place_type":"0","rack_locks":"1"},{"uid":"2585351","lat":"52.2369249","lng":"20.9723559","name":"Leszno - M\u0142ynarska","spot":"1","number":"9453","bikes":"8","bike_racks":"30","free_racks":"21","terminal_type":"7inch","bike_numbers":"24818,27814,27245,26975,26721,25873,25339,25096","bike_types":{"4":8},"place_type":"0","rack_locks":"1"},{"uid":"2585352","lat":"52.2430451","lng":"20.9803864","name":"Dzielna - Bellottiego","spot":"1","number":"9454","bikes":"1","bike_racks":"13","free_racks":"13","terminal_type":"7inch","bike_numbers":"24740","bike_types":{"4":1},"place_type":"0","rack_locks":"1"},{"uid":"2585353","lat":"52.24108","lng":"20.98316","name":"Wolno\u015b\u0107 - Bellottiego","spot":"1","number":"9455","bikes":"2","bike_racks":"16","free_racks":"15","terminal_type":"7inch","bike_numbers":"28557,28532","bike_types":{"4":2},"place_type":"0","rack_locks":"1"},{"uid":"2585354","lat":"52.2435448","lng":"20.9873507","name":"Smocza - Nowolipki","spot":"1","number":"9456","bikes":"17","bike_racks":"16","free_racks":"0","terminal_type":"7inch","bike_numbers":"28685,28499,27711,27667,27537,26932,26642,26154,26045,25271,25241,29348,29367,28852,28986,96555,96334","bike_types":{"4":17},"place_type":"0","rack_locks":"1"},{"uid":"2585356","lat":"52.2445767","lng":"20.99177","name":"al. Jana Paw\u0142a II - Nowolipki","spot":"1","number":"9457","bikes":"7","bike_racks":"16","free_racks":"8","terminal_type":"7inch","bike_numbers":"24958,24931,24921,27436,29434,28846,96492","bike_types":{"4":7},"place_type":"0","rack_locks":"1"},{"uid":"2585358","lat":"52.22868","lng":"20.91509","name":"Powsta\u0144c\u00f3w \u015al\u0105skich - Cz\u0142uchowska","spot":"1","number":"9458","bikes":"0","bike_racks":"16","free_racks":"15","terminal_type":"7inch","place_type":"0","rack_locks":"1","bike_numbers":null,"bike_types":[]},{"uid":"2585360","lat":"52.2342032","lng":"20.934689","name":"Jana Olbrachta - Antka Rozpylacza","spot":"1","number":"9459","bikes":"11","bike_racks":"13","free_racks":"4","terminal_type":"7inch","bike_numbers":"24755,28715,28706,27317,27081,26439,25981,25253,25199,25191,28948","bike_types":{"4":11},"place_type":"0","rack_locks":"1"},{"uid":"2585364","lat":"52.2401623","lng":"20.9877277","name":"Wola-Ratusz","spot":"1","number":"9460","bikes":"8","bike_racks":"15","free_racks":"7","terminal_type":"7inch","bike_numbers":"28559,27881,27000,26917,25744,25313,25305,29031","bike_types":{"4":8},"place_type":"0","rack_locks":"1"},{"uid":"2585368","lat":"52.2445326","lng":"20.99998","name":"Plac Bankowy - Kino Muran\u00f3w","spot":"1","number":"9462","bikes":"5","bike_racks":"17","free_racks":"12","terminal_type":"7inch","bike_numbers":"27801,27328,27304,26072,96377","bike_types":{"4":5},"place_type":"0","rack_locks":"1"},{"uid":"2585369","lat":"52.2449465","lng":"21.0012943","name":"Andersa - D\u0142uga","spot":"1","number":"9463","bikes":"18","bike_racks":"30","free_racks":"12","terminal_type":"7inch","bike_numbers":"24867,24802,24714,24494,27457,27070,26853,26022,25770,25593,25405,25298,29115,63621,96504,96407,96207,96126","bike_types":{"4":17,"51":1},"place_type":"0","rack_locks":"1"},{"uid":"2585370","lat":"52.2442666","lng":"21.0015893","name":"Marsza\u0142kowska - al. Solidarno\u015bci","spot":"1","number":"9464","bikes":"3","bike_racks":"30","free_racks":"26","terminal_type":"7inch","bike_numbers":"28528,25690,96547","bike_types":{"4":3},"place_type":"0","rack_locks":"1"},{"uid":"2585371","lat":"52.2431975","lng":"21.0016603","name":"Plac Bankowy - Ratusz","spot":"1","number":"9465","bikes":"3","bike_racks":"30","free_racks":"26","terminal_type":"7inch","bike_numbers":"24461,25209,25630","bike_types":{"51":1,"4":2},"place_type":"0","rack_locks":"1"},{"uid":"2585373","lat":"52.2435719","lng":"21.0066801","name":"Senatorska - Biela\u0144ska","spot":"1","number":"9466","bikes":"8","bike_racks":"17","free_racks":"9","terminal_type":"7inch","bike_numbers":"24615,28634,28414,28207,27911,26934,25773,63608","bike_types":{"4":8},"place_type":"0","rack_locks":"1"},{"uid":"2585377","lat":"52.246314509834","lng":"21.0113042593","name":"Miodowa","spot":"1","number":"9467","bikes":"31","bike_racks":"24","free_racks":"0","terminal_type":"7inch","bike_numbers":"24775,28761,28663,28487,28433,28427,28366,27883,27840,27707,27509,27396,27171,26736,26624,26503,26394,26079,25671,25588,25582,25504,25237,25098,29116,29044,28916,29142,96130,29265,29227","bike_types":{"4":30,"0":1},"place_type":"0","rack_locks":"1"},{"uid":"2585378","lat":"52.2435965","lng":"21.0140803","name":"Krakowskie Przedmie\u015bcie - Tr\u0119backa","spot":"1","number":"9468","bikes":"25","bike_racks":"14","free_racks":"0","terminal_type":"7inch","bike_numbers":"24856,24783,24541,28690,28525,28473,28259,28016,27976,27710,27704,27686,27229,27156,27008,26959,26664,26471,26124,25669,25472,25353,29021,96114,29189","bike_types":{"4":25},"place_type":"0","rack_locks":"1"},{"uid":"2585379","lat":"52.2465625","lng":"21.0174345","name":"Mariensztat","spot":"1","number":"9469","bikes":"22","bike_racks":"15","free_racks":"0","terminal_type":"7inch","bike_numbers":"24036,24010,28389,27554,27540,27499,27435,27197,26247,26197,26140,26099,25850,25833,25584,25546,25469,29352,29070,96272,96146,96080","bike_types":{"54":1,"26":1,"4":20},"place_type":"0","rack_locks":"1"},{"uid":"2585381","lat":"52.224934","lng":"20.945489","name":"Jana Kazimierza - Giz\u00f3w","spot":"1","number":"9471","bikes":"1","bike_racks":"13","free_racks":"9","terminal_type":"7inch","bike_numbers":"60831","bike_types":{"4":1},"place_type":"0","rack_locks":"1"},{"uid":"2585385","lat":"52.23016","lng":"20.951558","name":"Wolska - Elekcyjna","spot":"1","number":"9472","bikes":"4","bike_racks":"20","free_racks":"18","terminal_type":"7inch","bike_numbers":"24765,27152,26494,28831","bike_types":{"4":4},"place_type":"0","rack_locks":"1"},{"uid":"2585387","lat":"52.237662392829","lng":"20.955492854118","name":"al. Prymasa Tysi\u0105clecia - G\u00f3rczewska","spot":"1","number":"9473","bikes":"4","bike_racks":"20","free_racks":"16","terminal_type":"7inch","bike_numbers":"27513,27062,29239,96577","bike_types":{"4":4},"place_type":"0","rack_locks":"1"},{"uid":"2585389","lat":"52.2333374","lng":"20.9652776","name":"Wolska - P\u0142ocka","spot":"1","number":"9474","bikes":"6","bike_racks":"15","free_racks":"9","terminal_type":"7inch","bike_numbers":"27654,26850,26360,28918,96018,96486","bike_types":{"4":6},"place_type":"0","rack_locks":"1"},{"uid":"2585391","lat":"52.228522296173","lng":"20.969638824463","name":"Kasprzaka - Skierniewicka","spot":"1","number":"9475","bikes":"4","bike_racks":"21","free_racks":"15","terminal_type":"7inch","bike_numbers":"27066,25956,28913,96349","bike_types":{"4":4},"place_type":"0","rack_locks":"1"},{"uid":"2585394","lat":"52.22898","lng":"20.97843","name":"Kasprzaka - Karolkowa","spot":"1","number":"9476","bikes":"3","bike_racks":"15","free_racks":"11","terminal_type":"7inch","bike_numbers":"24901,28329,26012","bike_types":{"4":3},"place_type":"0","rack_locks":"1"},{"uid":"2585396","lat":"52.2328752","lng":"20.9805411","name":"Muzeum Powstania Warszawskiego","spot":"1","number":"9477","bikes":"1","bike_racks":"10","free_racks":"6","terminal_type":"7inch","bike_numbers":"25474","bike_types":{"4":1},"place_type":"0","rack_locks":"1"},{"uid":"2585398","lat":"52.22983","lng":"20.983123","name":"Metro Rondo Daszy\u0144skiego","spot":"1","number":"9478","bikes":"3","bike_racks":"26","free_racks":"24","terminal_type":"7inch","bike_numbers":"26073,28828,29257","bike_types":{"4":3},"place_type":"0","rack_locks":"1"},{"uid":"2585400","lat":"52.23145","lng":"20.98869","name":"Prosta - Wronia","spot":"1","number":"9479","bikes":"5","bike_racks":"15","free_racks":"10","terminal_type":"7inch","bike_numbers":"28003,26987,26488,25228,96041","bike_types":{"4":5},"place_type":"0","rack_locks":"1"},{"uid":"2585401","lat":"52.2373141","lng":"20.9888488","name":"\u017belazna - Ch\u0142odna","spot":"1","number":"9480","bikes":"11","bike_racks":"15","free_racks":"3","terminal_type":"7inch","bike_numbers":"24601,28411,27729,27047,26994,25821,25663,28949,96571,96093,24052","bike_types":{"4":10,"26":1},"place_type":"0","rack_locks":"1"},{"uid":"2585402","lat":"52.2344946","lng":"20.9905117","name":"\u017belazna - Grzybowska","spot":"1","number":"9481","bikes":"6","bike_racks":"20","free_racks":"12","terminal_type":"7inch","bike_numbers":"26821,26174,26144,25311,63610,96233","bike_types":{"4":6},"place_type":"0","rack_locks":"1"},{"uid":"2585405","lat":"52.238666","lng":"20.9957314","name":"al. Jana Paw\u0142a II - Plac Mirowski","spot":"1","number":"9482","bikes":"16","bike_racks":"16","free_racks":"0","terminal_type":"7inch","bike_numbers":"28548,28423,28221,27406,27192,26743,26590,26078,25867,25679,25302,25174,25027,96230,29183,29172","bike_types":{"4":16},"place_type":"0","rack_locks":"1"},{"uid":"2585406","lat":"52.2357151","lng":"20.9966071","name":"al. Jana Paw\u0142a II - Grzybowska","spot":"1","number":"9483","bikes":"7","bike_racks":"23","free_racks":"16","terminal_type":"7inch","bike_numbers":"28522,28089,26995,26274,29010,96527,96149","bike_types":{"4":7},"place_type":"0","rack_locks":"1"},{"uid":"2585410","lat":"52.23958","lng":"21.00027","name":"Ptasia - Zimna","spot":"1","number":"9485","bikes":"3","bike_racks":"16","free_racks":"14","terminal_type":"7inch","bike_numbers":"28196,29421,96145","bike_types":{"4":3},"place_type":"0","rack_locks":"1"},{"uid":"2585412","lat":"52.2336314","lng":"21.0028795","name":"Emilii Plater - \u015awi\u0119tokrzyska","spot":"1","number":"9486","bikes":"19","bike_racks":"26","free_racks":"5","terminal_type":"7inch","bike_numbers":"24683,24666,28726,28359,26920,26744,26510,26302,26085,25974,25847,25779,25676,25345,25193,25188,25097,29387,96406","bike_types":{"4":19},"place_type":"0","rack_locks":"1"},{"uid":"2585413","lat":"52.2358704","lng":"21.0037806","name":"Plac Grzybowski","spot":"1","number":"9487","bikes":"19","bike_racks":"26","free_racks":"7","terminal_type":"7inch","bike_numbers":"24597,24506,24466,25009,28719,27964,27370,27180,27038,26961,26861,26422,26325,25913,25839,25375,96278,96112,29155","bike_types":{"4":18,"51":1},"place_type":"0","rack_locks":"1"},{"uid":"2585416","lat":"52.2384853","lng":"21.0067552","name":"Marsza\u0142kowska - Kr\u00f3lewska","spot":"1","number":"9488","bikes":"13","bike_racks":"19","free_racks":"7","terminal_type":"7inch","bike_numbers":"28351,27787,27279,27175,27102,26854,26704,26695,26652,26336,26055,29131,29251","bike_types":{"4":12,"0":1},"place_type":"0","rack_locks":"1"},{"uid":"2585417","lat":"52.2364206","lng":"21.0072407","name":"Marsza\u0142kowska - Zielna","spot":"1","number":"9489","bikes":"7","bike_racks":"30","free_racks":"23","terminal_type":"7inch","bike_numbers":"24927,24513,27955,27302,26970,26476,96475","bike_types":{"4":7},"place_type":"0","rack_locks":"1"},{"uid":"2585420","lat":"52.2397008","lng":"21.0119292","name":"Plac Ma\u0142achowskiego","spot":"1","number":"9491","bikes":"12","bike_racks":"16","free_racks":"3","terminal_type":"7inch","bike_numbers":"24842,24792,24715,28873,28453,27572,26289,25945,25023,96035,96290,29173","bike_types":{"4":12},"place_type":"0","rack_locks":"1"},{"uid":"2585422","lat":"52.2359114","lng":"21.0135654","name":"Plac Powsta\u0144c\u00f3w Warszawy","spot":"1","number":"9492","bikes":"5","bike_racks":"20","free_racks":"15","terminal_type":"7inch","bike_numbers":"28146,26379,25837,25822,25804","bike_types":{"4":5},"place_type":"0","rack_locks":"1"},{"uid":"2585423","lat":"52.2393559","lng":"21.016603","name":"Krakowskie Przedmie\u015bcie - Traugutta","spot":"1","number":"9493","bikes":"10","bike_racks":"24","free_racks":"15","terminal_type":"7inch","bike_numbers":"24998,24943,24848,24672,28408,27679,26287,25894,29015,28936","bike_types":{"4":10},"place_type":"0","rack_locks":"1"},{"uid":"2585429","lat":"52.238298","lng":"21.0184014","name":"Obo\u017ana - Kopernika","spot":"1","number":"9495","bikes":"4","bike_racks":"22","free_racks":"18","terminal_type":"7inch","bike_numbers":"28156,27807,27035,25051","bike_types":{"4":4},"place_type":"0","rack_locks":"1"},{"uid":"2585430","lat":"52.24190654256","lng":"21.024259328842","name":"Lipowa - Dobra","spot":"1","number":"9496","bikes":"42","bike_racks":"19","free_racks":"0","terminal_type":"7inch","bike_numbers":"24857,24523,28903,28729,28304,28258,28194,28192,27929,27597,27581,27511,27465,27408,27244,27213,26830,26715,26580,26423,26117,25967,25942,25721,25707,25659,25478,25473,25372,25342,25206,25155,25073,25031,28959,96058,63602,96464,96384,96200,96110,96082","bike_types":{"4":42},"place_type":"0","rack_locks":"1"},{"uid":"2585431","lat":"52.2413087","lng":"21.0281727","name":"Centrum Nauki Kopernik","spot":"1","number":"9497","bikes":"73","bike_racks":"30","free_racks":"0","terminal_type":"7inch","bike_numbers":"24967,24932,24754,24671,24663,24571,24527,24514,28724,28495,28385,28365,28352,28325,28297,28099,28021,28019,27988,27980,27811,27772,27740,27670,27617,27496,27440,27112,26885,26749,26339,26225,26200,26040,25950,25658,25596,25543,25529,25510,25487,25333,25326,25297,25279,25251,25239,25184,25147,25120,25093,60830,29449,29129,28808,28847,28978,28993,24398,96013,96002,96489,96487,96415,96313,96294,96255,96252,96236,96181,96122,96103,96081","bike_types":{"4":71,"0":1,"35":1},"place_type":"0","rack_locks":"1"},{"uid":"2585432","lat":"52.2264464","lng":"20.9837164","name":"Kolejowa","spot":"1","number":"9498","bikes":"14","bike_racks":"16","free_racks":"3","terminal_type":"7inch","bike_numbers":"24895,24883,24659,28412,28391,28333,27941,27824,27774,26829,26643,25132,28814,96276","bike_types":{"4":14},"place_type":"0","rack_locks":"1"},{"uid":"2585433","lat":"52.22983","lng":"20.993996","name":"\u017belazna - Sienna","spot":"1","number":"9499","bikes":"5","bike_racks":"24","free_racks":"19","terminal_type":"7inch","bike_numbers":"24678,28587,27157,96529,96282","bike_types":{"4":5},"place_type":"0","rack_locks":"1"},{"uid":"2585435","lat":"52.230201297582","lng":"20.999550819397","name":"al. Jana Paw\u0142a II - Z\u0142ota","spot":"1","number":"9500","bikes":"7","bike_racks":"16","free_racks":"9","terminal_type":"7inch","bike_numbers":"24793,27503,27174,25362,25172,96564,29152","bike_types":{"4":7},"place_type":"0","rack_locks":"1"},{"uid":"2585438","lat":"52.2309778","lng":"21.0036755","name":"Emilii Plater - Z\u0142ota","spot":"1","number":"9501","bikes":"14","bike_racks":"30","free_racks":"19","terminal_type":"7inch","bike_numbers":"28627,27652,27140,26873,26518,26500,26497,26162,25576,25481,29113,29140,96387,96102","bike_types":{"4":13,"0":1},"place_type":"0","rack_locks":"1"},{"uid":"2585440","lat":"52.232816601853","lng":"21.006980538368","name":"Pa\u0142ac Kultury i Nauki","spot":"1","number":"9502","bikes":"10","bike_racks":"17","free_racks":"7","terminal_type":"7inch","bike_numbers":"27809,27783,27715,27099,27061,26425,26157,25533,96357,96217","bike_types":{"4":10},"place_type":"0","rack_locks":"1"},{"uid":"2585442","lat":"52.232934","lng":"21.0101791","name":"Marsza\u0142kowska - Z\u0142ota","spot":"1","number":"9503","bikes":"8","bike_racks":"22","free_racks":"8","terminal_type":"7inch","bike_numbers":"28449,27973,26895,25555,29089,28973,96515,96132","bike_types":{"4":8},"place_type":"0","rack_locks":"1"},{"uid":"2585445","lat":"52.231987","lng":"21.016092","name":"Bracka - Krucza","spot":"1","number":"9504","bikes":"8","bike_racks":"20","free_racks":"12","terminal_type":"7inch","bike_numbers":"24536,28134,27041,26286,25935,29007,28861,96316","bike_types":{"4":8},"place_type":"0","rack_locks":"1"},{"uid":"2585446","lat":"52.2355713","lng":"21.0179642","name":"Nowy \u015awiat - Warecka","spot":"1","number":"9505","bikes":"14","bike_racks":"24","free_racks":"10","terminal_type":"7inch","bike_numbers":"24736,24621,28271,27751,27672,27420,27303,25240,25189,25100,25058,29073,28944,96046","bike_types":{"4":14},"place_type":"0","rack_locks":"1"},{"uid":"2585447","lat":"52.2337571","lng":"21.0202789","name":"Ga\u0142czy\u0144skiego - Foksal","spot":"1","number":"9506","bikes":"5","bike_racks":"24","free_racks":"19","terminal_type":"7inch","bike_numbers":"28049,27949,27866,27629,25175","bike_types":{"4":5},"place_type":"0","rack_locks":"1"},{"uid":"2585450","lat":"52.2375934","lng":"21.0256487","name":"Topiel - Tamka","spot":"1","number":"9507","bikes":"41","bike_racks":"20","free_racks":"0","terminal_type":"7inch","bike_numbers":"24855,24843,24525,28822,28562,28424,28288,27812,27620,27520,27500,27432,27413,27283,27076,26753,26558,26184,26132,26051,25941,25936,25849,25838,25719,25633,25577,25415,25360,25207,25011,29090,29011,29431,29139,28843,63619,96463,96340,96253,96142","bike_types":{"4":40,"0":1},"place_type":"0","rack_locks":"1"},{"uid":"2585452","lat":"52.2358752","lng":"21.0317323","name":"Solec - Jaracza","spot":"1","number":"9508","bikes":"3","bike_racks":"15","free_racks":"11","terminal_type":"7inch","bike_numbers":"26375,25059,96091","bike_types":{"4":3},"place_type":"0","rack_locks":"1"},{"uid":"2585453","lat":"52.2218874","lng":"20.9795301","name":"al. Jerozolimskie - Niemcewicza","spot":"1","number":"9509","bikes":"9","bike_racks":"19","free_racks":"9","terminal_type":"7inch","bike_numbers":"24692,28510,28450,26496,26118,26102,25976,29359,28841","bike_types":{"4":9},"place_type":"0","rack_locks":"1"},{"uid":"2585455","lat":"52.2222155","lng":"20.9866293","name":"Ochota-Ratusz","spot":"1","number":"9510","bikes":"2","bike_racks":"23","free_racks":"21","terminal_type":"7inch","bike_numbers":"24484,25758","bike_types":{"51":1,"4":1},"place_type":"0","rack_locks":"1"},{"uid":"2585457","lat":"52.2249718","lng":"20.9897661","name":"Plac Zawiszy","spot":"1","number":"9511","bikes":"4","bike_racks":"24","free_racks":"20","terminal_type":"7inch","bike_numbers":"24652,28622,25573,25116","bike_types":{"4":4},"place_type":"0","rack_locks":"1"},{"uid":"2585460","lat":"52.22626","lng":"20.9961309","name":"al. Jerozolimskie - Lindleya","spot":"1","number":"9512","bikes":"9","bike_racks":"15","free_racks":"6","terminal_type":"7inch","bike_numbers":"24995,28692,26795,26794,26017,25817,25808,25794,25605","bike_types":{"4":9},"place_type":"0","rack_locks":"1"},{"uid":"2585462","lat":"52.2241455","lng":"20.9975244","name":"Lindleya - szpital","spot":"1","number":"9513","bikes":"18","bike_racks":"28","free_racks":"10","terminal_type":"7inch","bike_numbers":"24769,24504,28011,27836,27606,27476,27423,27243,27123,26279,25973,25552,25386,25142,25105,28910,28865,29224","bike_types":{"4":18},"place_type":"0","rack_locks":"1"},{"uid":"2585464","lat":"52.227861","lng":"21.0008509","name":"Warszawa \u015ar\u00f3dmie\u015bcie WKD","spot":"1","number":"9514","bikes":"10","bike_racks":"18","free_racks":"8","terminal_type":"7inch","bike_numbers":"28580,28107,27211,26946,25986,25807,25520,25411,29360,96085","bike_types":{"4":10},"place_type":"0","rack_locks":"1"},{"uid":"2585466","lat":"52.2249555","lng":"21.0031664","name":"Oczki - WUM","spot":"1","number":"9515","bikes":"7","bike_racks":"19","free_racks":"9","terminal_type":"7inch","bike_numbers":"28551,28350,28149,26988,25538,29086,96115","bike_types":{"4":7},"place_type":"0","rack_locks":"1"},{"uid":"2585469","lat":"52.2290464","lng":"21.0054544","name":"Emilii Plater - Al. Jerozolimskie","spot":"1","number":"9517","bikes":"5","bike_racks":"30","free_racks":"24","terminal_type":"7inch","bike_numbers":"27889,26984,26611,25691,25134","bike_types":{"4":5},"place_type":"0","rack_locks":"1"},{"uid":"2585470","lat":"52.2259343","lng":"21.0067537","name":"Emilii Plater - Wsp\u00f3lna","spot":"1","number":"9518","bikes":"5","bike_racks":"15","free_racks":"11","terminal_type":"7inch","bike_numbers":"28401,27028,25432,96368,29199","bike_types":{"4":5},"place_type":"0","rack_locks":"1"},{"uid":"2585472","lat":"52.23001","lng":"21.01088","name":"Metro Centrum","spot":"1","number":"9519","bikes":"5","bike_racks":"30","free_racks":"24","terminal_type":"7inch","bike_numbers":"24745,28330,27259,25991,96573","bike_types":{"4":5},"place_type":"0","rack_locks":"1"},{"uid":"2585473","lat":"52.229347019086","lng":"21.011314988136","name":"Marsza\u0142kowska - Al. Jerozolimskie","spot":"1","number":"9520","bikes":"10","bike_racks":"24","free_racks":"13","terminal_type":"7inch","bike_numbers":"28757,28057,27780,27758,27521,27202,26929,25641,25390,25371","bike_types":{"4":10},"place_type":"0","rack_locks":"1"},{"uid":"2585476","lat":"52.230418150276","lng":"21.013610959053","name":"al. Jerozolimskie - rejon Rotundy","spot":"1","number":"9521","bikes":"12","bike_racks":"24","free_racks":"12","terminal_type":"7inch","bike_numbers":"28773,28624,27785,27608,27167,27160,26465,26252,26100,25677,25280,29143","bike_types":{"4":11,"0":1},"place_type":"0","rack_locks":"1"},{"uid":"2585477","lat":"52.2262882","lng":"21.0135705","name":"Marsza\u0142kowska - Ho\u017ca","spot":"1","number":"9522","bikes":"18","bike_racks":"15","free_racks":"4","terminal_type":"7inch","bike_numbers":"24909,24553,28061,27947,27896,27531,27497,27374,26299,26106,25960,25876,25293,25245,25961,96565,96265,29192","bike_types":{"4":18},"place_type":"0","rack_locks":"1"},{"uid":"2585492","lat":"52.2282923","lng":"21.0178542","name":"Krucza - Wsp\u00f3lna","spot":"1","number":"9523","bikes":"9","bike_racks":"28","free_racks":"19","terminal_type":"7inch","bike_numbers":"28588,27634,26756,26754,26123,25871,25216,28853,96275","bike_types":{"4":9},"place_type":"0","rack_locks":"1"},{"uid":"2585684","lat":"52.23144","lng":"21.0213036","name":"Rondo de Gaulle'a","spot":"1","number":"9524","bikes":"23","bike_racks":"22","free_racks":"0","terminal_type":"7inch","bike_numbers":"24897,28504,28482,28317,28004,27932,27782,27714,27386,27034,26544,25874,25829,25784,25726,25583,25444,29087,28884,28967,96536,96468,29236","bike_types":{"4":23},"place_type":"0","rack_locks":"1"},{"uid":"2585694","lat":"52.2278487","lng":"21.0235084","name":"Plac Trzech Krzy\u017cy","spot":"1","number":"9525","bikes":"5","bike_racks":"23","free_racks":"17","maintenance":"1","terminal_type":"7inch","bike_numbers":"24626,28597,25854,25022,29046","bike_types":{"4":5},"place_type":"0","rack_locks":"1"},{"uid":"2585695","lat":"52.23324","lng":"21.0261179","name":"Smolna - PKP Powi\u015ble","spot":"1","number":"9526","bikes":"16","bike_racks":"18","free_racks":"6","terminal_type":"7inch","bike_numbers":"24598,28459,28357,27777,27669,27473,27376,26381,26317,25881,25815,25700,29078,63613,96087,29195","bike_types":{"4":16},"place_type":"0","rack_locks":"1"},{"uid":"2585699","lat":"52.2340191","lng":"21.0300328","name":"Herberta - PKP Powi\u015ble","spot":"1","number":"9527","bikes":"11","bike_racks":"26","free_racks":"14","terminal_type":"7inch","bike_numbers":"24945,28601,27542,27143,26191,26108,25566,25379,25346,96032,96421","bike_types":{"4":11},"place_type":"0","rack_locks":"1"},{"uid":"2585704","lat":"52.2347879","lng":"21.0340991","name":"Solec - al. 3 Maja","spot":"1","number":"9528","bikes":"22","bike_racks":"24","free_racks":"3","terminal_type":"7inch","bike_numbers":"24766,24723,24566,25005,28420,27769,27651,27648,27621,27579,27295,27287,27261,26843,26348,25997,25934,25563,29076,29057,29027,96086","bike_types":{"4":22},"place_type":"0","rack_locks":"1"},{"uid":"2585708","lat":"52.2301405","lng":"21.0303694","name":"Ksi\u0105\u017c\u0119ca - Rozbrat","spot":"1","number":"9529","bikes":"17","bike_racks":"15","free_racks":"1","terminal_type":"7inch","bike_numbers":"24938,24925,24902,24794,24650,24628,28682,28498,27879,27079,26666,26064,26042,25244,96521,96151,96580","bike_types":{"4":17},"place_type":"0","rack_locks":"1"},{"uid":"2585711","lat":"52.2172177","lng":"20.9713608","name":"Szcz\u0119\u015bliwicka - APS","spot":"1","number":"9530","bikes":"7","bike_racks":"22","free_racks":"14","terminal_type":"7inch","bike_numbers":"24974,24595,28593,27057,26967,25760,25322","bike_types":{"4":7},"place_type":"0","rack_locks":"1"},{"uid":"2585712","lat":"52.2179474","lng":"20.9775567","name":"Kopi\u0144ska - Bia\u0142obrzeska","spot":"1","number":"9531","bikes":"8","bike_racks":"15","free_racks":"7","terminal_type":"7inch","bike_numbers":"24520,27384,27355,27183,26442,28871,96451,29191","bike_types":{"4":8},"place_type":"0","rack_locks":"1"},{"uid":"2585714","lat":"52.2178554","lng":"20.9828138","name":"Plac Narutowicza","spot":"1","number":"9532","bikes":"0","bike_racks":"30","free_racks":"30","terminal_type":"7inch","place_type":"0","rack_locks":"1","bike_numbers":null,"bike_types":[]},{"uid":"2585716","lat":"52.216641","lng":"20.9879476","name":"Raszy\u0144ska - Wawelska","spot":"1","number":"9533","bikes":"2","bike_racks":"20","free_racks":"19","terminal_type":"7inch","bike_numbers":"27166,25092","bike_types":{"4":2},"place_type":"0","rack_locks":"1"},{"uid":"2585717","lat":"52.2191029","lng":"20.9890149","name":"Raszy\u0144ska - Filtrowa","spot":"1","number":"9534","bikes":"9","bike_racks":"22","free_racks":"13","terminal_type":"7inch","bike_numbers":"24631,28346,27471,27189,26725,25979,25718,25565,96589","bike_types":{"4":9},"place_type":"0","rack_locks":"1"},{"uid":"2585720","lat":"52.220676","lng":"21.0045554","name":"al. Niepodleg\u0142o\u015bci - Nowowiejska","spot":"1","number":"9535","bikes":"2","bike_racks":"30","free_racks":"26","terminal_type":"7inch","bike_numbers":"27483,96352","bike_types":{"4":2},"place_type":"0","rack_locks":"1"},{"uid":"2585721","lat":"52.2174693","lng":"21.0056537","name":"Kaczy\u0144skiego - al. Niepodleg\u0142o\u015bci","spot":"1","number":"9536","bikes":"6","bike_racks":"16","free_racks":"10","terminal_type":"7inch","bike_numbers":"28752,27878,25895,25151,96523,96210","bike_types":{"4":6},"place_type":"0","rack_locks":"1"},{"uid":"2585722","lat":"52.2226831","lng":"21.0081097","name":"Noakowskiego - Koszykowa","spot":"1","number":"9537","bikes":"13","bike_racks":"24","free_racks":"9","terminal_type":"7inch","bike_numbers":"28898,28882,28442,28139,28013,27075,26857,26583,26216,26209,26004,96365,96297","bike_types":{"4":13},"place_type":"0","rack_locks":"1"},{"uid":"2585724","lat":"52.219916","lng":"21.0116824","name":"Plac Politechniki","spot":"1","number":"9538","bikes":"4","bike_racks":"27","free_racks":"22","terminal_type":"7inch","bike_numbers":"28754,28018,27082,26141","bike_types":{"4":4},"place_type":"0","rack_locks":"1"},{"uid":"2585727","lat":"52.223503","lng":"21.0128519","name":"Pozna\u0144ska - Zesp\u00f3\u0142 Szk\u00f3\u0142 Gastronomicznych","spot":"1","number":"9539","bikes":"17","bike_racks":"18","free_racks":"1","terminal_type":"7inch","bike_numbers":"24823,24690,28703,28678,28374,28062,27687,27577,27190,27050,27043,26977,26223,25597,25171,25168,96363","bike_types":{"4":17},"place_type":"0","rack_locks":"1"},{"uid":"2585728","lat":"52.2174857","lng":"21.0142949","name":"Rondo Jazdy Polskiej","spot":"1","number":"9540","bikes":"7","bike_racks":"24","free_racks":"16","terminal_type":"7inch","bike_numbers":"28393,26365,26088,25709,25210,28778,96416","bike_types":{"4":7},"place_type":"0","rack_locks":"1"},{"uid":"2585729","lat":"52.2197435","lng":"21.0157353","name":"ul. Wary\u0144skiego-ul. Nowowiejska-Metro Politechnika ","spot":"1","number":"9541","bikes":"4","bike_racks":"20","free_racks":"16","terminal_type":"7inch","bike_numbers":"24826,28425,27267,26470","bike_types":{"4":4},"place_type":"0","rack_locks":"1"},{"uid":"2585731","lat":"52.2197681","lng":"21.0172775","name":"Plac Zbawiciela","spot":"1","number":"9542","bikes":"16","bike_racks":"12","free_racks":"0","terminal_type":"7inch","bike_numbers":"28445,28395,27544,26783,26559,26515,26505,26126,25723,25578,25332,29038,28981,96016,29153,29280","bike_types":{"4":16},"place_type":"0","rack_locks":"1"},{"uid":"2585735","lat":"52.2229427","lng":"21.0158211","name":"Plac Konstytucji","spot":"1","number":"9543","bikes":"10","bike_racks":"30","free_racks":"18","terminal_type":"7inch","bike_numbers":"24604,24584,28416,28392,26639,26562,26366,25540,25016,96386","bike_types":{"4":10},"place_type":"0","rack_locks":"1"},{"uid":"2585737","lat":"52.2238152","lng":"21.0207859","name":"Mokotowska - Pi\u0119kna","spot":"1","number":"9544","bikes":"20","bike_racks":"22","free_racks":"3","terminal_type":"7inch","bike_numbers":"24637,24590,24467,24042,28680,28521,28469,28276,28144,27753,27673,27455,26506,25889,25636,25452,25021,29362,96411,96351","bike_types":{"4":18,"51":1,"26":1},"place_type":"0","rack_locks":"1"},{"uid":"2585738","lat":"52.2200212","lng":"21.0256299","name":"Plac na Rozdro\u017cu","spot":"1","number":"9545","bikes":"11","bike_racks":"26","free_racks":"21","terminal_type":"7inch","bike_numbers":"24512,28087,27940,27856,27849,26617,26466,26074,26063,25230,25203","bike_types":{"4":11},"place_type":"0","rack_locks":"1"},{"uid":"2585742","lat":"52.2249504","lng":"21.0268155","name":"Matejki - Wiejska","spot":"1","number":"9546","bikes":"10","bike_racks":"20","free_racks":"10","terminal_type":"7inch","bike_numbers":"24951,24885,28874,28775,26678,26113,25907,25061,96500,96433","bike_types":{"4":10},"place_type":"0","rack_locks":"1"},{"uid":"2585747","lat":"52.2221129","lng":"21.0343873","name":"My\u015bliwiecka - Rozbrat","spot":"1","number":"9547","bikes":"22","bike_racks":"21","free_racks":"0","terminal_type":"7inch","bike_numbers":"24809,24750,24455,28039,27935,27768,27701,27693,27098,26734,26514,26094,25603,25536,25099,29447,96003,96472,96161,29177,29206,29216","bike_types":{"4":21,"51":1},"place_type":"0","rack_locks":"1"},{"uid":"2585748","lat":"52.2277124","lng":"21.0442955","name":"Port Czerniakowski","spot":"1","number":"9548","bikes":"60","bike_racks":"30","free_racks":"0","terminal_type":"7inch","bike_numbers":"24984,24898,24620,28677,28561,28531,28529,28432,28376,28278,28103,28079,28054,27551,27488,27464,27460,27418,27411,27343,27193,27073,26802,26752,26682,26676,26665,26657,26621,26432,26424,26178,26096,26026,25970,25944,25772,25732,25667,25619,25363,25126,25121,25083,29647,28849,28836,28971,96567,96566,96494,96478,96319,96289,96212,96174,29201,29272,24050,96588","bike_types":{"4":59,"26":1},"place_type":"0","rack_locks":"1"},{"uid":"2585749","lat":"52.2109711","lng":"20.9759125","name":"Gr\u00f3jecka - Bitwy Warszawskiej 1920 roku","spot":"1","number":"9549","bikes":"12","bike_racks":"20","free_racks":"8","terminal_type":"7inch","bike_numbers":"27739,27611,27414,27373,27215,26712,26062,25324,25074,25067,29022,96337","bike_types":{"4":12},"place_type":"0","rack_locks":"1"},{"uid":"2585750","lat":"52.2130296","lng":"20.9819985","name":"Pasteura - Winnicka - UW","spot":"1","number":"9550","bikes":"4","bike_racks":"24","free_racks":"20","terminal_type":"7inch","bike_numbers":"26131,25965,25127,28921","bike_types":{"4":4},"place_type":"0","rack_locks":"1"},{"uid":"2585762","lat":"52.2107722","lng":"20.9847557","name":"Stefana Banacha - UW","spot":"1","number":"9551","bikes":"12","bike_racks":"29","free_racks":"17","terminal_type":"7inch","bike_numbers":"24713,24474,28394,28264,27548,27236,27233,26105,25437,25283,25081,96139","bike_types":{"4":11,"51":1},"place_type":"0","rack_locks":"1"},{"uid":"2585764","lat":"52.212671","lng":"21.003437","name":"Biblioteka Narodowa","spot":"1","number":"9552","bikes":"6","bike_racks":"24","free_racks":"17","terminal_type":"7inch","bike_numbers":"24914,24668,27894,27610,26985,26019","bike_types":{"4":6},"place_type":"0","rack_locks":"1"},{"uid":"2585766","lat":"52.21691","lng":"21.01997","name":"Marsza\u0142kowska - Litewska","spot":"1","number":"9553","bikes":"2","bike_racks":"15","free_racks":"12","terminal_type":"7inch","bike_numbers":"24680,25257","bike_types":{"4":2},"place_type":"0","rack_locks":"1"},{"uid":"2585770","lat":"52.2083858","lng":"20.9631103","name":"P\u0119tla Szcz\u0119\u015bliwice ","spot":"1","number":"9554","bikes":"6","bike_racks":"19","free_racks":"13","terminal_type":"7inch","bike_numbers":"24581,27737,27006,26177,29128,96274","bike_types":{"4":5,"0":1},"place_type":"0","rack_locks":"1"},{"uid":"2585771","lat":"52.206153650625","lng":"20.970287919044","name":"Dickensa - Geodet\u00f3w","spot":"1","number":"9555","bikes":"6","bike_racks":"16","free_racks":"11","terminal_type":"7inch","bike_numbers":"24476,27508,25699,25689,25518,25154","bike_types":{"51":1,"4":5},"place_type":"0","rack_locks":"1"},{"uid":"2585772","lat":"52.205361371875","lng":"20.984664559364","name":"\u017bwirki i Wigury - Ksi\u0119cia Trojdena","spot":"1","number":"9556","bikes":"10","bike_racks":"17","free_racks":"6","terminal_type":"7inch","bike_numbers":"24947,28707,28676,28650,28576,28429,27293,27040,26522,25801","bike_types":{"4":10},"place_type":"0","rack_locks":"1"},{"uid":"2585774","lat":"52.205801893754","lng":"20.998928546906","name":"Rakowiecka - \u015aw. A. Boboli","spot":"1","number":"9557","bikes":"2","bike_racks":"17","free_racks":"15","terminal_type":"7inch","bike_numbers":"27463,26780","bike_types":{"4":2},"place_type":"0","rack_locks":"1"},{"uid":"2585776","lat":"52.209916","lng":"21.0067794","name":"al. Niepodleg\u0142o\u015bci - Batorego","spot":"1","number":"9558","bikes":"14","bike_racks":"26","free_racks":"9","terminal_type":"7inch","bike_numbers":"24655,24515,24044,28599,28321,27915,27564,27461,25590,25153,96052,96022,96344,96303","bike_types":{"4":13,"26":1},"place_type":"0","rack_locks":"1"},{"uid":"2585779","lat":"52.2132375","lng":"21.0210568","name":"Plac Unii Lubelskiej","spot":"1","number":"9559","bikes":"5","bike_racks":"24","free_racks":"20","terminal_type":"7inch","bike_numbers":"24518,28036,26220,26087,29198","bike_types":{"4":5},"place_type":"0","rack_locks":"1"},{"uid":"2585781","lat":"52.2027557","lng":"20.9508951","name":"W\u0142odarzewska - Maszynowa","spot":"1","number":"9560","bikes":"1","bike_racks":"18","free_racks":"14","terminal_type":"7inch","bike_numbers":"25387","bike_types":{"4":1},"place_type":"0","rack_locks":"1"},{"uid":"2585782","lat":"52.2017647","lng":"20.9820897","name":"Sanocka - Pruszkowska","spot":"1","number":"9561","bikes":"0","bike_racks":"15","free_racks":"15","terminal_type":"7inch","place_type":"0","rack_locks":"1","bike_numbers":null,"bike_types":[]},{"uid":"2585785","lat":"52.1981365","lng":"20.9833717","name":"\u017bwirki i Wigury - Rac\u0142awicka","spot":"1","number":"9562","bikes":"6","bike_racks":"18","free_racks":"13","terminal_type":"7inch","bike_numbers":"27851,27527,26145,25594,25258,28964","bike_types":{"4":6},"place_type":"0","rack_locks":"1"},{"uid":"2585787","lat":"52.20177","lng":"20.99969","name":"Wo\u0142oska - Kulskiego","spot":"1","number":"9563","bikes":"0","bike_racks":"15","free_racks":"14","terminal_type":"7inch","place_type":"0","rack_locks":"1","bike_numbers":null,"bike_types":[]},{"uid":"2585788","lat":"52.2042638","lng":"21.014428","name":"Madali\u0144skiego - Kazimierzowska","spot":"1","number":"9564","bikes":"0","bike_racks":"24","free_racks":"24","terminal_type":"7inch","place_type":"0","rack_locks":"1","bike_numbers":null,"bike_types":[]},{"uid":"2585789","lat":"52.2055175","lng":"21.0231033","name":"Pu\u0142awska - Dworkowa","spot":"1","number":"9565","bikes":"1","bike_racks":"19","free_racks":"17","terminal_type":"7inch","bike_numbers":"96488","bike_types":{"4":1},"place_type":"0","rack_locks":"1"},{"uid":"2585790","lat":"52.2071756","lng":"21.0312643","name":"Belwederska - Gagarina","spot":"1","number":"9566","bikes":"50","bike_racks":"30","free_racks":"0","terminal_type":"7inch","bike_numbers":"24479,28727,28644,28635,28544,28435,28312,28052,28046,27690,27615,27375,27351,27254,27226,26785,26710,26706,26677,26463,26350,26334,26283,26158,26116,25729,25728,25727,25687,25482,25466,25331,25319,25315,25255,25089,29033,28954,28856,28855,28996,96059,96539,96341,96301,96175,96095,29164,29212,24054","bike_types":{"51":1,"4":48,"26":1},"place_type":"0","rack_locks":"1"},{"uid":"2585791","lat":"52.2074193","lng":"21.0479621","name":"Czerniakowska - Gagarina","spot":"1","number":"9567","bikes":"28","bike_racks":"25","free_racks":"2","terminal_type":"7inch","bike_numbers":"24502,24489,28734,28702,28631,27859,27853,27437,27305,26660,26563,26400,26276,26179,25592,25427,25273,25204,29349,28935,28895,96053,96461,96430,96178,29269,29226,96591","bike_types":{"4":27,"51":1},"place_type":"0","rack_locks":"1"},{"uid":"2585794","lat":"52.1938131","lng":"20.9914431","name":"Etiudy Rewolucyjnej - Mi\u0105czy\u0144ska","spot":"1","number":"9568","bikes":"13","bike_racks":"18","free_racks":"8","terminal_type":"7inch","bike_numbers":"28876,28765,28026,27402,27269,26800,26776,26377,26015,25762,96370,96305,96135","bike_types":{"4":13},"place_type":"0","rack_locks":"1"},{"uid":"2585799","lat":"52.1994156","lng":"21.0121384","name":"Metro Rac\u0142awicka","spot":"1","number":"9570","bikes":"19","bike_racks":"30","free_racks":"10","terminal_type":"7inch","bike_numbers":"24661,24624,24492,28410,27962,27425,27316,27164,27127,26990,26540,26189,26070,26061,29097,28942,96199,29151,29266","bike_types":{"4":18,"51":1},"place_type":"0","rack_locks":"1"},{"uid":"2585800","lat":"52.199505","lng":"21.0240975","name":"Pu\u0142awska - Dolna","spot":"1","number":"9571","bikes":"11","bike_racks":"18","free_racks":"6","terminal_type":"7inch","bike_numbers":"24955,24664,24521,24501,24463,28461,27563,26705,26560,29200,28833","bike_types":{"4":10,"51":1},"place_type":"0","rack_locks":"1"},{"uid":"2585802","lat":"52.2014754","lng":"21.0360047","name":"Sobieskiego - Che\u0142mska","spot":"1","number":"9572","bikes":"12","bike_racks":"15","free_racks":"0","terminal_type":"7inch","bike_numbers":"24845,24841,28512,27992,27545,27241,26164,25392,25349,25109,25627,28859","bike_types":{"4":12},"place_type":"0","rack_locks":"1"},{"uid":"2585804","lat":"52.1998446","lng":"21.05095","name":"Czerniakowska - ZUS","spot":"1","number":"9573","bikes":"17","bike_racks":"15","free_racks":"0","terminal_type":"7inch","bike_numbers":"24741,24609,24490,28623,28155,28152,27695,27146,27045,26923,26907,26076,26016,25914,25761,63623,96404","bike_types":{"4":16,"51":1},"place_type":"0","rack_locks":"1"},{"uid":"2585807","lat":"52.1916776","lng":"20.8689688","name":"PKP Ursus-Nied\u017awiadek","spot":"1","number":"9574","bikes":"11","bike_racks":"15","free_racks":"3","terminal_type":"7inch","bike_numbers":"27438,26954,26143,26006,25840,25826,25655,25161,29459,28988,29262","bike_types":{"4":11},"place_type":"0","rack_locks":"1"},{"uid":"2585808","lat":"52.1960469","lng":"20.8849347","name":"PKP Ursus","spot":"1","number":"9575","bikes":"7","bike_racks":"16","free_racks":"9","terminal_type":"7inch","bike_numbers":"24685,28460,28287,26876,26602,25888,96345","bike_types":{"4":7},"place_type":"0","rack_locks":"1"},{"uid":"2585809","lat":"52.1869936","lng":"20.8906478","name":"Sosnkowskiego - OSiR Ursus","spot":"1","number":"9576","bikes":"9","bike_racks":"15","free_racks":"6","terminal_type":"7inch","bike_numbers":"28747,28661,28261,27614,27388,26976,25078,96048,96007","bike_types":{"4":9},"place_type":"0","rack_locks":"1"},{"uid":"2585811","lat":"52.2005548","lng":"20.8937538","name":"Ursus-Ratusz","spot":"1","number":"9577","bikes":"8","bike_racks":"15","free_racks":"5","terminal_type":"7inch","bike_numbers":"24968,24748,24744,28905,28591,28444,27428,26258","bike_types":{"4":8},"place_type":"0","rack_locks":"1"},{"uid":"2585814","lat":"52.1906376","lng":"20.8999443","name":"Skoroszewska - Prystora","spot":"1","number":"9578","bikes":"8","bike_racks":"17","free_racks":"7","terminal_type":"7inch","bike_numbers":"24462,26974,25500,25340,29095,96049,96195,96090","bike_types":{"51":1,"4":7},"place_type":"0","rack_locks":"1"},{"uid":"2585817","lat":"52.1882609","lng":"20.9603771","name":"G\u0142adka - OSiR W\u0142ochy","spot":"1","number":"9579","bikes":"3","bike_racks":"16","free_racks":"12","terminal_type":"7inch","bike_numbers":"28538,25581,96060","bike_types":{"4":3},"place_type":"0","rack_locks":"1"},{"uid":"2585820","lat":"52.2056441","lng":"20.9159142","name":"PKP W\u0142ochy","spot":"1","number":"9580","bikes":"9","bike_racks":"17","free_racks":"8","terminal_type":"7inch","bike_numbers":"28402,27855,27697,27598,25781,25517,29551,25626,96331","bike_types":{"4":9},"place_type":"0","rack_locks":"1"},{"uid":"2585821","lat":"52.2012157","lng":"20.9353145","name":"al. Jerozolimskie - Popularna","spot":"1","number":"9581","bikes":"20","bike_racks":"19","free_racks":"3","terminal_type":"7inch","bike_numbers":"24847,24684,28643,28454,28349,28111,27837,27569,27491,26595,26455,26230,26215,26127,26032,28952,28989,96441,96194,29278","bike_types":{"4":20},"place_type":"0","rack_locks":"1"},{"uid":"2585824","lat":"52.1924709","lng":"20.9596664","name":"W\u0142ochy-Ratusz","spot":"1","number":"9582","bikes":"15","bike_racks":"15","free_racks":"0","terminal_type":"7inch","bike_numbers":"24887,27730,27504,27195,26451,26137,25853,25681,25653,25442,96029,96385,96323,96285,29230","bike_types":{"4":15},"place_type":"0","rack_locks":"1"},{"uid":"2585825","lat":"52.1946888","lng":"20.9667823","name":"1 Sierpnia - DK W\u0142ochy","spot":"1","number":"9583","bikes":"11","bike_racks":"15","free_racks":"5","terminal_type":"7inch","bike_numbers":"24801,28073,27939,27415,27383,26069,25535,25388,25139,29374,96044","bike_types":{"4":11},"place_type":"0","rack_locks":"1"},{"uid":"2585827","lat":"52.1888962","lng":"21.0175887","name":"Metro Wierzbno","spot":"1","number":"9584","bikes":"1","bike_racks":"20","free_racks":"19","terminal_type":"7inch","bike_numbers":"24853","bike_types":{"4":1},"place_type":"0","rack_locks":"1"},{"uid":"2585830","lat":"52.18648","lng":"21.02538","name":"Pu\u0142awska - Idzikowskiego","spot":"1","number":"9585","bikes":"3","bike_racks":"17","free_racks":"14","terminal_type":"7inch","bike_numbers":"26784,26597,96587","bike_types":{"4":3},"place_type":"0","rack_locks":"1"},{"uid":"2585835","lat":"52.1882861","lng":"21.0498825","name":"Sobieskiego - Mangalia","spot":"1","number":"9586","bikes":"11","bike_racks":"15","free_racks":"4","terminal_type":"7inch","bike_numbers":"24707,24522,28723,28315,28047,26382,26020,25908,25811,29654,96157","bike_types":{"4":11},"place_type":"0","rack_locks":"1"},{"uid":"2585837","lat":"52.178777","lng":"21.0016387","name":"Wo\u0142oska - Marynarska","spot":"1","number":"9588","bikes":"0","bike_racks":"26","free_racks":"26","terminal_type":"7inch","place_type":"0","rack_locks":"1","bike_numbers":null,"bike_types":[]},{"uid":"2585838","lat":"52.1800882","lng":"21.0207403","name":"al. Niepodleg\u0142o\u015bci - al. Wilanowska","spot":"1","number":"9589","bikes":"6","bike_racks":"22","free_racks":"15","terminal_type":"7inch","bike_numbers":"28002,27498,27333,26810,26713,25242","bike_types":{"4":6},"place_type":"0","rack_locks":"1"},{"uid":"2585839","lat":"52.1779163","lng":"21.049562","name":"P\u0119tla Stegny","spot":"1","number":"9590","bikes":"16","bike_racks":"23","free_racks":"7","terminal_type":"7inch","bike_numbers":"24976,27832,27133,26372,25932,25880,25856,25713,25556,25416,60863,28877,96465,96424,96413,96245","bike_types":{"4":16},"place_type":"0","rack_locks":"1"},{"uid":"2585843","lat":"52.1818472","lng":"21.0562822","name":"Sobieskiego - \u015bw. Bonifacego","spot":"1","number":"9591","bikes":"11","bike_racks":"22","free_racks":"11","terminal_type":"7inch","bike_numbers":"24758,28770,27925,27605,27247,26037,25425,28956,28977,96299,96188","bike_types":{"4":11},"place_type":"0","rack_locks":"1"},{"uid":"2585844","lat":"52.1702836","lng":"20.9959132","name":"P\u0119tla Bokserska","spot":"1","number":"9592","bikes":"13","bike_racks":"15","free_racks":"0","terminal_type":"7inch","bike_numbers":"24972,28497,28476,28384,27948,27430,26324,25731,25158,29346,28811,96556,96495","bike_types":{"4":13},"place_type":"0","rack_locks":"1"},{"uid":"2585846","lat":"52.1710498","lng":"21.0059144","name":"Gintrowskiego - Gotarda","spot":"1","number":"9593","bikes":"10","bike_racks":"15","free_racks":"3","terminal_type":"7inch","bike_numbers":"24552,28322,28268,27637,25886,25585,25462,25076,25029,28908","bike_types":{"4":10},"place_type":"0","rack_locks":"1"},{"uid":"2585848","lat":"52.174435","lng":"21.0128814","name":"al. Lotnik\u00f3w - Kaczmarskiego","spot":"1","number":"9594","bikes":"14","bike_racks":"30","free_racks":"9","terminal_type":"7inch","bike_numbers":"24850,24481,24033,24015,28294,28012,27789,26605,25992,25683,25330,28842,28879,96474","bike_types":{"4":11,"51":1,"26":2},"place_type":"0","rack_locks":"1"},{"uid":"2585850","lat":"52.1733132","lng":"21.0257305","name":"Metro S\u0142u\u017cew","spot":"1","number":"9595","bikes":"0","bike_racks":"24","free_racks":"24","terminal_type":"7inch","place_type":"0","rack_locks":"1","bike_numbers":null,"bike_types":[]},{"uid":"2585853","lat":"52.17343","lng":"21.03179","name":"Wa\u0142brzyska - Wr\u00f3bla","spot":"1","number":"9596","bikes":"6","bike_racks":"30","free_racks":"24","terminal_type":"7inch","bike_numbers":"28311,27831,26351,25560,25423,25226","bike_types":{"4":6},"place_type":"0","rack_locks":"1"},{"uid":"2585856","lat":"52.170135","lng":"21.0685748","name":"Jana III Sobieskiego - al. Wilanowska","spot":"1","number":"9597","bikes":"11","bike_racks":"15","free_racks":"5","terminal_type":"7inch","bike_numbers":"24681,27583,26888,26431,26057,25704,25194,25024,29432,96513,96347","bike_types":{"4":11},"place_type":"0","rack_locks":"1"},{"uid":"2585860","lat":"52.1655879","lng":"21.0839331","name":"al. Wilanowska - Przycz\u00f3\u0142kowa","spot":"1","number":"9598","bikes":"16","bike_racks":"16","free_racks":"0","terminal_type":"7inch","bike_numbers":"24591,28136,27993,27556,27266,27203,26726,26525,26245,25848,25551,25347,25111,25012,29136,96215","bike_types":{"4":15,"0":1},"place_type":"0","rack_locks":"1"},{"uid":"2585863","lat":"52.16479","lng":"21.10925","name":"Vogla - Syta","spot":"1","number":"9599","bikes":"15","bike_racks":"16","free_racks":"0","terminal_type":"7inch","bike_numbers":"28448,27909,27781,26679,26637,26589,26434,26098,26011,25910,25816,25754,25412,25287,96325","bike_types":{"4":15},"place_type":"0","rack_locks":"1"},{"uid":"2585868","lat":"52.1606257","lng":"21.0723245","name":"al. Rzeczypospolitej - Klimczaka","spot":"1","number":"9600","bikes":"19","bike_racks":"16","free_racks":"4","terminal_type":"7inch","bike_numbers":"24888,24858,24778,24670,28048,27570,27096,26898,26719,26708,26180,25892,25725,29144,96333,96258,96256,96107,96585","bike_types":{"4":18,"0":1},"place_type":"0","rack_locks":"1"},{"uid":"2585871","lat":"52.1569168","lng":"21.0760903","name":"al. Rzeczypospolitej - Branickiego","spot":"1","number":"9601","bikes":"3","bike_racks":"16","free_racks":"12","terminal_type":"7inch","bike_numbers":"28818,27829,28800","bike_types":{"4":3},"place_type":"0","rack_locks":"1"},{"uid":"2585872","lat":"52.1593735","lng":"21.086449","name":"Przycz\u00f3\u0142kowa - Branickiego","spot":"1","number":"9602","bikes":"6","bike_racks":"16","free_racks":"8","terminal_type":"7inch","bike_numbers":"24632,27842,26450,25402,63605,96457","bike_types":{"4":6},"place_type":"0","rack_locks":"1"},{"uid":"2585873","lat":"52.1618136","lng":"21.0277355","name":"Metro Ursyn\u00f3w II","spot":"1","number":"9603","bikes":"11","bike_racks":"30","free_racks":"16","terminal_type":"7inch","bike_numbers":"24605,27963,27760,27631,26507,26454,26323,25814,96491,96184,96096","bike_types":{"4":11},"place_type":"0","rack_locks":"1"},{"uid":"2585875","lat":"52.1622579","lng":"21.0280761","name":"Metro Ursyn\u00f3w I","spot":"1","number":"9604","bikes":"21","bike_racks":"30","free_racks":"9","terminal_type":"7inch","bike_numbers":"24866,24803,24617,28817,28490,28301,27153,27084,26965,26878,26739,26195,25695,25643,25548,25152,25133,96476,96442,96121,96088","bike_types":{"4":21},"place_type":"0","rack_locks":"1"},{"uid":"2585876","lat":"52.162401","lng":"21.0383811","name":"Jastrz\u0119bowskiego - SGGW","spot":"1","number":"9605","bikes":"10","bike_racks":"28","free_racks":"16","terminal_type":"7inch","bike_numbers":"24950,24762,27890,27506,26905,26867,25682,29092,60834,96218","bike_types":{"4":10},"place_type":"0","rack_locks":"1"},{"uid":"2585880","lat":"52.1557534","lng":"21.0232776","name":"Romera - Pieciolinii","spot":"1","number":"9606","bikes":"16","bike_racks":"16","free_racks":"0","terminal_type":"7inch","bike_numbers":"24619,28756,28326,28015,27622,27240,27159,26883,26376,25757,25294,25117,29096,63618,63606,96558","bike_types":{"4":16},"place_type":"0","rack_locks":"1"},{"uid":"2585883","lat":"52.1568674","lng":"21.0338401","name":"Metro Stok\u0142osy","spot":"1","number":"9607","bikes":"14","bike_racks":"27","free_racks":"8","terminal_type":"7inch","bike_numbers":"24524,28434,28215,28157,27793,27568,27524,26280,25999,25602,25354,28979,96043,96293","bike_types":{"4":14},"place_type":"0","rack_locks":"1"},{"uid":"2585885","lat":"52.1572887","lng":"21.0440084","name":"Roso\u0142a - Ciszewskiego - SGGW","spot":"1","number":"9608","bikes":"2","bike_racks":"30","free_racks":"28","terminal_type":"7inch","bike_numbers":"25575,96226","bike_types":{"4":2},"place_type":"0","rack_locks":"1"},{"uid":"2585888","lat":"52.1521429","lng":"21.0181224","name":"Pu\u0142awska - Pileckiego","spot":"1","number":"9609","bikes":"9","bike_racks":"22","free_racks":"14","terminal_type":"7inch","bike_numbers":"24705,28547,28267,28056,27352,26998,26405,26052,60842","bike_types":{"4":9},"place_type":"0","rack_locks":"1"},{"uid":"2585893","lat":"52.1495064","lng":"21.0332527","name":"Ciszewskiego - Pileckiego","spot":"1","number":"9610","bikes":"8","bike_racks":"22","free_racks":"11","terminal_type":"7inch","bike_numbers":"28086,27887,26487,25899,29067,29053,29361,29268","bike_types":{"4":8},"place_type":"0","rack_locks":"1"},{"uid":"2585894","lat":"52.1549453","lng":"21.0492977","name":"Roso\u0142a - Gandhi","spot":"1","number":"9611","bikes":"10","bike_racks":"22","free_racks":"12","terminal_type":"7inch","bike_numbers":"24952,28272,27141,26914,26443,26207,26008,25045,63620,96395","bike_types":{"4":10},"place_type":"0","rack_locks":"1"},{"uid":"2585897","lat":"52.1493105","lng":"21.0453361","name":"Metro Imielin","spot":"1","number":"9612","bikes":"18","bike_racks":"22","free_racks":"3","terminal_type":"7inch","bike_numbers":"24892,24031,27903,27205,27103,26186,25978,25923,25410,25351,25254,25015,29035,60836,28829,28826,63629,96579","bike_types":{"4":17,"26":1},"place_type":"0","rack_locks":"1"},{"uid":"2585899","lat":"52.1522333","lng":"21.0563922","name":"Roso\u0142a - Weso\u0142a","spot":"1","number":"9613","bikes":"13","bike_racks":"23","free_racks":"10","terminal_type":"7inch","bike_numbers":"25007,28546,28045,27880,27702,27208,26716,26557,26114,25964,25173,63614,96279","bike_types":{"4":13},"place_type":"0","rack_locks":"1"},{"uid":"2585901","lat":"52.1427201","lng":"21.0383624","name":"Pileckiego - Alternatywy","spot":"1","number":"9614","bikes":"12","bike_racks":"30","free_racks":"15","terminal_type":"7inch","bike_numbers":"24997,24942,24915,24891,25003,28696,28479,28005,27655,27510,26609,25522","bike_types":{"4":12},"place_type":"0","rack_locks":"1"},{"uid":"2585902","lat":"52.142735","lng":"21.0448131","name":"Dereniowa - P\u0142askowickiej","spot":"1","number":"9615","bikes":"8","bike_racks":"22","free_racks":"14","terminal_type":"7inch","bike_numbers":"24575,24543,24459,26468,25648,25377,63628,96234","bike_types":{"4":7,"51":1},"place_type":"0","rack_locks":"1"},{"uid":"2585904","lat":"52.1376039","lng":"21.0505531","name":"Stryje\u0144skich - Belgradzka","spot":"1","number":"9616","bikes":"4","bike_racks":"15","free_racks":"10","terminal_type":"7inch","bike_numbers":"24781,28251,28069,27207","bike_types":{"4":4},"place_type":"0","rack_locks":"1"},{"uid":"2585905","lat":"52.1403909","lng":"21.0568187","name":"Metro Natolin","spot":"1","number":"9617","bikes":"21","bike_racks":"30","free_racks":"8","terminal_type":"7inch","bike_numbers":"24828,24712,24709,24696,28494,28291,27913,27056,26818,26584,26306,26036,25737,25553,25490,25196,96037,96304,96231,96144,29150","bike_types":{"4":21},"place_type":"0","rack_locks":"1"},{"uid":"2585906","lat":"52.1420749","lng":"21.0659905","name":"Belgradzka - Roso\u0142a","spot":"1","number":"9618","bikes":"5","bike_racks":"23","free_racks":"17","terminal_type":"7inch","bike_numbers":"27804,27407,27060,26928,25103","bike_types":{"4":5},"place_type":"0","rack_locks":"1"},{"uid":"2585908","lat":"52.1314333","lng":"21.0561562","name":"Stryje\u0144skich - W\u0105wozowa","spot":"1","number":"9619","bikes":"23","bike_racks":"23","free_racks":"2","terminal_type":"7inch","bike_numbers":"24554,24017,28735,28675,28383,28068,28027,27613,27578,27525,27308,27299,26499,26075,25898,25646,25269,60855,28997,60867,96355,96241,29210","bike_types":{"4":22,"26":1},"place_type":"0","rack_locks":"1"},{"uid":"2585911","lat":"52.3326052","lng":"20.9418404","name":"Ordon\u00f3wny - \u015awiatowida","spot":"1","number":"9620","bikes":"10","bike_racks":"22","free_racks":"16","terminal_type":"7inch","bike_numbers":"28612,27847,27721,26651,26620,25489,25219,29077,96257,96138","bike_types":{"4":10},"place_type":"0","rack_locks":"1"},{"uid":"2585913","lat":"52.1310925","lng":"21.0654795","name":"Metro Kabaty","spot":"1","number":"9621","bikes":"9","bike_racks":"22","free_racks":"14","terminal_type":"7inch","bike_numbers":"24625,27953,27485,27032,26742,25467,28889,96205,29258","bike_types":{"4":9},"place_type":"0","rack_locks":"1"},{"uid":"2585916","lat":"52.1332642","lng":"21.0747962","name":"W\u0105wozowa - Roso\u0142a","spot":"1","number":"9622","bikes":"17","bike_racks":"18","free_racks":"0","terminal_type":"7inch","bike_numbers":"28361,28298,28260,27975,26912,26900,26512,26149,26001,25955,25703,25519,25370,29342,60828,96338,96140","bike_types":{"4":17},"place_type":"0","rack_locks":"1"},{"uid":"2585917","lat":"52.324116","lng":"21.05663","name":"Skarbka z G\u00f3r - Berensona","spot":"1","number":"9623","bikes":"10","bike_racks":"26","free_racks":"17","terminal_type":"7inch","bike_numbers":"24526,28657,28526,28277,27882,26413,26142,28878,96431,96204","bike_types":{"4":10},"place_type":"0","rack_locks":"1"},{"uid":"2585919","lat":"52.3485329","lng":"20.9418336","name":"Aluzyjna - Tr\u0105by","spot":"1","number":"9624","bikes":"9","bike_racks":"16","free_racks":"9","terminal_type":"7inch","bike_numbers":"24896,27664,26655,26623,26171,29108,96401,96317,96185","bike_types":{"4":9},"place_type":"0","rack_locks":"1"},{"uid":"2585920","lat":"52.3226982","lng":"20.9448107","name":"\u015awiatowida - Mehoffera","spot":"1","number":"9625","bikes":"16","bike_racks":"16","free_racks":"0","terminal_type":"7inch","bike_numbers":"24900,24882,24859,28652,27895,27327,26986,26575,26551,26408,26176,26172,26030,28934,28850,96239","bike_types":{"4":16},"place_type":"0","rack_locks":"1"},{"uid":"2585921","lat":"52.3212548","lng":"20.9477347","name":"Bia\u0142o\u0142\u0119cki O\u015brodek Sportu","spot":"1","number":"9626","bikes":"19","bike_racks":"30","free_racks":"12","terminal_type":"7inch","bike_numbers":"24993,24886,28642,28431,27833,27176,26941,26893,26667,26265,26263,25900,25859,25480,29105,28864,96516,96335,96137","bike_types":{"4":19},"place_type":"0","rack_locks":"1"},{"uid":"2585922","lat":"52.3211272","lng":"20.9712964","name":"Bia\u0142o\u0142\u0119ka-Ratusz","spot":"1","number":"9627","bikes":"6","bike_racks":"19","free_racks":"12","terminal_type":"7inch","bike_numbers":"27219,27165,26915,26834,26735,26472","bike_types":{"4":6},"place_type":"0","rack_locks":"1"},{"uid":"2585924","lat":"52.3132981","lng":"20.9655324","name":"My\u015bliborska - al. Kukli\u0144skiego","spot":"1","number":"9628","bikes":"10","bike_racks":"22","free_racks":"10","terminal_type":"7inch","bike_numbers":"24486,28404,27912,27514,26835,26018,25915,29075,29023,28995","bike_types":{"51":1,"4":9},"place_type":"0","rack_locks":"1"},{"uid":"2585925","lat":"52.3031984","lng":"20.9891666","name":"Modli\u0144ska - \u017bera\u0144ska","spot":"1","number":"9629","bikes":"19","bike_racks":"30","free_racks":"12","terminal_type":"7inch","bike_numbers":"24743,28590,28127,27868,27108,26763,26738,26692,26269,26236,26033,25738,25479,25408,29135,29133,96263,96247,96094","bike_types":{"4":17,"0":2},"place_type":"0","rack_locks":"1"},{"uid":"2585926","lat":"52.3150181","lng":"21.0610807","name":"Skarbka z G\u00f3r - Magiczna","spot":"1","number":"9630","bikes":"18","bike_racks":"30","free_racks":"13","terminal_type":"7inch","bike_numbers":"24939,24562,28645,28607,28583,28456,27870,27626,27487,27321,26815,26757,26707,26669,26346,25376,28994,96038","bike_types":{"4":18},"place_type":"0","rack_locks":"1"},{"uid":"2585928","lat":"52.3000268","lng":"21.0425266","name":"P\u0119tla Br\u00f3dno - Podgrodzie","spot":"1","number":"9631","bikes":"4","bike_racks":"20","free_racks":"16","terminal_type":"7inch","bike_numbers":"24916,27354,26281,26086","bike_types":{"4":4},"place_type":"0","rack_locks":"1"},{"uid":"2585929","lat":"52.2939957","lng":"21.0272258","name":"Rembieli\u0144ska - Kondratowicza","spot":"1","number":"9632","bikes":"21","bike_racks":"23","free_racks":"2","terminal_type":"7inch","bike_numbers":"24987,24813,24790,28774,28705,28440,27998,27916,27134,27077,27020,26259,25406,25336,25107,29340,96429,96193,96165,96148,96078","bike_types":{"4":21},"place_type":"0","rack_locks":"1"},{"uid":"2585931","lat":"52.2917236","lng":"21.0481189","name":"Targ\u00f3wek-Ratusz","spot":"1","number":"9633","bikes":"17","bike_racks":"28","free_racks":"11","terminal_type":"7inch","bike_numbers":"24636,28686,28658,28044,27960,27871,27681,26781,26484,26397,26396,26264,25730,25040,29347,28992,96240","bike_types":{"4":17},"place_type":"0","rack_locks":"1"},{"uid":"2585932","lat":"52.292208","lng":"21.0419554","name":"Kondratowicza - Chodecka","spot":"1","number":"9634","bikes":"6","bike_racks":"23","free_racks":"16","terminal_type":"7inch","bike_numbers":"28899,26399,25916,25755,25564,29174","bike_types":{"4":6},"place_type":"0","rack_locks":"1"},{"uid":"2585934","lat":"52.2925145","lng":"21.0573949","name":"Kondratowicza - Przy Grodzisku","spot":"1","number":"9635","bikes":"9","bike_racks":"18","free_racks":"8","terminal_type":"7inch","bike_numbers":"28610,28568,28001,27969,27778,27357,26718,26103,25263","bike_types":{"4":9},"place_type":"0","rack_locks":"1"},{"uid":"2585936","lat":"52.2878069","lng":"21.0213829","name":"Wysockiego - Poborza\u0144ska","spot":"1","number":"9636","bikes":"9","bike_racks":"23","free_racks":"15","terminal_type":"7inch","bike_numbers":"28772,28378,27288,27282,26979,26151,25170,29161,29160","bike_types":{"4":9},"place_type":"0","rack_locks":"1"},{"uid":"2585937","lat":"52.2885915","lng":"21.0310087","name":"Rembieli\u0144ska - Wyszogrodzka","spot":"1","number":"9637","bikes":"17","bike_racks":"30","free_racks":"14","terminal_type":"7inch","bike_numbers":"24565,28671,28606,28120,27854,27835,27725,27335,26859,26814,26685,26453,25712,25483,29040,96526,96497","bike_types":{"4":17},"place_type":"0","rack_locks":"1"},{"uid":"2585938","lat":"52.2864841","lng":"21.0401998","name":"Chodecka - \u017buromi\u0144ska","spot":"1","number":"9638","bikes":"10","bike_racks":"15","free_racks":"3","terminal_type":"7inch","bike_numbers":"24616,28736,27663,27220,27051,25827,25075,29039,29146,96259","bike_types":{"4":9,"0":1},"place_type":"0","rack_locks":"1"},{"uid":"2585939","lat":"52.281231017533","lng":"21.025852560997","name":"Wysockiego - Matki Teresy z Kalkuty","spot":"1","number":"9639","bikes":"25","bike_racks":"17","free_racks":"1","terminal_type":"7inch","bike_numbers":"24820,24811,24657,24039,28758,28656,28578,28520,28496,28041,27918,27742,27199,27087,26844,26097,25270,25235,25213,25182,28830,96400,96106,29209,29222","bike_types":{"4":24,"26":1},"place_type":"0","rack_locks":"1"},{"uid":"2585941","lat":"52.2835693","lng":"21.0720858","name":"Blokowa - DK Zacisze","spot":"1","number":"9640","bikes":"8","bike_racks":"18","free_racks":"10","terminal_type":"7inch","bike_numbers":"24956,24682,24574,28265,28084,27951,96054,96203","bike_types":{"4":8},"place_type":"0","rack_locks":"1"},{"uid":"2585942","lat":"52.276259","lng":"21.0530748","name":"P\u0119tla Targ\u00f3wek","spot":"1","number":"9641","bikes":"21","bike_racks":"22","free_racks":"0","terminal_type":"7inch","bike_numbers":"28869,27959,27788,27660,27342,27277,26809,26491,26214,26104,25828,25666,25607,25494,25445,25429,25366,25218,28907,96158,29219","bike_types":{"4":21},"place_type":"0","rack_locks":"1"},{"uid":"2585943","lat":"52.27139","lng":"21.01566","name":"Jagiello\u0144ska - ALK","spot":"1","number":"9642","bikes":"5","bike_racks":"16","free_racks":"10","terminal_type":"7inch","bike_numbers":"24764,27359,26441,28912,96166","bike_types":{"4":5},"place_type":"0","rack_locks":"1"},{"uid":"2585947","lat":"52.2694683","lng":"21.0499817","name":"Ossowskiego","spot":"1","number":"9644","bikes":"14","bike_racks":"17","free_racks":"4","terminal_type":"7inch","bike_numbers":"24844,24603,25006,28270,28082,26549,26527,26239,25544,25180,28990,96283,96224,96182","bike_types":{"4":14},"place_type":"0","rack_locks":"1"},{"uid":"2585951","lat":"52.272602123161","lng":"21.063210368156","name":"Radzymi\u0144ska -Trocka","spot":"1","number":"9645","bikes":"8","bike_racks":"20","free_racks":"12","terminal_type":"7inch","bike_numbers":"24614,28722,27779,26951,26002,25780,25657,29082","bike_types":{"4":8},"place_type":"0","rack_locks":"1"},{"uid":"2585953","lat":"52.27347","lng":"21.07698","name":"Bukowiecka - Zamkowa","spot":"1","number":"9646","bikes":"9","bike_racks":"15","free_racks":"6","terminal_type":"7inch","bike_numbers":"24911,28651,27443,26963,26868,26787,26435,26041,25620","bike_types":{"4":9},"place_type":"0","rack_locks":"1"},{"uid":"2585954","lat":"52.2668885","lng":"21.0585675","name":"Radzymi\u0144ska - Piotra Skargi","spot":"1","number":"9647","bikes":"9","bike_racks":"20","free_racks":"8","terminal_type":"7inch","bike_numbers":"24016,28208,27717,26722,26581,26354,25896,25249,25124","bike_types":{"26":1,"4":8},"place_type":"0","rack_locks":"1"},{"uid":"2585955","lat":"52.2614369","lng":"21.0155744","name":"Wybrze\u017ce Helskie - ZOO","spot":"1","number":"9648","bikes":"1","bike_racks":"22","free_racks":"18","terminal_type":"7inch","bike_numbers":"26398","bike_types":{"4":1},"place_type":"0","rack_locks":"1"},{"uid":"2585956","lat":"52.2632492","lng":"21.0212231","name":"Rondo Starzy\u0144skiego","spot":"1","number":"9649","bikes":"17","bike_racks":"24","free_racks":"4","terminal_type":"7inch","bike_numbers":"28681,28484,28209,28088,27444,26874,26768,26054,25938,25267,25125,25064,29388,28839,28880,96298,29176","bike_types":{"4":17},"place_type":"0","rack_locks":"1"},{"uid":"2585958","lat":"52.26421","lng":"21.02618","name":"Darwina - Nusbauma-Hilarowicza","spot":"1","number":"9650","bikes":"4","bike_racks":"21","free_racks":"14","terminal_type":"7inch","bike_numbers":"27145,26594,25778,25614","bike_types":{"4":4},"place_type":"0","rack_locks":"1"},{"uid":"2585960","lat":"52.26554","lng":"21.03122","name":"Namys\u0142owska - Darwina","spot":"1","number":"9651","bikes":"6","bike_racks":"15","free_racks":"10","terminal_type":"7inch","bike_numbers":"27026,29137,25631,96031,96118,29171","bike_types":{"4":5,"0":1},"place_type":"0","rack_locks":"1"},{"uid":"2585961","lat":"52.2690405","lng":"21.0379493","name":"Rondo \u017baba","spot":"1","number":"9652","bikes":"15","bike_racks":"22","free_racks":"7","terminal_type":"7inch","bike_numbers":"28693,28468,28342,28154,27058,27031,26958,26564,25835,25512,25398,25035,28951,96552,96392","bike_types":{"4":15},"place_type":"0","rack_locks":"1"},{"uid":"2585963","lat":"52.2591682","lng":"21.0262224","name":"Jagiello\u0144ska - Plac Hallera","spot":"1","number":"9653","bikes":"10","bike_racks":"20","free_racks":"6","terminal_type":"7inch","bike_numbers":"24724,28102,27541,27459,27356,27131,25268,96244,96154,29228","bike_types":{"4":10},"place_type":"0","rack_locks":"1"},{"uid":"2585964","lat":"52.2613811","lng":"21.0305437","name":"Plac Hallera - Sawinkowa","spot":"1","number":"9654","bikes":"3","bike_racks":"28","free_racks":"25","terminal_type":"7inch","bike_numbers":"24022,28647,26327","bike_types":{"26":1,"4":2},"place_type":"0","rack_locks":"1"},{"uid":"2585967","lat":"52.263","lng":"21.03418","name":"Namys\u0142owska - Szymanowskiego","spot":"1","number":"9655","bikes":"5","bike_racks":"16","free_racks":"11","terminal_type":"7inch","bike_numbers":"28347,27632,25843,25364,96120","bike_types":{"4":5},"place_type":"0","rack_locks":"1"},{"uid":"2585968","lat":"52.2538188","lng":"21.0231542","name":"Ratuszowa - ZOO","spot":"1","number":"9656","bikes":"16","bike_racks":"23","free_racks":"3","terminal_type":"7inch","bike_numbers":"24800,24708,24702,24593,24589,24040,27595,27582,26261,25877,25851,25792,25378,29048,96409,96125","bike_types":{"4":15,"26":1},"place_type":"0","rack_locks":"1"},{"uid":"2585971","lat":"52.256355","lng":"21.029538","name":"Jagiello\u0144ska - Ratuszowa","spot":"1","number":"9657","bikes":"1","bike_racks":"16","free_racks":"15","terminal_type":"7inch","bike_numbers":"96267","bike_types":{"4":1},"place_type":"0","rack_locks":"1"},{"uid":"2585972","lat":"52.261449","lng":"21.037614","name":"11 Listopada - Ratuszowa","spot":"1","number":"9658","bikes":"7","bike_racks":"30","free_racks":"23","terminal_type":"7inch","bike_numbers":"24978,24456,27744,26204,29081,63625,96287","bike_types":{"4":6,"51":1},"place_type":"0","rack_locks":"1"},{"uid":"2585974","lat":"52.263109","lng":"21.0381895","name":"11 listopada - \u015arodkowa","spot":"1","number":"9659","bikes":"11","bike_racks":"18","free_racks":"7","terminal_type":"7inch","bike_numbers":"28570,27454,26732,26464,26009,25561,25146,28909,25958,29225,29218","bike_types":{"4":11},"place_type":"0","rack_locks":"1"},{"uid":"2585975","lat":"52.25839","lng":"21.03537","name":"Stalowa - 11 Listopada","spot":"1","number":"9660","bikes":"19","bike_racks":"24","free_racks":"6","terminal_type":"7inch","bike_numbers":"24583,28672,28665,28382,27538,27255,27080,26529,26109,25788,25572,25567,25525,25334,25106,29124,28969,96315,29281","bike_types":{"4":18,"0":1},"place_type":"0","rack_locks":"1"},{"uid":"2585978","lat":"52.234791","lng":"21.07905","name":"al. Stan\u00f3w Zjednoczonych - Ostrobramska","spot":"1","number":"9661","bikes":"0","bike_racks":"20","free_racks":"18","terminal_type":"7inch","place_type":"0","rack_locks":"1","bike_numbers":null,"bike_types":[]},{"uid":"2585981","lat":"52.2524758","lng":"21.0303479","name":"Floria\u0144ska - Park Praski","spot":"1","number":"9662","bikes":"18","bike_racks":"23","free_racks":"4","terminal_type":"7inch","bike_numbers":"24630,28275,28077,28040,28014,28010,27803,27566,27469,26908,26638,26446,25918,25739,29064,96533,96503,29271","bike_types":{"4":18},"place_type":"0","rack_locks":"1"},{"uid":"2585982","lat":"52.2549757","lng":"21.0339005","name":"Plac Wile\u0144ski","spot":"1","number":"9663","bikes":"38","bike_racks":"30","free_racks":"0","terminal_type":"7inch","bike_numbers":"24964,24623,24557,28660,28373,28023,27990,27908,27817,27580,27550,27399,27313,27172,27147,27004,26964,26827,26698,26687,26270,26210,26156,26125,25925,25890,25855,25805,25736,25642,25282,25277,25163,25101,96477,96143,96124,29214","bike_types":{"4":38},"place_type":"0","rack_locks":"1"},{"uid":"2585983","lat":"52.2579576","lng":"21.0399804","name":"Wile\u0144ska - Rzeszotarskiej","spot":"1","number":"9664","bikes":"16","bike_racks":"16","free_racks":"0","terminal_type":"7inch","bike_numbers":"24528,27792,27574,27434,27331,27222,26991,26610,26167,26161,25882,25716,29012,29365,96443,96336","bike_types":{"4":16},"place_type":"0","rack_locks":"1"},{"uid":"2585984","lat":"52.2475848","lng":"20.9568001","name":"al. Prymasa Tysi\u0105clecia - Obozowa","spot":"1","number":"9665","bikes":"3","bike_racks":"13","free_racks":"11","terminal_type":"7inch","bike_numbers":"28474,29427,29254","bike_types":{"4":3},"place_type":"0","rack_locks":"1"},{"uid":"2585985","lat":"52.248607","lng":"21.029647","name":"Okrzei - Panie\u0144ska","spot":"1","number":"9666","bikes":"12","bike_racks":"16","free_racks":"9","terminal_type":"7inch","bike_numbers":"24002,28659,27543,27330,27024,27017,26709,25085,96383,96133,29156,24055","bike_types":{"26":2,"4":10},"place_type":"0","rack_locks":"1"},{"uid":"2585987","lat":"52.2506334","lng":"21.0311174","name":"Sierakowskiego - K\u0142opotowskiego","spot":"1","number":"9667","bikes":"12","bike_racks":"25","free_racks":"14","terminal_type":"7inch","bike_numbers":"24926,28072,27727,27680,27275,26556,25943,25696,25542,25224,96281,29277","bike_types":{"4":12},"place_type":"0","rack_locks":"1"},{"uid":"2585990","lat":"52.2520876","lng":"21.0381368","name":"Targowa - Z\u0105bkowska","spot":"1","number":"9668","bikes":"22","bike_racks":"18","free_racks":"0","terminal_type":"7inch","bike_numbers":"24602,28646,28080,27755,27530,27477,26322,25893,25862,25831,25407,25069,29104,29373,28834,96546,96518,96498,96455,96147,96127,24053","bike_types":{"4":21,"26":1},"place_type":"0","rack_locks":"1"},{"uid":"2585992","lat":"52.2544855","lng":"21.0433458","name":"Fabryka W\u00f3dek Koneser","spot":"1","number":"9669","bikes":"13","bike_racks":"25","free_racks":"11","terminal_type":"7inch","bike_numbers":"24893,24861,24814,28714,28090,27971,27848,27747,27362,26837,25523,29091,29193","bike_types":{"4":13},"place_type":"0","rack_locks":"1"},{"uid":"2585994","lat":"52.2559027","lng":"21.0495613","name":"Radzymi\u0144ska - Wiosenna","spot":"1","number":"9670","bikes":"15","bike_racks":"26","free_racks":"12","terminal_type":"7inch","bike_numbers":"24999,24787,24728,24725,28554,28436,28114,27798,27246,27064,26282,26028,25368,96153,29203","bike_types":{"4":15},"place_type":"0","rack_locks":"1"},{"uid":"2585995","lat":"52.25965","lng":"21.0529","name":"Radzymi\u0144ska - \u0141om\u017cy\u0144ska","spot":"1","number":"9671","bikes":"8","bike_racks":"24","free_racks":"18","terminal_type":"7inch","bike_numbers":"28738,27586,27212,26717,26587,26479,25776,29202","bike_types":{"4":8},"place_type":"0","rack_locks":"1"},{"uid":"2585996","lat":"52.2583512","lng":"21.0585337","name":"P\u0119tla Kaw\u0119czy\u0144ska-Bazylika","spot":"1","number":"9672","bikes":"15","bike_racks":"26","free_racks":"10","terminal_type":"7inch","bike_numbers":"24550,28148,28074,27796,27657,27650,27344,27007,26997,26554,26315,25998,25926,29132,96322","bike_types":{"4":14,"0":1},"place_type":"0","rack_locks":"1"},{"uid":"2585997","lat":"52.249864871462","lng":"21.042911410332","name":"Targowa - Kijowska","spot":"1","number":"9673","bikes":"13","bike_racks":"18","free_racks":"5","terminal_type":"7inch","bike_numbers":"24788,24545,28683,28110,28106,27703,27312,26962,26058,25611,25447,29024,96361","bike_types":{"4":13},"place_type":"0","rack_locks":"1"},{"uid":"2586000","lat":"52.252745","lng":"21.0510331","name":"Dworzec Wschodni - Kijowska","spot":"1","number":"9674","bikes":"20","bike_racks":"27","free_racks":"7","terminal_type":"7inch","bike_numbers":"25008,28629,28603,28419,27902,27841,27802,27731,27314,27068,26919,26902,26714,26473,26356,25634,25290,25112,25110,29245","bike_types":{"4":20},"place_type":"0","rack_locks":"1"},{"uid":"2586001","lat":"52.247314","lng":"21.042731","name":"Metro Stadion Narodowy","spot":"1","number":"9675","bikes":"9","bike_racks":"15","free_racks":"7","terminal_type":"7inch","bike_numbers":"24768,24599,28574,27253,27155,26791,25870,28845,96222","bike_types":{"4":9},"place_type":"0","rack_locks":"1"},{"uid":"2586003","lat":"52.2472308","lng":"21.0476456","name":"al. Zieleniecka - Teatr Powszechny","spot":"1","number":"9676","bikes":"4","bike_racks":"14","free_racks":"10","terminal_type":"7inch","bike_numbers":"24761,25570,25018,96452","bike_types":{"4":4},"place_type":"0","rack_locks":"1"},{"uid":"2586005","lat":"52.247136","lng":"21.056658","name":"Grochowska - Mi\u0144ska","spot":"1","number":"9677","bikes":"12","bike_racks":"30","free_racks":"18","terminal_type":"7inch","bike_numbers":"24880,28802,27515,27209,27016,26948,26574,26163,25167,25129,96426,96408","bike_types":{"4":12},"place_type":"0","rack_locks":"1"},{"uid":"2586009","lat":"52.2464","lng":"21.06868","name":"Praga-Po\u0142udnie-Ratusz","spot":"1","number":"9678","bikes":"4","bike_racks":"15","free_racks":"10","terminal_type":"7inch","bike_numbers":"24890,26290,25439,29103","bike_types":{"4":4},"place_type":"0","rack_locks":"1"},{"uid":"2586011","lat":"52.2501129","lng":"21.0772011","name":"Dwernickiego - Siennicka","spot":"1","number":"9679","bikes":"9","bike_racks":"25","free_racks":"15","terminal_type":"7inch","bike_numbers":"24729,24677,28295,27194,25969,25836,25303,25299,25200","bike_types":{"4":9},"place_type":"0","rack_locks":"1"},{"uid":"2586012","lat":"52.260428882956","lng":"21.041538119316","name":"Stalowa - Czynszowa","spot":"1","number":"9680","bikes":"2","bike_racks":"15","free_racks":"12","terminal_type":"7inch","bike_numbers":"27421,25128","bike_types":{"4":2},"place_type":"0","rack_locks":"1"},{"uid":"2586014","lat":"52.2372419","lng":"21.0437644","name":"Wybrze\u017ce Szczeci\u0144skie - Stadion Narodowy","spot":"1","number":"9681","bikes":"53","bike_racks":"23","free_racks":"0","terminal_type":"7inch","bike_numbers":"24838,24796,24644,24639,24596,24560,24472,28596,28592,28589,28565,28332,28280,28274,28132,28071,27897,27810,27641,27526,27480,27426,27377,27371,27181,27119,26863,26653,26546,26361,26112,26101,25766,25571,25549,25468,25355,25278,25233,25165,25138,25118,25062,29014,29659,29126,28896,96014,96544,96356,96310,96238,29282","bike_types":{"4":51,"51":1,"0":1},"place_type":"0","rack_locks":"1"},{"uid":"2586018","lat":"52.2387103","lng":"21.0507515","name":"Rondo Waszyngtona - Stadion Narodowy","spot":"1","number":"9682","bikes":"44","bike_racks":"27","free_racks":"7","terminal_type":"7inch","bike_numbers":"24877,24798,24780,24722,28691,28488,28286,28254,28252,27914,27869,27826,27635,27505,27393,27315,27278,27272,27188,27130,27018,26996,26790,26764,26748,26635,26579,26520,26358,26307,26060,25962,25933,25753,25688,25618,25451,25409,25341,29045,29372,28894,96042,96105","bike_types":{"4":44},"place_type":"0","rack_locks":"1"},{"uid":"2586019","lat":"52.242281006874","lng":"21.071160435677","name":"Waszyngtona - Kinowa","spot":"1","number":"9683","bikes":"9","bike_racks":"15","free_racks":"5","terminal_type":"7inch","bike_numbers":"24816,28902,28100,27367,27158,25745,25530,25284,25176","bike_types":{"4":9},"place_type":"0","rack_locks":"1"},{"uid":"2586021","lat":"52.2445639","lng":"21.0838057","name":"Rondo Wiatraczna","spot":"1","number":"9684","bikes":"35","bike_racks":"30","free_racks":"0","terminal_type":"7inch","bike_numbers":"28516,28477,28308,27858,27479,27382,27276,27225,27036,26944,26866,26839,26817,26773,26393,26387,26277,26240,26196,25980,25787,25649,25610,25477,25343,25071,25070,28857,28837,96514,96483,96428,96271,96099,29149","bike_types":{"4":35},"place_type":"0","rack_locks":"1"},{"uid":"2586022","lat":"52.2347451","lng":"21.053651","name":"Francuska - Walecznych","spot":"1","number":"9685","bikes":"32","bike_racks":"15","free_racks":"1","terminal_type":"7inch","bike_numbers":"24908,24606,24539,28741,28732,28537,28368,27977,27763,27749,27562,27555,27484,27424,27122,26949,26938,26720,26645,26592,26295,26181,25929,25697,25678,25453,29386,29138,96569,96229,29237,96586","bike_types":{"4":31,"0":1},"place_type":"0","rack_locks":"1"},{"uid":"2586024","lat":"52.236598","lng":"21.064774","name":"Mi\u0119dzynarodowa - Walecznych","spot":"1","number":"9686","bikes":"14","bike_racks":"15","free_racks":"0","terminal_type":"7inch","bike_numbers":"24457,28549,28502,27956,27815,27162,26440,25971,25499,25211,29446,96314,96269,96117","bike_types":{"51":1,"4":13},"place_type":"0","rack_locks":"1"},{"uid":"2586026","lat":"52.243020071904","lng":"21.102375984192","name":"Plac Szembeka","spot":"1","number":"9687","bikes":"5","bike_racks":"15","free_racks":"11","terminal_type":"7inch","bike_numbers":"28632,25724,25359,25338,29267","bike_types":{"4":5},"place_type":"0","rack_locks":"1"},{"uid":"2586028","lat":"52.237559","lng":"21.120087","name":"P\u0119tla Goc\u0142awek","spot":"1","number":"9688","bikes":"10","bike_racks":"16","free_racks":"6","terminal_type":"7inch","bike_numbers":"28465,27860,27709,26728,25262,29552,28827,28900,96009,96543","bike_types":{"4":10},"place_type":"0","rack_locks":"1"},{"uid":"2586030","lat":"52.2258359","lng":"21.0600907","name":"Brukselska - PROM","spot":"1","number":"9689","bikes":"10","bike_racks":"15","free_racks":"4","terminal_type":"7inch","bike_numbers":"24505,24491,28116,27533,25972,25513,25130,96262,96228,96163","bike_types":{"4":9,"51":1},"place_type":"0","rack_locks":"1"},{"uid":"2586031","lat":"52.260205610017","lng":"21.046854257584","name":"al. Solidarno\u015bci - Szwedzka","spot":"1","number":"9690","bikes":"9","bike_racks":"18","free_racks":"8","terminal_type":"7inch","bike_numbers":"28505,28369,28128,26275,26224,25579,25464,25159,25088","bike_types":{"4":9},"place_type":"0","rack_locks":"1"},{"uid":"2586032","lat":"52.230088","lng":"21.067948","name":"al. Stan\u00f3w Zjednoczonych - Mi\u0119dzynarodowa","spot":"1","number":"9691","bikes":"11","bike_racks":"26","free_racks":"15","terminal_type":"7inch","bike_numbers":"24665,27677,27232,26805,26343,25885,25438,25119,29364,96015,96123","bike_types":{"4":11},"place_type":"0","rack_locks":"1"},{"uid":"2586034","lat":"52.23483","lng":"21.09975","name":"Ostrobramska - Zamieniecka","spot":"1","number":"9692","bikes":"13","bike_racks":"23","free_racks":"8","terminal_type":"7inch","bike_numbers":"24004,27692,27422,27394,26906,26872,26122,25296,25186,29441,96548,96288,29243","bike_types":{"26":1,"4":12},"place_type":"0","rack_locks":"1"},{"uid":"2586037","lat":"52.2251969","lng":"21.0712892","name":"Afryka\u0144ska - Egipska","spot":"1","number":"9693","bikes":"20","bike_racks":"16","free_racks":"0","terminal_type":"7inch","bike_numbers":"24649,28380,28118,27713,27640,27318,27053,26364,26148,26119,26067,25984,25946,25830,25639,25449,28914,96559,96108,29274","bike_types":{"4":20},"place_type":"0","rack_locks":"1"},{"uid":"2586039","lat":"52.22837","lng":"21.08581","name":"Abrahama - Kapelan\u00f3w AK","spot":"1","number":"9694","bikes":"23","bike_racks":"15","free_racks":"0","terminal_type":"7inch","bike_numbers":"24970,24969,24929,24773,24700,28892,28418,27920,27170,27151,27030,26414,26187,25988,25722,25660,25435,25217,96479,96350,96235,96227,29180","bike_types":{"4":23},"place_type":"0","rack_locks":"1"},{"uid":"2586042","lat":"52.2296088","lng":"21.0945572","name":"Fieldorfa - Bukowskiego","spot":"1","number":"9695","bikes":"12","bike_racks":"20","free_racks":"6","terminal_type":"7inch","bike_numbers":"24009,28511,28356,28290,26691,26344,26213,25604,28838,96502,96375,96198","bike_types":{"26":1,"4":11},"place_type":"0","rack_locks":"1"},{"uid":"2586044","lat":"52.22974","lng":"21.10624","name":"Rechniewskiego - Nowaka-Jeziora\u0144skiego","spot":"1","number":"9696","bikes":"11","bike_racks":"30","free_racks":"18","terminal_type":"7inch","bike_numbers":"24669,24633,28212,28032,27224,26936,26292,26203,25622,28970,29166","bike_types":{"4":11},"place_type":"0","rack_locks":"1"},{"uid":"2586045","lat":"52.2223071","lng":"21.0907259","name":"Meissnera - Fieldorfa","spot":"1","number":"9697","bikes":"15","bike_racks":"15","free_racks":"0","terminal_type":"7inch","bike_numbers":"24731,24517,28310,28094,27366,26833,26701,25748,25419,25156,25028,29083,29037,96354,96155","bike_types":{"4":15},"place_type":"0","rack_locks":"1"},{"uid":"2586268","lat":"52.23938046828","lng":"21.016716957092","name":"Krakowskie Przedmie\u015bcie - Traugutta 2","spot":"1","number":"94931","bikes":"11","bike_racks":"24","free_racks":"10","terminal_type":"7inch","bike_numbers":"24884,24786,24676,28491,28335,28034,26793,26690,25433,96551,96346","bike_types":{"4":11},"place_type":"0","rack_locks":"1"},{"uid":"2586270","lat":"52.241814568386","lng":"21.024039387703","name":"Lipowa - Dobra 2","spot":"1","number":"94961","bikes":"33","bike_racks":"19","free_racks":"0","terminal_type":"7inch","bike_numbers":"24979,24805,28743,28662,28653,28458,28426,28038,28030,28024,27892,27584,27547,27385,27319,27088,26993,26981,26747,26680,26013,25710,25454,25056,29338,29114,29072,96033,96575,96460,96364,96324,96284","bike_types":{"4":33},"place_type":"0","rack_locks":"1"},{"uid":"2586272","lat":"52.219916006513","lng":"21.011733412743","name":"Plac Politechniki 2","spot":"1","number":"95381","bikes":"4","bike_racks":"27","free_racks":"22","terminal_type":"7inch","bike_numbers":"24548,28253,26813,26083","bike_types":{"4":4},"place_type":"0","rack_locks":"1"},{"uid":"2675985","lat":"52.21759","lng":"21.0096855","name":"Kaczy\u0144skiego - Rektorska","spot":"1","number":"9587","bikes":"3","bike_racks":"19","free_racks":"15","terminal_type":"7inch","bike_numbers":"28621,25771,25493","bike_types":{"4":3},"place_type":"0","rack_locks":"1"},{"uid":"2676298","lat":"52.255871","lng":"21.010043","name":"Veturilko - Sanguszki - Wybrze\u017ce Gda\u0144skie","spot":"1","number":"9716","bikes":"11","bike_racks":"14","free_racks":"4","terminal_type":"7inch","bike_numbers":"24377,24372,24367,24351,24264,24254,24395,24299,24292,24288,24282","bike_types":{"35":5,"34":6},"place_type":"11","rack_locks":"1"},{"uid":"2685255","lat":"52.278754","lng":"20.991692","name":"Veturilko - K\u0119pa Potocka","spot":"1","number":"9711","bikes":"9","bike_racks":"14","free_racks":"6","terminal_type":"7inch","bike_numbers":"24354,24280,24277,24269,24253,24387,24400,24301,24290","bike_types":{"35":3,"34":6},"place_type":"11","rack_locks":"1"},{"uid":"2685262","lat":"52.2918548","lng":"21.0354469","name":"Veturilko - Park Br\u00f3dnowski","spot":"1","number":"9712","bikes":"10","bike_racks":"14","free_racks":"5","terminal_type":"7inch","bike_numbers":"24359,24355,24275,24268,24257,24389,24388,24386,24382,24283","bike_types":{"35":6,"34":4},"place_type":"11","rack_locks":"1"},{"uid":"2685263","lat":"52.252572","lng":"21.02896","name":"Veturilko - Park Praski","spot":"1","number":"9713","bikes":"8","bike_racks":"14","free_racks":"5","terminal_type":"7inch","bike_numbers":"24369,24390,24381,24399,24296,24295,24287,24285","bike_types":{"35":4,"34":4},"place_type":"11","rack_locks":"1"},{"uid":"2685269","lat":"52.210565168555","lng":"20.998365283012","name":"Veturilko - Pole Mokotowskie","spot":"1","number":"9714","bikes":"10","bike_racks":"14","free_racks":"5","terminal_type":"7inch","bike_numbers":"24376,24375,24371,24366,24360,24281,24391,24294,24293,24289","bike_types":{"35":6,"34":4},"place_type":"11","rack_locks":"1"},{"uid":"2685274","lat":"52.238451","lng":"21.05085","name":"Veturilko - Rondo Waszyngtona - Stadion Narodowy","spot":"1","number":"9715","bikes":"2","bike_racks":"14","free_racks":"11","terminal_type":"7inch","bike_numbers":"24272,24252","bike_types":{"34":2},"place_type":"11","rack_locks":"1"},{"uid":"3110680","lat":"52.250032","lng":"21.089511","name":"Szaser\u00f3w - Park J. Poli\u0144skiego","spot":"1","number":"9698","bikes":"7","bike_racks":"23","free_racks":"16","terminal_type":"7inch","bike_numbers":"24019,28697,26881,25496,29213,96496,96471","bike_types":{"26":1,"4":6},"place_type":"0","rack_locks":"1"},{"uid":"3318614","lat":"52.237633","lng":"21.025561","name":"E-bike - Topiel \u2013 Tamka","spot":"1","number":"9701","bikes":"4","bike_racks":"15","free_racks":"11","terminal_type":"7inch","bike_numbers":"24152,24147,24121,24118","bike_types":{"37":4},"place_type":"14","rack_locks":"1"},{"uid":"3318682","lat":"52.245675","lng":"21.01749","name":"E-bike - Sowia","spot":"1","number":"9702","bikes":"14","bike_racks":"15","free_racks":"15","terminal_type":"7inch","bike_numbers":"24192,24178,24175,24174,24172,24170,24161,24155,24154,24145,24132,24129,24104,24206","bike_types":{"37":14},