[{"region_info":{"lat":"52.2345","lng":"21.0024","zoom":"11","name":"VETURILO Poland","hotline":"+4819115","domain":"vp","country":"PL","country_name":"Poland","terms":"http:\/\/www.veturilo.waw.pl\/terms\/?v=201701","policy":"","website":"http:\/\/www.veturilo.waw.pl\/","show_free_racks":"1","booked_bikes":"0","set_point_bikes":"5277","available_bikes":"4626"},"places_summary":{"lngMin":20.8689688,"lngMax":21.120087,"latMin":52.117285,"latMax":52.3485329,"lngAvg":21.007806372598,"latAvg":52.230618632679},"places":[{"uid":"2585259","lat":"52.296298","lng":"20.9583575","name":"Dewajtis - UKSW","spot":"1","number":"9402","bikes":"32","bike_racks":"30","free_racks":"2","terminal_type":"7inch","bike_numbers":"24847,24846,24724,24715,24714,24682,24648,24574,28645,28620,28401,28363,28037,27217,26968,26649,26632,26591,26338,26294,25734,25544,25461,25460,25394,25070,29088,28958,96170,96153,29188,96584","bike_types":{"4":32},"place_type":"0","rack_locks":"1"},{"uid":"2585263","lat":"52.2909738","lng":"20.9295559","name":"Metro M\u0142ociny","spot":"1","number":"9403","bikes":"16","bike_racks":"30","free_racks":"13","terminal_type":"7inch","bike_numbers":"24036,28707,28483,27537,27465,26696,26508,26278,26076,25609,25606,25599,25400,29061,25625,29162","bike_types":{"54":1,"4":15},"place_type":"0","rack_locks":"1"},{"uid":"2585265","lat":"52.2901732","lng":"20.9503698","name":"Marymoncka - Dewajtis","spot":"1","number":"9404","bikes":"16","bike_racks":"30","free_racks":"15","terminal_type":"7inch","bike_numbers":"24907,24543,24509,28901,28370,28217,27966,27929,27540,26991,26242,25848,29010,29428,28911,96285","bike_types":{"4":16},"place_type":"0","rack_locks":"1"},{"uid":"2585267","lat":"52.285914","lng":"20.940561","name":"Metro Wawrzyszew","spot":"1","number":"9405","bikes":"2","bike_racks":"20","free_racks":"19","terminal_type":"7inch","bike_numbers":"24513,24024","bike_types":{"4":1,"26":1},"place_type":"0","rack_locks":"1"},{"uid":"2585269","lat":"52.2336142","lng":"21.0146353","name":"G\u00f3rskiego - Szpitalna","spot":"1","number":"9406","bikes":"10","bike_racks":"16","free_racks":"6","terminal_type":"7inch","bike_numbers":"24673,24459,28351,28319,26201,25716,28858,96254,96150,29163","bike_types":{"4":9,"51":1},"place_type":"0","rack_locks":"1"},{"uid":"2585271","lat":"52.2816265","lng":"20.9498871","name":"Metro Stare Bielany","spot":"1","number":"9407","bikes":"7","bike_racks":"30","free_racks":"19","terminal_type":"7inch","bike_numbers":"24843,28743,27245,26798,25949,25927,28871","bike_types":{"4":7},"place_type":"0","rack_locks":"1"},{"uid":"2585272","lat":"52.2361217","lng":"21.0219096","name":"Ordynacka - Uniwersytet Muzyczny","spot":"1","number":"9408","bikes":"11","bike_racks":"20","free_racks":"8","terminal_type":"7inch","bike_numbers":"24463,28494,28409,28116,27140,26944,25911,25854,25154,96109,96093","bike_types":{"51":1,"4":10},"place_type":"0","rack_locks":"1"},{"uid":"2585273","lat":"52.2768774","lng":"20.9481302","name":"Bielany-Ratusz","spot":"1","number":"9409","bikes":"10","bike_racks":"28","free_racks":"18","terminal_type":"7inch","bike_numbers":"27990,27801,27480,26539,26100,25399,25358,96047,96227,29173","bike_types":{"4":10},"place_type":"0","rack_locks":"1"},{"uid":"2585275","lat":"52.2761569","lng":"20.9616673","name":"Metro S\u0142odowiec","spot":"1","number":"9410","bikes":"5","bike_racks":"30","free_racks":"24","terminal_type":"7inch","bike_numbers":"26363,26079,25137,96466,96374","bike_types":{"4":5},"place_type":"0","rack_locks":"1"},{"uid":"2585278","lat":"52.2777751","lng":"20.9856999","name":"Potocka - OSiR \u017boliborz","spot":"1","number":"9411","bikes":"8","bike_racks":"15","free_racks":"8","terminal_type":"7inch","bike_numbers":"24731,28759,27072,26532,25804,25660,96013,96209","bike_types":{"4":8},"place_type":"0","rack_locks":"1"},{"uid":"2585280","lat":"52.273527782989","lng":"20.994186401367","name":"Gwia\u017adzista - Promyka","spot":"1","number":"9412","bikes":"10","bike_racks":"16","free_racks":"5","terminal_type":"7inch","bike_numbers":"24746,24660,24538,27678,27573,26622,26442,26424,26030,96497","bike_types":{"4":10},"place_type":"0","rack_locks":"1"},{"uid":"2585281","lat":"52.270941","lng":"20.9326269","name":"al. Reymonta - Conrada","spot":"1","number":"9413","bikes":"32","bike_racks":"30","free_racks":"7","terminal_type":"7inch","bike_numbers":"24930,24898,24824,28601,28577,28408,28268,28191,28138,28133,27955,27887,27683,27661,27396,27273,26977,26774,26361,26098,25869,25634,25484,25235,25142,29434,25961,28976,96514,96305,96293,29152","bike_types":{"4":32},"place_type":"0","rack_locks":"1"},{"uid":"2585283","lat":"52.2706441","lng":"20.9504181","name":"Broniewskiego - Perzy\u0144skiego","spot":"1","number":"9414","bikes":"12","bike_racks":"16","free_racks":"9","terminal_type":"7inch","bike_numbers":"24956,24664,24026,24004,28478,28425,28213,26999,26465,26135,25897,96496","bike_types":{"4":10,"26":2},"place_type":"0","rack_locks":"1"},{"uid":"2585284","lat":"52.2714203","lng":"20.9727099","name":"Metro Marymont","spot":"1","number":"9415","bikes":"28","bike_racks":"30","free_racks":"2","terminal_type":"7inch","bike_numbers":"24931,24891,24873,24628,24536,28763,28600,27983,27810,27656,27296,27123,26927,26651,26608,26259,25925,25714,25568,29090,29060,28962,96505,96406,96222,96166,96124,29249","bike_types":{"4":28},"place_type":"0","rack_locks":"1"},{"uid":"2585285","lat":"52.2694081","lng":"20.9833664","name":"Metro Plac Wilsona","spot":"1","number":"9416","bikes":"12","bike_racks":"21","free_racks":"9","terminal_type":"7inch","bike_numbers":"24675,24638,24553,28737,28155,27160,27128,26971,26887,26466,26408,26406","bike_types":{"4":12},"place_type":"0","rack_locks":"1"},{"uid":"2585286","lat":"52.2668623","lng":"20.9637032","name":"Broniewskiego - W\u0142o\u015bcia\u0144ska","spot":"1","number":"9417","bikes":"22","bike_racks":"19","free_racks":"5","terminal_type":"7inch","bike_numbers":"24927,24747,24681,24643,24530,28633,27550,27104,27074,26283,26127,25816,25409,25322,29444,29448,96418,96160,96112,29161,24050,96585","bike_types":{"4":21,"26":1},"place_type":"0","rack_locks":"1"},{"uid":"2585288","lat":"52.2643984","lng":"20.9723179","name":"Broniewskiego - Krasi\u0144skiego","spot":"1","number":"9418","bikes":"11","bike_racks":"16","free_racks":"5","maintenance":"1","terminal_type":"7inch","bike_numbers":"24740,24557,28634,27511,27110,26829,26734,25364,25046,29077,29013","bike_types":{"4":11},"place_type":"0","rack_locks":"1"},{"uid":"2585289","lat":"52.267875","lng":"21.0020667","name":"Wybrze\u017ce Gdy\u0144skie - KS Sp\u00f3jnia","spot":"1","number":"9419","bikes":"11","bike_racks":"15","free_racks":"4","terminal_type":"7inch","bike_numbers":"24966,24639,28533,27686,27673,27143,26199,25118,29065,29127,29228","bike_types":{"4":10,"0":1},"place_type":"0","rack_locks":"1"},{"uid":"2585291","lat":"52.2624054","lng":"20.9802551","name":"Plac Grunwaldzki","spot":"1","number":"9420","bikes":"23","bike_racks":"30","free_racks":"6","terminal_type":"7inch","bike_numbers":"24826,24621,28342,28307,27949,27509,27380,27333,26946,26725,26451,26343,26083,25404,25390,25258,25217,25176,25080,29352,96434,96393,96131","bike_types":{"4":23},"place_type":"0","rack_locks":"1"},{"uid":"2585296","lat":"52.2612575","lng":"20.9863191","name":"Zaj\u0105czka - Bitwy Pod Rokitn\u0105","spot":"1","number":"9421","bikes":"14","bike_racks":"15","free_racks":"2","terminal_type":"7inch","bike_numbers":"24758,24015,28764,28438,28021,27860,27390,27086,26562,25408,25237,96001,96275,96225","bike_types":{"4":13,"26":1},"place_type":"0","rack_locks":"1"},{"uid":"2585297","lat":"52.2645018","lng":"20.9895998","name":"Plac Inwalid\u00f3w","spot":"1","number":"9422","bikes":"17","bike_racks":"15","free_racks":"0","terminal_type":"7inch","bike_numbers":"24501,28547,28025,27956,27907,27844,27782,27543,26997,26516,26427,25755,25272,29123,96380,96350,96578","bike_types":{"4":16,"0":1},"place_type":"0","rack_locks":"1"},{"uid":"2585299","lat":"52.258245356688","lng":"20.898613929749","name":"P\u0119tla Stare Bemowo","spot":"1","number":"9423","bikes":"15","bike_racks":"21","free_racks":"6","terminal_type":"7inch","bike_numbers":"24764,24694,28768,28462,28418,27250,26380,25931,25872,25724,25171,25034,28810,28833,96035","bike_types":{"4":15},"place_type":"0","rack_locks":"1"},{"uid":"2585301","lat":"52.260895125763","lng":"20.923923254013","name":"P\u0119tla Nowe Bemowo","spot":"1","number":"9424","bikes":"20","bike_racks":"25","free_racks":"2","terminal_type":"7inch","bike_numbers":"24790,24576,28282,28260,28149,27898,27253,26786,26773,26477,26449,26290,25220,28935,28934,96008,96321,96314,96233,96206","bike_types":{"4":20},"place_type":"0","rack_locks":"1"},{"uid":"2585304","lat":"52.2575903","lng":"20.9323374","name":"Obro\u0144c\u00f3w Tobruku - Pieni\u0105\u017cka","spot":"1","number":"9425","bikes":"15","bike_racks":"12","free_racks":"0","terminal_type":"7inch","bike_numbers":"24559,24485,28638,28316,27468,27231,26872,26549,26438,25956,25293,25081,29027,96152,96111","bike_types":{"4":14,"51":1},"place_type":"0","rack_locks":"1"},{"uid":"2585305","lat":"52.2593225","lng":"20.9605511","name":"Pow\u0105zkowska - Krasi\u0144skiego","spot":"1","number":"9426","bikes":"30","bike_racks":"23","free_racks":"0","terminal_type":"7inch","bike_numbers":"24944,24924,24906,24798,24698,24652,24486,28358,28324,28210,27690,27639,27539,27486,27459,27309,27164,26279,25955,25864,25830,25278,25259,25189,29039,29028,28776,96443,96311,96298","bike_types":{"4":29,"51":1},"place_type":"0","rack_locks":"1"},{"uid":"2585306","lat":"52.2563145","lng":"20.9682307","name":"Pow\u0105zkowska - Plac Niemena","spot":"1","number":"9427","bikes":"3","bike_racks":"16","free_racks":"15","terminal_type":"7inch","bike_numbers":"24857,27252,26739","bike_types":{"4":3},"place_type":"0","rack_locks":"1"},{"uid":"2585307","lat":"52.258524460024","lng":"20.970931649208","name":"Przasnyska - Rydygiera","spot":"1","number":"9428","bikes":"25","bike_racks":"15","free_racks":"0","terminal_type":"7inch","bike_numbers":"24684,24506,28589,28565,28069,27824,27802,26868,26617,26610,26264,26216,25520,25416,25403,25308,25280,25243,25230,29087,29076,29007,28834,96307,29282","bike_types":{"4":25},"place_type":"0","rack_locks":"1"},{"uid":"2585308","lat":"52.253594","lng":"20.9798744","name":"Pow\u0105zkowska - Burakowska","spot":"1","number":"9429","bikes":"15","bike_racks":"20","free_racks":"5","terminal_type":"7inch","bike_numbers":"28903,28801,28663,28584,28570,28530,28130,27201,26888,26171,25104,29023,28861,96031,96513","bike_types":{"4":15},"place_type":"0","rack_locks":"1"},{"uid":"2585311","lat":"52.2576018","lng":"20.9944975","name":"Metro Dworzec Gda\u0144ski","spot":"1","number":"9430","bikes":"32","bike_racks":"30","free_racks":"0","terminal_type":"7inch","bike_numbers":"24805,24616,24490,28727,28723,28593,28535,28157,28115,27674,27500,27460,27235,27002,26833,26826,26717,26710,26605,26533,26435,26428,26143,26002,25101,29338,29054,28971,28993,96340,96101,29190","bike_types":{"4":31,"51":1},"place_type":"0","rack_locks":"1"},{"uid":"2585315","lat":"52.2465952","lng":"20.9429216","name":"Obozowa - Cio\u0142ka","spot":"1","number":"9432","bikes":"2","bike_racks":"13","free_racks":"12","terminal_type":"7inch","bike_numbers":"28948,28832","bike_types":{"4":2},"place_type":"0","rack_locks":"1"},{"uid":"2585317","lat":"52.227621983552","lng":"20.956758856773","name":"al. Prymasa Tysi\u0105clecia - Kasprzaka","spot":"1","number":"9433","bikes":"15","bike_racks":"23","free_racks":"8","terminal_type":"7inch","bike_numbers":"24542,28476,28457,27765,27132,27055,26776,26299,25379,25340,96053,96362,96236,29178,29166","bike_types":{"4":15},"place_type":"0","rack_locks":"1"},{"uid":"2585319","lat":"52.246037","lng":"20.962463","name":"Obozowa - Radziwie","spot":"1","number":"9434","bikes":"8","bike_racks":"13","free_racks":"3","terminal_type":"7inch","bike_numbers":"24949,24020,27597,27236,26045,96564,96220,29273","bike_types":{"4":7,"26":1},"place_type":"0","rack_locks":"1"},{"uid":"2585321","lat":"52.2514708","lng":"20.9857053","name":"al. Jana Paw\u0142a II - Stawki","spot":"1","number":"9435","bikes":"17","bike_racks":"23","free_racks":"6","terminal_type":"7inch","bike_numbers":"28510,27965,27733,27135,26960,26926,26796,26463,26181,25676,25427,25103,25085,28969,96239,96163,29241","bike_types":{"4":17},"place_type":"0","rack_locks":"1"},{"uid":"2585323","lat":"52.2535305","lng":"20.9924922","name":"Stawki - Dubois","spot":"1","number":"9436","bikes":"8","bike_racks":"13","free_racks":"4","terminal_type":"7inch","bike_numbers":"28885,28474,28039,27828,27626,27419,27173,28831","bike_types":{"4":8},"place_type":"0","rack_locks":"1"},{"uid":"2585326","lat":"52.2541702","lng":"20.9980649","name":"Andersa - Muranowska","spot":"1","number":"9437","bikes":"17","bike_racks":"30","free_racks":"14","terminal_type":"7inch","bike_numbers":"24671,24550,24523,28332,28312,28055,26668,25971,25893,25541,25477,28811,96553,96461,96381,96264,29276","bike_types":{"4":17},"place_type":"0","rack_locks":"1"},{"uid":"2585327","lat":"52.255877","lng":"21.0099819","name":"Sanguszki - Wybrze\u017ce Gda\u0144skie","spot":"1","number":"9438","bikes":"28","bike_racks":"28","free_racks":"0","terminal_type":"7inch","bike_numbers":"24980,24864,24848,24774,24666,28602,28527,28285,27977,27841,27394,26923,26785,26751,26686,26587,26455,26073,25842,25785,25719,25530,25253,29348,29449,28850,96154,29274","bike_types":{"4":28},"place_type":"0","rack_locks":"1"},{"uid":"2585330","lat":"52.24418","lng":"20.97794","name":"Okopowa - Anielewicza","spot":"1","number":"9440","bikes":"10","bike_racks":"20","free_racks":"11","terminal_type":"7inch","bike_numbers":"24813,24584,24526,24495,27934,27152,25880,25134,96436,96100","bike_types":{"4":9,"51":1},"place_type":"0","rack_locks":"1"},{"uid":"2585333","lat":"52.2486","lng":"20.98352","name":"Smocza - Mi\u0142a","spot":"1","number":"9441","bikes":"5","bike_racks":"15","free_racks":"10","terminal_type":"7inch","bike_numbers":"27946,27384,26839,26579,26403","bike_types":{"4":5},"place_type":"0","rack_locks":"1"},{"uid":"2585334","lat":"52.24616","lng":"20.98538","name":"Smocza - Anielewicza","spot":"1","number":"9442","bikes":"6","bike_racks":"17","free_racks":"11","terminal_type":"7inch","bike_numbers":"24520,27470,27443,27247,27161,26864","bike_types":{"4":6},"place_type":"0","rack_locks":"1"},{"uid":"2585335","lat":"52.247226","lng":"20.9893155","name":"al. Jana Paw\u0142a II - Anielewicza","spot":"1","number":"9443","bikes":"7","bike_racks":"22","free_racks":"15","terminal_type":"7inch","bike_numbers":"28504,28313,27723,26527,26068,25159,29048","bike_types":{"4":7},"place_type":"0","rack_locks":"1"},{"uid":"2585337","lat":"52.249052","lng":"20.9948923","name":"Anielewicza - Zamenhofa","spot":"1","number":"9444","bikes":"11","bike_racks":"15","free_racks":"4","terminal_type":"7inch","bike_numbers":"27214,26925,26624,26457,25747,28857,96032,96456,96412,96352,96134","bike_types":{"4":11},"place_type":"0","rack_locks":"1"},{"uid":"2585338","lat":"52.2492196","lng":"20.9971878","name":"Anielewicza - Andersa","spot":"1","number":"9445","bikes":"6","bike_racks":"20","free_racks":"13","terminal_type":"7inch","bike_numbers":"27451,27315,26858,26564,25983,25579","bike_types":{"4":6},"place_type":"0","rack_locks":"1"},{"uid":"2585340","lat":"52.251549","lng":"21.002749","name":"Bonifraterska - Franciszka\u0144ska","spot":"1","number":"9446","bikes":"15","bike_racks":"16","free_racks":"0","terminal_type":"7inch","bike_numbers":"24917,28367,28265,27199,26736,26701,26480,26128,25684,25605,25572,25309,25029,28936,96176","bike_types":{"4":15},"place_type":"0","rack_locks":"1"},{"uid":"2585342","lat":"52.2541119","lng":"21.0093342","name":"Ko\u015bcielna - Piesza","spot":"1","number":"9448","bikes":"16","bike_racks":"26","free_racks":"9","terminal_type":"7inch","bike_numbers":"24781,24623,28754,28736,28417,28299,27706,26879,26413,26336,25290,29347,96019,96528,96200,29258","bike_types":{"4":16},"place_type":"0","rack_locks":"1"},{"uid":"2585344","lat":"52.2392622","lng":"20.8987641","name":"P\u0119tla Os. G\u00f3rczewska","spot":"1","number":"9449","bikes":"27","bike_racks":"15","free_racks":"0","terminal_type":"7inch","bike_numbers":"24631,28429,28335,28192,27968,27892,27771,27497,27417,26955,26496,25831,25661,25456,25241,25197,25138,25113,28959,96433,96348,96271,96255,96159,96102,96082,29238","bike_types":{"4":27},"place_type":"0","rack_locks":"1"},{"uid":"2585345","lat":"52.2389287","lng":"20.9139535","name":"Bemowo-Ratusz","spot":"1","number":"9450","bikes":"17","bike_racks":"20","free_racks":"5","terminal_type":"7inch","bike_numbers":"24835,24603,24507,28667,28098,26871,26470,26439,25892,25805,25801,25668,25105,25095,29339,28809,29221","bike_types":{"4":17},"place_type":"0","rack_locks":"1"},{"uid":"2585346","lat":"52.2387861","lng":"20.9424946","name":"Okocimska - Olbrachta","spot":"1","number":"9451","bikes":"16","bike_racks":"18","free_racks":"2","terminal_type":"7inch","bike_numbers":"24935,24736,24728,24567,25005,25004,27806,27756,26658,25889,25451,29051,29436,28816,96458,96422","bike_types":{"4":16},"place_type":"0","rack_locks":"1"},{"uid":"2585349","lat":"52.2506241","lng":"21.0533611","name":"Dworzec Wschodni - Lubelska","spot":"1","number":"9452","bikes":"14","bike_racks":"15","free_racks":"0","terminal_type":"7inch","bike_numbers":"24964,24787,24528,28721,28603,28468,28387,27440,27353,27276,27263,25570,29447,96229","bike_types":{"4":14},"place_type":"0","rack_locks":"1"},{"uid":"2585351","lat":"52.2369249","lng":"20.9723559","name":"Leszno - M\u0142ynarska","spot":"1","number":"9453","bikes":"2","bike_racks":"30","free_racks":"28","terminal_type":"7inch","bike_numbers":"24023,26136","bike_types":{"26":1,"4":1},"place_type":"0","rack_locks":"1"},{"uid":"2585352","lat":"52.2430451","lng":"20.9803864","name":"Dzielna - Bellottiego","spot":"1","number":"9454","bikes":"11","bike_racks":"13","free_racks":"2","terminal_type":"7inch","bike_numbers":"24928,24655,27953,27669,27351,26780,25611,25554,29103,28827,96500","bike_types":{"4":11},"place_type":"0","rack_locks":"1"},{"uid":"2585353","lat":"52.24108","lng":"20.98316","name":"Wolno\u015b\u0107 - Bellottiego","spot":"1","number":"9455","bikes":"2","bike_racks":"16","free_racks":"13","terminal_type":"7inch","bike_numbers":"24541,96460","bike_types":{"4":2},"place_type":"0","rack_locks":"1"},{"uid":"2585354","lat":"52.2435448","lng":"20.9873507","name":"Smocza - Nowolipki","spot":"1","number":"9456","bikes":"4","bike_racks":"16","free_racks":"11","terminal_type":"7inch","bike_numbers":"27068,26471,29343,96007","bike_types":{"4":4},"place_type":"0","rack_locks":"1"},{"uid":"2585356","lat":"52.2445767","lng":"20.99177","name":"al. Jana Paw\u0142a II - Nowolipki","spot":"1","number":"9457","bikes":"3","bike_racks":"16","free_racks":"11","terminal_type":"7inch","bike_numbers":"28269,28028,26795","bike_types":{"4":3},"place_type":"0","rack_locks":"1"},{"uid":"2585358","lat":"52.22868","lng":"20.91509","name":"Powsta\u0144c\u00f3w \u015al\u0105skich - Cz\u0142uchowska","spot":"1","number":"9458","bikes":"14","bike_racks":"16","free_racks":"6","terminal_type":"7inch","bike_numbers":"24742,28772,28664,28135,27769,27226,26124,26019,25565,25393,29657,96503,96256,29185","bike_types":{"4":14},"place_type":"0","rack_locks":"1"},{"uid":"2585360","lat":"52.2342032","lng":"20.934689","name":"Jana Olbrachta - Antka Rozpylacza","spot":"1","number":"9459","bikes":"21","bike_racks":"13","free_racks":"0","terminal_type":"7inch","bike_numbers":"24625,28817,28677,28263,28047,27970,27945,27676,27646,26876,26823,26764,26553,26543,25487,25397,25311,25022,28808,96004,96181","bike_types":{"4":21},"place_type":"0","rack_locks":"1"},{"uid":"2585364","lat":"52.2401623","lng":"20.9877277","name":"Wola-Ratusz","spot":"1","number":"9460","bikes":"11","bike_racks":"15","free_racks":"4","terminal_type":"7inch","bike_numbers":"24687,25000,28610,27889,27010,26469,25822,29107,96445,96300,96278","bike_types":{"4":11},"place_type":"0","rack_locks":"1"},{"uid":"2585368","lat":"52.2445326","lng":"20.99998","name":"Plac Bankowy - Kino Muran\u00f3w","spot":"1","number":"9462","bikes":"13","bike_racks":"17","free_racks":"4","terminal_type":"7inch","bike_numbers":"24839,27566,27284,27254,27171,26423,26090,25578,25306,25178,25052,96506,96090","bike_types":{"4":13},"place_type":"0","rack_locks":"1"},{"uid":"2585369","lat":"52.2449465","lng":"21.0012943","name":"Andersa - D\u0142uga","spot":"1","number":"9463","bikes":"17","bike_racks":"30","free_racks":"13","terminal_type":"7inch","bike_numbers":"28156,28110,28030,28005,27109,26492,26353,26309,26160,25836,25464,29043,29026,29455,29122,96554,29215","bike_types":{"4":16,"0":1},"place_type":"0","rack_locks":"1"},{"uid":"2585370","lat":"52.2442666","lng":"21.0015893","name":"Marsza\u0142kowska - al. Solidarno\u015bci","spot":"1","number":"9464","bikes":"16","bike_racks":"30","free_racks":"14","terminal_type":"7inch","bike_numbers":"24537,28819,28665,27763,27685,27610,27100,27018,26282,26157,26087,25873,25082,29368,96547,96121","bike_types":{"4":16},"place_type":"0","rack_locks":"1"},{"uid":"2585371","lat":"52.2431975","lng":"21.0016603","name":"Plac Bankowy - Ratusz","spot":"1","number":"9465","bikes":"20","bike_racks":"30","free_racks":"10","terminal_type":"7inch","bike_numbers":"24482,25008,28592,28575,28341,28132,27978,27658,27481,27268,26164,26086,26003,25762,25723,25444,25260,25155,25124,96385","bike_types":{"51":1,"4":19},"place_type":"0","rack_locks":"1"},{"uid":"2585373","lat":"52.2435719","lng":"21.0066801","name":"Senatorska - Biela\u0144ska","spot":"1","number":"9466","bikes":"14","bike_racks":"17","free_racks":"3","terminal_type":"7inch","bike_numbers":"24732,24670,24549,28477,28439,26973,26836,26099,25972,25923,25708,25523,96113,29257","bike_types":{"4":14},"place_type":"0","rack_locks":"1"},{"uid":"2585377","lat":"52.246314509834","lng":"21.0113042593","name":"Miodowa","spot":"1","number":"9467","bikes":"18","bike_racks":"24","free_racks":"7","terminal_type":"7inch","bike_numbers":"24908,24688,24617,24515,26874,26805,26743,26177,25992,25960,25619,25336,25183,28909,96036,96571,96196,96169","bike_types":{"4":18},"place_type":"0","rack_locks":"1"},{"uid":"2585378","lat":"52.2435965","lng":"21.0140803","name":"Krakowskie Przedmie\u015bcie - Tr\u0119backa","spot":"1","number":"9468","bikes":"5","bike_racks":"14","free_racks":"10","terminal_type":"7inch","bike_numbers":"28509,28300,27737,25175,96589","bike_types":{"4":5},"place_type":"0","rack_locks":"1"},{"uid":"2585379","lat":"52.2465625","lng":"21.0174345","name":"Mariensztat","spot":"1","number":"9469","bikes":"10","bike_racks":"15","free_racks":"5","terminal_type":"7inch","bike_numbers":"28549,27795,27544,27192,26895,26248,26001,96310,96292,96077","bike_types":{"4":10},"place_type":"0","rack_locks":"1"},{"uid":"2585381","lat":"52.224934","lng":"20.945489","name":"Jana Kazimierza - Giz\u00f3w","spot":"1","number":"9471","bikes":"17","bike_racks":"13","free_racks":"3","terminal_type":"7inch","bike_numbers":"24707,28574,28540,28272,27515,27022,26885,26791,26454,26156,26097,25476,25372,25188,29014,29361,96268","bike_types":{"4":17},"place_type":"0","rack_locks":"1"},{"uid":"2585385","lat":"52.23016","lng":"20.951558","name":"Wolska - Elekcyjna","spot":"1","number":"9472","bikes":"21","bike_racks":"20","free_racks":"0","terminal_type":"7inch","bike_numbers":"24722,24612,28400,28142,27711,27338,26953,26381,26040,26017,25939,25671,25303,25019,29012,28921,28979,96313,96212,96164,96122","bike_types":{"4":21},"place_type":"0","rack_locks":"1"},{"uid":"2585387","lat":"52.237662392829","lng":"20.955492854118","name":"al. Prymasa Tysi\u0105clecia - G\u00f3rczewska","spot":"1","number":"9473","bikes":"6","bike_racks":"20","free_racks":"14","terminal_type":"7inch","bike_numbers":"28551,28320,27176,25621,96016,96518","bike_types":{"4":6},"place_type":"0","rack_locks":"1"},{"uid":"2585389","lat":"52.2333374","lng":"20.9652776","name":"Wolska - P\u0142ocka","spot":"1","number":"9474","bikes":"18","bike_racks":"15","free_racks":"3","terminal_type":"7inch","bike_numbers":"24837,24782,28672,28644,28347,27896,27455,27027,26831,26580,26519,26057,25858,25717,25585,25156,25073,96318","bike_types":{"4":18},"place_type":"0","rack_locks":"1"},{"uid":"2585391","lat":"52.228522296173","lng":"20.969638824463","name":"Kasprzaka - Skierniewicka","spot":"1","number":"9475","bikes":"2","bike_racks":"21","free_racks":"19","terminal_type":"7inch","bike_numbers":"25981,25580","bike_types":{"4":2},"place_type":"0","rack_locks":"1"},{"uid":"2585394","lat":"52.22898","lng":"20.97843","name":"Kasprzaka - Karolkowa","spot":"1","number":"9476","bikes":"3","bike_racks":"15","free_racks":"12","terminal_type":"7inch","bike_numbers":"26362,26162,29387","bike_types":{"4":3},"place_type":"0","rack_locks":"1"},{"uid":"2585396","lat":"52.2328752","lng":"20.9805411","name":"Muzeum Powstania Warszawskiego","spot":"1","number":"9477","bikes":"8","bike_racks":"10","free_racks":"2","terminal_type":"7inch","bike_numbers":"24832,28453,27995,27547,27272,25685,25332,96479","bike_types":{"4":8,"16":1},"place_type":"0","rack_locks":"1"},{"uid":"2585398","lat":"52.22983","lng":"20.983123","name":"Metro Rondo Daszy\u0144skiego","spot":"1","number":"9478","bikes":"15","bike_racks":"26","free_racks":"10","terminal_type":"7inch","bike_numbers":"24651,24588,28152,27501,27224,27034,26906,26737,26504,26246,26059,29036,28846,96440,96110","bike_types":{"4":15},"place_type":"0","rack_locks":"1"},{"uid":"2585400","lat":"52.23145","lng":"20.98869","name":"Prosta - Wronia","spot":"1","number":"9479","bikes":"8","bike_racks":"15","free_racks":"7","terminal_type":"7inch","bike_numbers":"28017,28004,26301,25589,96462,96334,96276,96099","bike_types":{"4":8},"place_type":"0","rack_locks":"1"},{"uid":"2585401","lat":"52.2373141","lng":"20.9888488","name":"\u017belazna - Ch\u0142odna","spot":"1","number":"9480","bikes":"12","bike_racks":"15","free_racks":"3","terminal_type":"7inch","bike_numbers":"24890,24683,24472,28897,28641,28131,28035,27915,26062,25499,25252,96550","bike_types":{"4":11,"51":1},"place_type":"0","rack_locks":"1"},{"uid":"2585402","lat":"52.2344946","lng":"20.9905117","name":"\u017belazna - Grzybowska","spot":"1","number":"9481","bikes":"22","bike_racks":"20","free_racks":"0","terminal_type":"7inch","bike_numbers":"28608,27269,27216,27166,27157,26963,26800,26354,26325,26318,26203,26159,26158,26093,26049,26020,26011,25441,25135,29086,28952,96423","bike_types":{"4":22},"place_type":"0","rack_locks":"1"},{"uid":"2585405","lat":"52.238666","lng":"20.9957314","name":"al. Jana Paw\u0142a II - Plac Mirowski","spot":"1","number":"9482","bikes":"7","bike_racks":"16","free_racks":"10","terminal_type":"7inch","bike_numbers":"24831,27885,26765,26598,26584,28967,96157","bike_types":{"4":7},"place_type":"0","rack_locks":"1"},{"uid":"2585406","lat":"52.2357151","lng":"20.9966071","name":"al. Jana Paw\u0142a II - Grzybowska","spot":"1","number":"9483","bikes":"9","bike_racks":"23","free_racks":"14","terminal_type":"7inch","bike_numbers":"24983,28617,28559,28461,27524,27447,25382,25182,96114","bike_types":{"4":9},"place_type":"0","rack_locks":"1"},{"uid":"2585410","lat":"52.23958","lng":"21.00027","name":"Ptasia - Zimna","spot":"1","number":"9485","bikes":"1","bike_racks":"16","free_racks":"14","terminal_type":"7inch","bike_numbers":"26422","bike_types":{"4":1},"place_type":"0","rack_locks":"1"},{"uid":"2585412","lat":"52.2336314","lng":"21.0028795","name":"Emilii Plater - \u015awi\u0119tokrzyska","spot":"1","number":"9486","bikes":"15","bike_racks":"26","free_racks":"11","terminal_type":"7inch","bike_numbers":"24951,24002,28588,28271,28112,27789,27760,27415,27202,27190,25353,25629,28837,96168,24048","bike_types":{"4":13,"26":2},"place_type":"0","rack_locks":"1"},{"uid":"2585413","lat":"52.2358704","lng":"21.0037806","name":"Plac Grzybowski","spot":"1","number":"9487","bikes":"8","bike_racks":"26","free_racks":"18","terminal_type":"7inch","bike_numbers":"28626,28208,28044,27275,26749,26583,26046,96411","bike_types":{"4":8},"place_type":"0","rack_locks":"1"},{"uid":"2585416","lat":"52.2384853","lng":"21.0067552","name":"Marsza\u0142kowska - Kr\u00f3lewska","spot":"1","number":"9488","bikes":"12","bike_racks":"19","free_racks":"7","terminal_type":"7inch","bike_numbers":"24804,28876,28761,26980,26714,26061,26028,25378,25100,29454,28966,96386","bike_types":{"4":12},"place_type":"0","rack_locks":"1"},{"uid":"2585417","lat":"52.2364206","lng":"21.0072407","name":"Marsza\u0142kowska - Zielna","spot":"1","number":"9489","bikes":"16","bike_racks":"30","free_racks":"13","terminal_type":"7inch","bike_numbers":"28561,28489,28011,27514,27097,25829,25788,25753,25644,25324,29422,28867,96409,96353,29270,29266","bike_types":{"4":16},"place_type":"0","rack_locks":"1"},{"uid":"2585420","lat":"52.2397008","lng":"21.0119292","name":"Plac Ma\u0142achowskiego","spot":"1","number":"9491","bikes":"20","bike_racks":"16","free_racks":"0","terminal_type":"7inch","bike_numbers":"24640,24040,28128,28033,27902,27619,27609,27165,26863,26720,26698,26603,26462,26270,26185,25793,25594,25482,25432,25039","bike_types":{"4":19,"26":1},"place_type":"0","rack_locks":"1"},{"uid":"2585422","lat":"52.2359114","lng":"21.0135654","name":"Plac Powsta\u0144c\u00f3w Warszawy","spot":"1","number":"9492","bikes":"10","bike_racks":"20","free_racks":"10","terminal_type":"7inch","bike_numbers":"24783,24718,28444,27882,27637,25463,25366,25310,29362,29144","bike_types":{"4":9,"0":1},"place_type":"0","rack_locks":"1"},{"uid":"2585423","lat":"52.2393559","lng":"21.016603","name":"Krakowskie Przedmie\u015bcie - Traugutta","spot":"1","number":"9493","bikes":"12","bike_racks":"24","free_racks":"12","terminal_type":"7inch","bike_numbers":"24999,24876,27935,27838,27744,27707,27262,26922,25913,28916,29432,29231","bike_types":{"4":12},"place_type":"0","rack_locks":"1"},{"uid":"2585429","lat":"52.238298","lng":"21.0184014","name":"Obo\u017ana - Kopernika","spot":"1","number":"9495","bikes":"5","bike_racks":"22","free_racks":"17","terminal_type":"7inch","bike_numbers":"24867,26809,26069,25641,96540","bike_types":{"4":5},"place_type":"0","rack_locks":"1"},{"uid":"2585430","lat":"52.24190654256","lng":"21.024259328842","name":"Lipowa - Dobra","spot":"1","number":"9496","bikes":"19","bike_racks":"19","free_racks":"0","terminal_type":"7inch","bike_numbers":"24856,24502,28637,28517,27774,27712,27527,27473,27439,27054,26840,26243,26184,25740,29426,28826,96427,96373,29203","bike_types":{"4":19},"place_type":"0","rack_locks":"1"},{"uid":"2585431","lat":"52.2413087","lng":"21.0281727","name":"Centrum Nauki Kopernik","spot":"1","number":"9497","bikes":"11","bike_racks":"30","free_racks":"19","terminal_type":"7inch","bike_numbers":"24911,24903,24570,27976,27944,27242,96414,96288,96277,29206,29259","bike_types":{"4":11},"place_type":"0","rack_locks":"1"},{"uid":"2585432","lat":"52.2264464","lng":"20.9837164","name":"Kolejowa","spot":"1","number":"9498","bikes":"3","bike_racks":"16","free_racks":"13","terminal_type":"7inch","bike_numbers":"26010,25720,96520","bike_types":{"4":3},"place_type":"0","rack_locks":"1"},{"uid":"2585433","lat":"52.22983","lng":"20.993996","name":"\u017belazna - Sienna","spot":"1","number":"9499","bikes":"12","bike_racks":"24","free_racks":"13","terminal_type":"7inch","bike_numbers":"28511,27740,27710,27606,26716,26509,26016,25942,25343,25023,29004,28851","bike_types":{"4":12},"place_type":"0","rack_locks":"1"},{"uid":"2585435","lat":"52.230201297582","lng":"20.999550819397","name":"al. Jana Paw\u0142a II - Z\u0142ota","spot":"1","number":"9500","bikes":"0","bike_racks":"16","free_racks":"16","terminal_type":"7inch","place_type":"0","rack_locks":"1","bike_numbers":null,"bike_types":[]},{"uid":"2585438","lat":"52.2309778","lng":"21.0036755","name":"Emilii Plater - Z\u0142ota","spot":"1","number":"9501","bikes":"7","bike_racks":"30","free_racks":"22","terminal_type":"7inch","bike_numbers":"24853,24814,24753,28114,27748,27604,25418","bike_types":{"4":7},"place_type":"0","rack_locks":"1"},{"uid":"2585440","lat":"52.232816601853","lng":"21.006980538368","name":"Pa\u0142ac Kultury i Nauki","spot":"1","number":"9502","bikes":"10","bike_racks":"17","free_racks":"7","terminal_type":"7inch","bike_numbers":"28599,27980,26590,25849,25438,29038,96507,96450,29278,29217","bike_types":{"4":10},"place_type":"0","rack_locks":"1"},{"uid":"2585442","lat":"52.232934","lng":"21.0101791","name":"Marsza\u0142kowska - Z\u0142ota","spot":"1","number":"9503","bikes":"2","bike_racks":"22","free_racks":"20","terminal_type":"7inch","bike_numbers":"24028,27749","bike_types":{"26":1,"4":1},"place_type":"0","rack_locks":"1"},{"uid":"2585445","lat":"52.231987","lng":"21.016092","name":"Bracka - Krucza","spot":"1","number":"9504","bikes":"9","bike_racks":"20","free_racks":"11","terminal_type":"7inch","bike_numbers":"28045,27837,27718,27116,26990,26754,26618,26506,96060","bike_types":{"4":9},"place_type":"0","rack_locks":"1"},{"uid":"2585446","lat":"52.2355713","lng":"21.0179642","name":"Nowy \u015awiat - Warecka","spot":"1","number":"9505","bikes":"14","bike_racks":"24","free_racks":"10","terminal_type":"7inch","bike_numbers":"24950,24492,28752,28424,27809,25760,25446,25058,29056,28829,96009,96551,96290,29264","bike_types":{"4":13,"51":1},"place_type":"0","rack_locks":"1"},{"uid":"2585447","lat":"52.2337571","lng":"21.0202789","name":"Ga\u0142czy\u0144skiego - Foksal","spot":"1","number":"9506","bikes":"10","bike_racks":"24","free_racks":"14","terminal_type":"7inch","bike_numbers":"24974,28690,28074,27692,26942,26816,25696,25601,25043,96017","bike_types":{"4":10},"place_type":"0","rack_locks":"1"},{"uid":"2585450","lat":"52.2375934","lng":"21.0256487","name":"Topiel - Tamka","spot":"1","number":"9507","bikes":"11","bike_racks":"20","free_racks":"9","terminal_type":"7inch","bike_numbers":"28775,28757,28598,28121,27564,26735,26581,25878,25325,96442,96258","bike_types":{"4":11},"place_type":"0","rack_locks":"1"},{"uid":"2585452","lat":"52.2358752","lng":"21.0317323","name":"Solec - Jaracza","spot":"1","number":"9508","bikes":"14","bike_racks":"15","free_racks":"6","terminal_type":"7inch","bike_numbers":"24940,28218,28080,27729,27653,27464,27259,27117,26662,28891,96484,96309,96205,29159","bike_types":{"4":14},"place_type":"0","rack_locks":"1"},{"uid":"2585453","lat":"52.2218874","lng":"20.9795301","name":"al. Jerozolimskie - Niemcewicza","spot":"1","number":"9509","bikes":"7","bike_racks":"19","free_racks":"12","terminal_type":"7inch","bike_numbers":"24965,28596,27395,27179,25991,25691,25020","bike_types":{"4":7},"place_type":"0","rack_locks":"1"},{"uid":"2585455","lat":"52.2222155","lng":"20.9866293","name":"Ochota-Ratusz","spot":"1","number":"9510","bikes":"12","bike_racks":"23","free_racks":"11","terminal_type":"7inch","bike_numbers":"25009,28726,27843,27012,26342,26307,25986,25317,25012,29079,60845,96262","bike_types":{"4":12},"place_type":"0","rack_locks":"1"},{"uid":"2585457","lat":"52.2249718","lng":"20.9897661","name":"Plac Zawiszy","spot":"1","number":"9511","bikes":"2","bike_racks":"24","free_racks":"21","terminal_type":"7inch","bike_numbers":"24902,25730","bike_types":{"4":2},"place_type":"0","rack_locks":"1"},{"uid":"2585460","lat":"52.22626","lng":"20.9961309","name":"al. Jerozolimskie - Lindleya","spot":"1","number":"9512","bikes":"2","bike_racks":"15","free_racks":"13","terminal_type":"7inch","bike_numbers":"28064,26402","bike_types":{"4":2},"place_type":"0","rack_locks":"1"},{"uid":"2585462","lat":"52.2241455","lng":"20.9975244","name":"Lindleya - szpital","spot":"1","number":"9513","bikes":"11","bike_racks":"28","free_racks":"17","terminal_type":"7inch","bike_numbers":"24734,28710,27967,27403,27084,26859,26750,26545,25729,25345,25177","bike_types":{"4":11},"place_type":"0","rack_locks":"1"},{"uid":"2585464","lat":"52.227861","lng":"21.0008509","name":"Warszawa \u015ar\u00f3dmie\u015bcie WKD","spot":"1","number":"9514","bikes":"1","bike_racks":"18","free_racks":"17","terminal_type":"7inch","bike_numbers":"27826","bike_types":{"4":1},"place_type":"0","rack_locks":"1"},{"uid":"2585466","lat":"52.2249555","lng":"21.0031664","name":"Oczki - WUM","spot":"1","number":"9515","bikes":"14","bike_racks":"19","free_racks":"5","terminal_type":"7inch","bike_numbers":"28753,28695,28586,27401,27093,27008,26981,26561,26141,25967,25866,25819,25795,25163","bike_types":{"4":14},"place_type":"0","rack_locks":"1"},{"uid":"2585469","lat":"52.2290464","lng":"21.0054544","name":"Emilii Plater - Al. Jerozolimskie","spot":"1","number":"9517","bikes":"1","bike_racks":"30","free_racks":"30","terminal_type":"7inch","bike_numbers":"27603","bike_types":{"4":1},"place_type":"0","rack_locks":"1"},{"uid":"2585470","lat":"52.2259343","lng":"21.0067537","name":"Emilii Plater - Wsp\u00f3lna","spot":"1","number":"9518","bikes":"7","bike_racks":"15","free_racks":"9","terminal_type":"7inch","bike_numbers":"24943,28769,28464,28216,27580,26586,96141","bike_types":{"4":7},"place_type":"0","rack_locks":"1"},{"uid":"2585472","lat":"52.23001","lng":"21.01088","name":"Metro Centrum","spot":"1","number":"9519","bikes":"8","bike_racks":"30","free_racks":"22","terminal_type":"7inch","bike_numbers":"24755,27876,27651,27295,27020,26131,25319,96394","bike_types":{"4":8},"place_type":"0","rack_locks":"1"},{"uid":"2585473","lat":"52.229347019086","lng":"21.011314988136","name":"Marsza\u0142kowska - Al. Jerozolimskie","spot":"1","number":"9520","bikes":"2","bike_racks":"20","free_racks":"17","terminal_type":"7inch","bike_numbers":"25612,28883","bike_types":{"4":2},"place_type":"0","rack_locks":"1"},{"uid":"2585476","lat":"52.230418150276","lng":"21.013610959053","name":"al. Jerozolimskie - rejon Rotundy","spot":"1","number":"9521","bikes":"13","bike_racks":"24","free_racks":"11","terminal_type":"7inch","bike_numbers":"24976,27677,27426,27024,26989,26488,26358,25279,29092,29372,29435,28895,29198","bike_types":{"4":13},"place_type":"0","rack_locks":"1"},{"uid":"2585477","lat":"52.2262882","lng":"21.0135705","name":"Marsza\u0142kowska - Ho\u017ca","spot":"1","number":"9522","bikes":"15","bike_racks":"15","free_racks":"0","terminal_type":"7inch","bike_numbers":"24979,27961,27786,27770,27702,26822,26267,26232,25704,25344,25193,25128,96533,96253,96586","bike_types":{"4":15},"place_type":"0","rack_locks":"1"},{"uid":"2585492","lat":"52.2282923","lng":"21.0178542","name":"Krucza - Wsp\u00f3lna","spot":"1","number":"9523","bikes":"24","bike_racks":"28","free_racks":"3","terminal_type":"7inch","bike_numbers":"24602,28548,27832,27631,27428,27375,27277,27195,27092,27007,26962,26441,26266,26219,25898,25771,25731,25658,25261,96566,96417,96351,96322,29211","bike_types":{"4":24},"place_type":"0","rack_locks":"1"},{"uid":"2585684","lat":"52.23144","lng":"21.0213036","name":"Rondo de Gaulle'a","spot":"1","number":"9524","bikes":"13","bike_racks":"22","free_racks":"8","terminal_type":"7inch","bike_numbers":"28486,28079,27087,26907,26760,26630,26596,26379,25669,96535,96197,29154,29242","bike_types":{"4":13},"place_type":"0","rack_locks":"1"},{"uid":"2585694","lat":"52.2278487","lng":"21.0235084","name":"Plac Trzech Krzy\u017cy","spot":"1","number":"9525","bikes":"16","bike_racks":"23","free_racks":"7","maintenance":"1","terminal_type":"7inch","bike_numbers":"24580,28146,27747,27629,27523,27433,27183,27181,26399,26313,25895,25604,25555,29104,29195,29260","bike_types":{"4":16},"place_type":"0","rack_locks":"1"},{"uid":"2585695","lat":"52.23324","lng":"21.0261179","name":"Smolna - PKP Powi\u015ble","spot":"1","number":"9526","bikes":"1","bike_racks":"18","free_racks":"17","terminal_type":"7inch","bike_numbers":"25984","bike_types":{"4":1},"place_type":"0","rack_locks":"1"},{"uid":"2585699","lat":"52.2340191","lng":"21.0300328","name":"Herberta - PKP Powi\u015ble","spot":"1","number":"9527","bikes":"16","bike_racks":"26","free_racks":"18","terminal_type":"7inch","bike_numbers":"24933,27371,27130,27096,26192,26037,25948,25837,25675,25643,25540,25449,25244,25071,29419,28840","bike_types":{"4":16},"place_type":"0","rack_locks":"1"},{"uid":"2585704","lat":"52.2347879","lng":"21.0340991","name":"Solec - al. 3 Maja","spot":"1","number":"9528","bikes":"4","bike_racks":"24","free_racks":"21","terminal_type":"7inch","bike_numbers":"24995,28472,27633,25773","bike_types":{"4":4},"place_type":"0","rack_locks":"1"},{"uid":"2585708","lat":"52.2301405","lng":"21.0303694","name":"Ksi\u0105\u017c\u0119ca - Rozbrat","spot":"1","number":"9529","bikes":"15","bike_racks":"15","free_racks":"0","terminal_type":"7inch","bike_numbers":"24510,28653,27835,27611,27108,26988,26673,26252,25360,25254,25219,29445,96527,96510,96125","bike_types":{"4":15},"place_type":"0","rack_locks":"1"},{"uid":"2585711","lat":"52.2172177","lng":"20.9713608","name":"Szcz\u0119\u015bliwicka - APS","spot":"1","number":"9530","bikes":"3","bike_racks":"22","free_racks":"19","terminal_type":"7inch","bike_numbers":"24592,26917,96006","bike_types":{"4":3},"place_type":"0","rack_locks":"1"},{"uid":"2585712","lat":"52.2179474","lng":"20.9775567","name":"Kopi\u0144ska - Bia\u0142obrzeska","spot":"1","number":"9531","bikes":"11","bike_racks":"15","free_racks":"4","terminal_type":"7inch","bike_numbers":"24958,24946,27587,27043,26932,26453,26334,25548,25457,25129,96504","bike_types":{"4":11},"place_type":"0","rack_locks":"1"},{"uid":"2585714","lat":"52.2178554","lng":"20.9828138","name":"Plac Narutowicza","spot":"1","number":"9532","bikes":"10","bike_racks":"30","free_racks":"20","terminal_type":"7inch","bike_numbers":"24914,24818,24478,24033,27430,27082,26546,26319,26210,96251","bike_types":{"4":8,"51":1,"26":1},"place_type":"0","rack_locks":"1"},{"uid":"2585716","lat":"52.216641","lng":"20.9879476","name":"Raszy\u0144ska - Wawelska","spot":"1","number":"9533","bikes":"2","bike_racks":"20","free_racks":"17","terminal_type":"7inch","bike_numbers":"25315,29458","bike_types":{"4":2},"place_type":"0","rack_locks":"1"},{"uid":"2585717","lat":"52.2191029","lng":"20.9890149","name":"Raszy\u0144ska - Filtrowa","spot":"1","number":"9534","bikes":"3","bike_racks":"22","free_racks":"16","terminal_type":"7inch","bike_numbers":"27867,27270,26261","bike_types":{"4":3},"place_type":"0","rack_locks":"1"},{"uid":"2585720","lat":"52.220676","lng":"21.0045554","name":"al. Niepodleg\u0142o\u015bci - Nowowiejska","spot":"1","number":"9535","bikes":"18","bike_racks":"30","free_racks":"13","terminal_type":"7inch","bike_numbers":"28036,27823,26983,26938,26890,26821,26518,26369,26115,26063,25508,25422,25196,25125,28910,29656,96477,96177","bike_types":{"4":18},"place_type":"0","rack_locks":"1"},{"uid":"2585721","lat":"52.2174693","lng":"21.0056537","name":"Kaczy\u0144skiego - al. Niepodleg\u0142o\u015bci","spot":"1","number":"9536","bikes":"3","bike_racks":"16","free_racks":"12","terminal_type":"7inch","bike_numbers":"26388,26286,29452","bike_types":{"4":3},"place_type":"0","rack_locks":"1"},{"uid":"2585722","lat":"52.2226831","lng":"21.0081097","name":"Noakowskiego - Koszykowa","spot":"1","number":"9537","bikes":"9","bike_racks":"24","free_racks":"14","terminal_type":"7inch","bike_numbers":"24779,28714,28449,27993,27963,27044,26039,25369,29433","bike_types":{"4":9},"place_type":"0","rack_locks":"1"},{"uid":"2585724","lat":"52.219916","lng":"21.0116824","name":"Plac Politechniki","spot":"1","number":"9538","bikes":"12","bike_racks":"27","free_racks":"15","terminal_type":"7inch","bike_numbers":"24663,28708,28211,28207,28158,27410,27146,26657,26118,25778,25084,28946","bike_types":{"4":12},"place_type":"0","rack_locks":"1"},{"uid":"2585727","lat":"52.223503","lng":"21.0128519","name":"Pozna\u0144ska - Zesp\u00f3\u0142 Szk\u00f3\u0142 Gastronomicznych","spot":"1","number":"9539","bikes":"13","bike_racks":"18","free_racks":"4","terminal_type":"7inch","bike_numbers":"24657,24654,28446,28212,27924,27563,26830,26705,26206,29112,29374,25626,96174","bike_types":{"4":13},"place_type":"0","rack_locks":"1"},{"uid":"2585728","lat":"52.2174857","lng":"21.0142949","name":"Rondo Jazdy Polskiej","spot":"1","number":"9540","bikes":"2","bike_racks":"24","free_racks":"22","terminal_type":"7inch","bike_numbers":"28379,26936","bike_types":{"4":2},"place_type":"0","rack_locks":"1"},{"uid":"2585729","lat":"52.2197435","lng":"21.0157353","name":"ul. Wary\u0144skiego-ul. Nowowiejska-Metro Politechnika ","spot":"1","number":"9541","bikes":"9","bike_racks":"18","free_racks":"11","terminal_type":"7inch","bike_numbers":"24987,24820,28662,28458,25938,25013,29050,29647,28828","bike_types":{"4":9},"place_type":"0","rack_locks":"1"},{"uid":"2585731","lat":"52.2197681","lng":"21.0172775","name":"Plac Zbawiciela","spot":"1","number":"9542","bikes":"1","bike_racks":"12","free_racks":"10","terminal_type":"7inch","bike_numbers":"29280","bike_types":{"4":1},"place_type":"0","rack_locks":"1"},{"uid":"2585735","lat":"52.2229427","lng":"21.0158211","name":"Plac Konstytucji","spot":"1","number":"9543","bikes":"8","bike_racks":"30","free_racks":"21","terminal_type":"7inch","bike_numbers":"28745,27988,27318,25886,25232,28991,96022,96188","bike_types":{"4":8},"place_type":"0","rack_locks":"1"},{"uid":"2585737","lat":"52.2238152","lng":"21.0207859","name":"Mokotowska - Pi\u0119kna","spot":"1","number":"9544","bikes":"7","bike_racks":"20","free_racks":"11","terminal_type":"7inch","bike_numbers":"24838,28683,27369,27368,25618,25454,25414","bike_types":{"4":7},"place_type":"0","rack_locks":"1"},{"uid":"2585738","lat":"52.2200212","lng":"21.0256299","name":"Plac na Rozdro\u017cu","spot":"1","number":"9545","bikes":"0","bike_racks":"26","free_racks":"26","terminal_type":"7inch","place_type":"0","rack_locks":"1","bike_numbers":null,"bike_types":[]},{"uid":"2585742","lat":"52.2249504","lng":"21.0268155","name":"Matejki - Wiejska","spot":"1","number":"9546","bikes":"5","bike_racks":"20","free_racks":"15","terminal_type":"7inch","bike_numbers":"27282,25900,25792,25347,29136","bike_types":{"4":4,"0":1},"place_type":"0","rack_locks":"1"},{"uid":"2585747","lat":"52.2221129","lng":"21.0343873","name":"My\u015bliwiecka - Rozbrat","spot":"1","number":"9547","bikes":"8","bike_racks":"21","free_racks":"12","terminal_type":"7inch","bike_numbers":"26910,26889,26741,26514,26137,26095,26042,96492","bike_types":{"4":8},"place_type":"0","rack_locks":"1"},{"uid":"2585748","lat":"52.2277124","lng":"21.0442955","name":"Port Czerniakowski","spot":"1","number":"9548","bikes":"28","bike_racks":"30","free_racks":"11","terminal_type":"7inch","bike_numbers":"24874,24865,24802,28579,28573,28516,28495,28375,28355,27836,27796,27640,27256,27218,27125,26585,26490,26478,25694,25575,25299,29083,29459,25622,28972,96026,96565,96583","bike_types":{"4":28},"place_type":"0","rack_locks":"1"},{"uid":"2585749","lat":"52.2109711","lng":"20.9759125","name":"Gr\u00f3jecka - Bitwy Warszawskiej 1920 roku","spot":"1","number":"9549","bikes":"3","bike_racks":"20","free_racks":"17","terminal_type":"7inch","bike_numbers":"28740,29344,96056","bike_types":{"4":3},"place_type":"0","rack_locks":"1"},{"uid":"2585750","lat":"52.2130296","lng":"20.9819985","name":"Pasteura - Winnicka - UW","spot":"1","number":"9550","bikes":"11","bike_racks":"24","free_racks":"13","terminal_type":"7inch","bike_numbers":"24455,28739,28393,27355,27156,27079,26222,26047,25947,25388,29189","bike_types":{"51":1,"4":10},"place_type":"0","rack_locks":"1"},{"uid":"2585762","lat":"52.2107722","lng":"20.9847557","name":"Stefana Banacha - UW","spot":"1","number":"9551","bikes":"31","bike_racks":"29","free_racks":"1","terminal_type":"7inch","bike_numbers":"24786,24043,28635,28329,27913,27854,27819,27432,27215,27209,26958,26727,26552,26494,26432,26006,25748,25635,25547,25320,25282,25277,25270,25222,29034,28919,28884,96509,96471,96372,29227","bike_types":{"4":30,"26":1},"place_type":"0","rack_locks":"1"},{"uid":"2585764","lat":"52.212671","lng":"21.003437","name":"Biblioteka Narodowa","spot":"1","number":"9552","bikes":"0","bike_racks":"24","free_racks":"24","terminal_type":"7inch","place_type":"0","rack_locks":"1","bike_numbers":null,"bike_types":[]},{"uid":"2585766","lat":"52.21691","lng":"21.01997","name":"Marsza\u0142kowska - Litewska","spot":"1","number":"9553","bikes":"5","bike_racks":"15","free_racks":"11","terminal_type":"7inch","bike_numbers":"24518,28623,27266,26029,25519","bike_types":{"4":5},"place_type":"0","rack_locks":"1"},{"uid":"2585770","lat":"52.2083858","lng":"20.9631103","name":"P\u0119tla Szcz\u0119\u015bliwice","spot":"1","number":"9554","bikes":"22","bike_racks":"19","free_racks":"1","terminal_type":"7inch","bike_numbers":"24629,28904,28668,28062,27848,27582,27211,26852,26742,26236,26013,25920,25877,25844,25469,25086,29071,29017,29431,29134,96572,96323","bike_types":{"4":22},"place_type":"0","rack_locks":"1"},{"uid":"2585771","lat":"52.206153650625","lng":"20.970287919044","name":"Dickensa - Geodet\u00f3w","spot":"1","number":"9555","bikes":"1","bike_racks":"16","free_racks":"15","terminal_type":"7inch","bike_numbers":"29169","bike_types":{"4":1},"place_type":"0","rack_locks":"1"},{"uid":"2585772","lat":"52.205361371875","lng":"20.984664559364","name":"\u017bwirki i Wigury - Ksi\u0119cia Trojdena","spot":"1","number":"9556","bikes":"10","bike_racks":"17","free_racks":"6","terminal_type":"7inch","bike_numbers":"28479,27866,27719,27324,27317,26748,25112,28815,96469,96217","bike_types":{"4":10},"place_type":"0","rack_locks":"1"},{"uid":"2585774","lat":"52.205801893754","lng":"20.998928546906","name":"Rakowiecka - \u015aw. A. Boboli","spot":"1","number":"9557","bikes":"6","bike_racks":"17","free_racks":"10","terminal_type":"7inch","bike_numbers":"24717,27483,27228,26873,29365,96055","bike_types":{"4":6},"place_type":"0","rack_locks":"1"},{"uid":"2585776","lat":"52.209916","lng":"21.0067794","name":"al. Niepodleg\u0142o\u015bci - Batorego","spot":"1","number":"9558","bikes":"4","bike_racks":"26","free_racks":"23","terminal_type":"7inch","bike_numbers":"24716,28038,27244,25069","bike_types":{"4":4},"place_type":"0","rack_locks":"1"},{"uid":"2585779","lat":"52.2132375","lng":"21.0210568","name":"Plac Unii Lubelskiej","spot":"1","number":"9559","bikes":"21","bike_racks":"24","free_racks":"2","terminal_type":"7inch","bike_numbers":"24637,24605,28473,28376,27969,27964,27434,27058,27028,26663,26415,25728,25718,25642,25528,29080,28941,96493,96286,96186,96156","bike_types":{"4":21},"place_type":"0","rack_locks":"1"},{"uid":"2585781","lat":"52.2027557","lng":"20.9508951","name":"W\u0142odarzewska - Maszynowa","spot":"1","number":"9560","bikes":"2","bike_racks":"18","free_racks":"16","terminal_type":"7inch","bike_numbers":"25314,29252","bike_types":{"4":2},"place_type":"0","rack_locks":"1"},{"uid":"2585782","lat":"52.2017647","lng":"20.9820897","name":"Sanocka - Pruszkowska","spot":"1","number":"9561","bikes":"8","bike_racks":"15","free_racks":"7","terminal_type":"7inch","bike_numbers":"24860,24713,24582,28193,27255,26372,25620,96444","bike_types":{"4":8},"place_type":"0","rack_locks":"1"},{"uid":"2585785","lat":"52.1981365","lng":"20.9833717","name":"\u017bwirki i Wigury - Rac\u0142awicka","spot":"1","number":"9562","bikes":"1","bike_racks":"18","free_racks":"17","terminal_type":"7inch","bike_numbers":"24920","bike_types":{"4":1},"place_type":"0","rack_locks":"1"},{"uid":"2585787","lat":"52.20177","lng":"20.99969","name":"Wo\u0142oska - Kulskiego","spot":"1","number":"9563","bikes":"1","bike_racks":"15","free_racks":"13","terminal_type":"7inch","bike_numbers":"25145","bike_types":{"4":1},"place_type":"0","rack_locks":"1"},{"uid":"2585788","lat":"52.2042638","lng":"21.014428","name":"Madali\u0144skiego - Kazimierzowska","spot":"1","number":"9564","bikes":"17","bike_racks":"24","free_racks":"6","terminal_type":"7inch","bike_numbers":"24881,24858,28279,27213,27045,26993,26929,26613,26321,26112,25856,25686,25654,25562,25431,25226,96151","bike_types":{"4":17},"place_type":"0","rack_locks":"1"},{"uid":"2585789","lat":"52.2055175","lng":"21.0231033","name":"Pu\u0142awska - Dworkowa","spot":"1","number":"9565","bikes":"7","bike_racks":"19","free_racks":"12","terminal_type":"7inch","bike_numbers":"24765,27635,26854,26052,25695,25592,28814","bike_types":{"4":7},"place_type":"0","rack_locks":"1"},{"uid":"2585790","lat":"52.2071756","lng":"21.0312643","name":"Belwederska - Gagarina","spot":"1","number":"9566","bikes":"29","bike_racks":"30","free_racks":"1","terminal_type":"7inch","bike_numbers":"24470,28869,28582,28259,28154,28012,27979,27911,27883,27831,27409,27063,26975,26940,26919,26900,26652,26597,26445,26132,25843,25535,25524,25216,25158,29649,96028,96010,96076","bike_types":{"51":1,"4":28},"place_type":"0","rack_locks":"1"},{"uid":"2585791","lat":"52.2074193","lng":"21.0479621","name":"Czerniakowska - Gagarina","spot":"1","number":"9567","bikes":"22","bike_racks":"25","free_racks":"3","terminal_type":"7inch","bike_numbers":"24816,24645,28604,28546,28459,28421,28286,28136,27927,27732,27071,26709,26699,26285,25542,25133,25050,29044,28830,28900,28977,29172","bike_types":{"4":22},"place_type":"0","rack_locks":"1"},{"uid":"2585794","lat":"52.1938131","lng":"20.9914431","name":"Etiudy Rewolucyjnej - Mi\u0105czy\u0144ska","spot":"1","number":"9568","bikes":"16","bike_racks":"18","free_racks":"9","terminal_type":"7inch","bike_numbers":"24828,28640,28384,28338,28262,27577,27477,27095,26916,26167,25862,25586,25465,29113,96033,96416","bike_types":{"4":16},"place_type":"0","rack_locks":"1"},{"uid":"2585799","lat":"52.1994156","lng":"21.0121384","name":"Metro Rac\u0142awicka","spot":"1","number":"9570","bikes":"7","bike_racks":"30","free_racks":"24","terminal_type":"7inch","bike_numbers":"27198,27051,26359,25761,25223,29089,28943","bike_types":{"4":7},"place_type":"0","rack_locks":"1"},{"uid":"2585800","lat":"52.199505","lng":"21.0240975","name":"Pu\u0142awska - Dolna","spot":"1","number":"9571","bikes":"3","bike_racks":"18","free_racks":"15","terminal_type":"7inch","bike_numbers":"24910,28576,60855","bike_types":{"4":3},"place_type":"0","rack_locks":"1"},{"uid":"2585802","lat":"52.2014754","lng":"21.0360047","name":"Sobieskiego - Che\u0142mska","spot":"1","number":"9572","bikes":"17","bike_racks":"15","free_racks":"0","terminal_type":"7inch","bike_numbers":"24925,24517,24497,28283,28104,28071,27859,27741,27420,26573,26180,25206,96366,96342,96279,96260,96187","bike_types":{"4":16,"51":1},"place_type":"0","rack_locks":"1"},{"uid":"2585804","lat":"52.1998446","lng":"21.05095","name":"Czerniakowska - ZUS","spot":"1","number":"9573","bikes":"10","bike_racks":"15","free_racks":"4","terminal_type":"7inch","bike_numbers":"24754,24627,28445,28356,26308,26133,25924,25914,28852,29207","bike_types":{"4":10},"place_type":"0","rack_locks":"1"},{"uid":"2585807","lat":"52.1916776","lng":"20.8689688","name":"PKP Ursus-Nied\u017awiadek","spot":"1","number":"9574","bikes":"11","bike_racks":"15","free_racks":"4","terminal_type":"7inch","bike_numbers":"24744,24465,28905,27598,27205,25922,25888,25840,29131,96512,96345","bike_types":{"4":9,"51":1,"0":1},"place_type":"0","rack_locks":"1"},{"uid":"2585808","lat":"52.1960469","lng":"20.8849347","name":"PKP Ursus","spot":"1","number":"9575","bikes":"8","bike_racks":"16","free_racks":"8","terminal_type":"7inch","bike_numbers":"28336,28287,28083,26602,26328,25835,25221,29639","bike_types":{"4":8},"place_type":"0","rack_locks":"1"},{"uid":"2585809","lat":"52.1869936","lng":"20.8906478","name":"Sosnkowskiego - OSiR Ursus","spot":"1","number":"9576","bikes":"13","bike_racks":"15","free_racks":"5","terminal_type":"7inch","bike_numbers":"28122,27569,27508,26676,26659,26431,26397,26393,25667,25436,25256,28893,96091","bike_types":{"4":13},"place_type":"0","rack_locks":"1"},{"uid":"2585811","lat":"52.2005548","lng":"20.8937538","name":"Ursus-Ratusz","spot":"1","number":"9577","bikes":"5","bike_racks":"15","free_racks":"10","terminal_type":"7inch","bike_numbers":"28591,25733,25655,28825,96364","bike_types":{"4":5},"place_type":"0","rack_locks":"1"},{"uid":"2585814","lat":"52.1906376","lng":"20.8999443","name":"Skoroszewska - Prystora","spot":"1","number":"9578","bikes":"13","bike_racks":"17","free_racks":"4","terminal_type":"7inch","bike_numbers":"28460,27942,27131,27047,26755,26339,26024,25304,25194,28842,96525,96400,96301","bike_types":{"4":13},"place_type":"0","rack_locks":"1"},{"uid":"2585817","lat":"52.1882609","lng":"20.9603771","name":"G\u0142adka - OSiR W\u0142ochy","spot":"1","number":"9579","bikes":"12","bike_racks":"16","free_racks":"4","terminal_type":"7inch","bike_numbers":"24596,28636,28538,28049,27813,27416,26528,26500,26426,26065,25664,96259","bike_types":{"4":12},"place_type":"0","rack_locks":"1"},{"uid":"2585820","lat":"52.2056441","lng":"20.9159142","name":"PKP W\u0142ochy","spot":"1","number":"9580","bikes":"8","bike_racks":"17","free_racks":"9","terminal_type":"7inch","bike_numbers":"24674,28325,28304,28117,26974,25517,25428,25363","bike_types":{"4":8},"place_type":"0","rack_locks":"1"},{"uid":"2585821","lat":"52.2012157","lng":"20.9353145","name":"al. Jerozolimskie - Popularna","spot":"1","number":"9581","bikes":"12","bike_racks":"17","free_racks":"5","terminal_type":"7inch","bike_numbers":"24466,28899,28318,28009,27386,27370,26843,26614,26215,25413,25262,29652","bike_types":{"51":1,"4":11},"place_type":"0","rack_locks":"1"},{"uid":"2585824","lat":"52.1924709","lng":"20.9596664","name":"W\u0142ochy-Ratusz","spot":"1","number":"9582","bikes":"14","bike_racks":"14","free_racks":"0","terminal_type":"7inch","bike_numbers":"28327,27919,27743,27727,27493,27005,26510,25199,29106,28847,28838,96274,96237,29164","bike_types":{"4":14},"place_type":"0","rack_locks":"1"},{"uid":"2585825","lat":"52.1946888","lng":"20.9667823","name":"1 Sierpnia - DK W\u0142ochy","spot":"1","number":"9583","bikes":"9","bike_racks":"15","free_racks":"7","terminal_type":"7inch","bike_numbers":"28003,26878,26125,25853,25434,29200,28942,29359,25631","bike_types":{"4":9},"place_type":"0","rack_locks":"1"},{"uid":"2585827","lat":"52.1888962","lng":"21.0175887","name":"Metro Wierzbno","spot":"1","number":"9584","bikes":"14","bike_racks":"20","free_racks":"7","terminal_type":"7inch","bike_numbers":"24690,28713,28029,26556,26304,26230,26146,25678,25648,25425,25295,25234,29055,96244","bike_types":{"4":14},"place_type":"0","rack_locks":"1"},{"uid":"2585830","lat":"52.18648","lng":"21.02538","name":"Pu\u0142awska - Idzikowskiego","spot":"1","number":"9585","bikes":"5","bike_racks":"17","free_racks":"13","terminal_type":"7inch","bike_numbers":"28497,26746,26640,25826,25758","bike_types":{"4":5},"place_type":"0","rack_locks":"1"},{"uid":"2585835","lat":"52.1882861","lng":"21.0498825","name":"Sobieskiego - Mangalia","spot":"1","number":"9586","bikes":"9","bike_racks":"15","free_racks":"5","terminal_type":"7inch","bike_numbers":"24697,24471,24011,27641,27418,27293,26476,25851,96024","bike_types":{"4":7,"51":1,"26":1},"place_type":"0","rack_locks":"1"},{"uid":"2585837","lat":"52.178777","lng":"21.0016387","name":"Wo\u0142oska - Marynarska","spot":"1","number":"9588","bikes":"14","bike_racks":"26","free_racks":"11","terminal_type":"7inch","bike_numbers":"24823,24695,28107,28008,27454,26612,26375,25921,25316,25240,25151,29427,96495,29158","bike_types":{"4":14},"place_type":"0","rack_locks":"1"},{"uid":"2585838","lat":"52.1800882","lng":"21.0207403","name":"al. Niepodleg\u0142o\u015bci - al. Wilanowska","spot":"1","number":"9589","bikes":"14","bike_racks":"22","free_racks":"8","terminal_type":"7inch","bike_numbers":"24768,28032,27222,27219,27088,26726,26376,25702,25380,25116,25061,96428,96272,29279","bike_types":{"4":14},"place_type":"0","rack_locks":"1"},{"uid":"2585839","lat":"52.1779163","lng":"21.049562","name":"P\u0119tla Stegny","spot":"1","number":"9590","bikes":"20","bike_racks":"23","free_racks":"6","terminal_type":"7inch","bike_numbers":"24827,24458,27695,27466,27391,27297,27039,26861,25945,25333,25111,25059,25026,29648,63626,63625,96515,96312,29268,29250","bike_types":{"4":19,"51":1},"place_type":"0","rack_locks":"1"},{"uid":"2585843","lat":"52.1818472","lng":"21.0562822","name":"Sobieskiego - \u015bw. Bonifacego","spot":"1","number":"9591","bikes":"14","bike_racks":"22","free_racks":"7","terminal_type":"7inch","bike_numbers":"24737,28334,28111,28015,27402,27066,26070,26038,26005,25846,25828,25639,96043,29234","bike_types":{"4":14},"place_type":"0","rack_locks":"1"},{"uid":"2585844","lat":"52.1702836","lng":"20.9959132","name":"P\u0119tla Bokserska","spot":"1","number":"9592","bikes":"7","bike_racks":"15","free_racks":"8","terminal_type":"7inch","bike_numbers":"28666,27962,27654,26356,25495,25173,25958","bike_types":{"4":7},"place_type":"0","rack_locks":"1"},{"uid":"2585846","lat":"52.1710498","lng":"21.0059144","name":"Gintrowskiego - Gotarda","spot":"1","number":"9593","bikes":"1","bike_racks":"15","free_racks":"14","terminal_type":"7inch","bike_numbers":"27114","bike_types":{"4":1},"place_type":"0","rack_locks":"1"},{"uid":"2585848","lat":"52.174435","lng":"21.0128814","name":"al. Lotnik\u00f3w - Kaczmarskiego","spot":"1","number":"9594","bikes":"18","bike_racks":"30","free_racks":"11","terminal_type":"7inch","bike_numbers":"24929,24656,24522,24489,28717,28696,28556,28437,27772,26639,26524,25800,25610,25595,25186,25153,28964,29208","bike_types":{"4":17,"51":1},"place_type":"0","rack_locks":"1"},{"uid":"2585850","lat":"52.1733132","lng":"21.0257305","name":"Metro S\u0142u\u017cew","spot":"1","number":"9595","bikes":"15","bike_racks":"24","free_racks":"8","terminal_type":"7inch","bike_numbers":"24762,24512,28622,26813,26781,26752,26474,26436,26280,25912,25236,25102,25031,96202,29220","bike_types":{"4":15},"place_type":"0","rack_locks":"1"},{"uid":"2585853","lat":"52.17343","lng":"21.03179","name":"Wa\u0142brzyska - Wr\u00f3bla","spot":"1","number":"9596","bikes":"14","bike_racks":"30","free_racks":"16","terminal_type":"7inch","bike_numbers":"28520,28002,27812,27556,27399,27036,26544,26324,26322,25789,25426,25251,96488,96355","bike_types":{"4":14},"place_type":"0","rack_locks":"1"},{"uid":"2585856","lat":"52.170135","lng":"21.0685748","name":"Jana III Sobieskiego - al. Wilanowska","spot":"1","number":"9597","bikes":"26","bike_racks":"15","free_racks":"0","terminal_type":"7inch","bike_numbers":"24981,24590,24012,28729,28493,28413,27614,27153,26664,26458,26389,26365,26262,26148,25999,25818,25459,25385,25214,25204,25045,28951,29141,96303,96270,29153","bike_types":{"4":24,"26":1,"0":1},"place_type":"0","rack_locks":"1"},{"uid":"2585860","lat":"52.1655879","lng":"21.0839331","name":"al. Wilanowska - Przycz\u00f3\u0142kowa","spot":"1","number":"9598","bikes":"12","bike_racks":"16","free_racks":"3","terminal_type":"7inch","bike_numbers":"24610,28051,27407,26677,26333,26114,25507,25501,28800,63630,96162,29201","bike_types":{"4":12},"place_type":"0","rack_locks":"1"},{"uid":"2585863","lat":"52.16479","lng":"21.10925","name":"Vogla - Syta","spot":"1","number":"9599","bikes":"11","bike_racks":"16","free_racks":"5","terminal_type":"7inch","bike_numbers":"28528,28433,28256,27834,27825,27474,27373,26434,26345,25808,29095","bike_types":{"4":11},"place_type":"0","rack_locks":"1"},{"uid":"2585868","lat":"52.1606257","lng":"21.0723245","name":"al. Rzeczypospolitej - Klimczaka","spot":"1","number":"9600","bikes":"20","bike_racks":"16","free_racks":"0","terminal_type":"7inch","bike_numbers":"28804,28365,28361,28215,28108,28048,27992,27923,27894,27713,27549,27461,27234,26512,25352,29342,28997,96280,96245,96178","bike_types":{"4":20},"place_type":"0","rack_locks":"1"},{"uid":"2585871","lat":"52.1569168","lng":"21.0760903","name":"al. Rzeczypospolitej - Branickiego","spot":"1","number":"9601","bikes":"15","bike_racks":"16","free_racks":"0","terminal_type":"7inch","bike_numbers":"24484,28092,27973,27739,27053,26966,26695,26520,26484,26036,26009,25870,25703,25502,25083","bike_types":{"51":1,"4":14},"place_type":"0","rack_locks":"1"},{"uid":"2585872","lat":"52.1593735","lng":"21.086449","name":"Przycz\u00f3\u0142kowa - Branickiego","spot":"1","number":"9602","bikes":"12","bike_racks":"16","free_racks":"4","terminal_type":"7inch","bike_numbers":"24569,28513,28380,27196,27169,25439,25412,25361,25185,96040,96338,96330","bike_types":{"4":12},"place_type":"0","rack_locks":"1"},{"uid":"2585873","lat":"52.1618136","lng":"21.0277355","name":"Metro Ursyn\u00f3w II","spot":"1","number":"9603","bikes":"12","bike_racks":"30","free_racks":"19","terminal_type":"7inch","bike_numbers":"24797,24709,28331,27425,26753,26306,25833,25814,29032,96304,96184,96182","bike_types":{"4":12},"place_type":"0","rack_locks":"1"},{"uid":"2585875","lat":"52.1622579","lng":"21.0280761","name":"Metro Ursyn\u00f3w I","spot":"1","number":"9604","bikes":"11","bike_racks":"30","free_racks":"19","terminal_type":"7inch","bike_numbers":"24712,24708,24031,28689,28621,28353,27453,27032,25274,25225,25168","bike_types":{"4":10,"26":1},"place_type":"0","rack_locks":"1"},{"uid":"2585876","lat":"52.162401","lng":"21.0383811","name":"Jastrz\u0119bowskiego - SGGW","spot":"1","number":"9605","bikes":"23","bike_racks":"28","free_racks":"5","terminal_type":"7inch","bike_numbers":"24862,24624,24611,24476,28034,27981,27878,27694,27431,27147,27129,26904,26818,26357,25776,25442,29346,29024,25628,28974,96465,96358,29251","bike_types":{"4":22,"51":1},"place_type":"0","rack_locks":"1"},{"uid":"2585880","lat":"52.1557534","lng":"21.0232776","name":"Romera - Pieciolinii","spot":"1","number":"9606","bikes":"9","bike_racks":"16","free_racks":"10","terminal_type":"7inch","bike_numbers":"28803,28661,27568,27025,26149,25874,25326,25210,29096","bike_types":{"4":9},"place_type":"0","rack_locks":"1"},{"uid":"2585883","lat":"52.1568674","lng":"21.0338401","name":"Metro Stok\u0142osy","spot":"1","number":"9607","bikes":"31","bike_racks":"27","free_racks":"0","terminal_type":"7inch","bike_numbers":"28537,28366,28349,28343,27618,27605,27223,27174,27091,26905,26589,26525,26102,25934,25908,25571,25525,25420,25384,25373,25255,29119,29035,29021,28940,28868,28845,28824,63629,63621,96130","bike_types":{"4":31},"place_type":"0","rack_locks":"1"},{"uid":"2585885","lat":"52.1572887","lng":"21.0440084","name":"Roso\u0142a - Ciszewskiego - SGGW","spot":"1","number":"9608","bikes":"38","bike_racks":"30","free_racks":"3","terminal_type":"7inch","bike_numbers":"24934,24850,24844,28698,28611,28419,28340,27994,27793,27724,27659,27506,27488,27289,27197,26880,26850,26722,26574,26515,26205,26189,25697,25681,25561,25410,25346,25242,25015,28844,28839,28870,28881,28906,96037,96025,96459,29170","bike_types":{"4":38},"place_type":"0","rack_locks":"1"},{"uid":"2585888","lat":"52.1521429","lng":"21.0181224","name":"Pu\u0142awska - Pileckiego","spot":"1","number":"9609","bikes":"16","bike_racks":"22","free_racks":"6","terminal_type":"7inch","bike_numbers":"24822,24615,28650,28580,27496,27111,27077,26984,26329,25863,25653,25493,60836,96552,29204,29237","bike_types":{"4":16},"place_type":"0","rack_locks":"1"},{"uid":"2585893","lat":"52.1495064","lng":"21.0332527","name":"Ciszewskiego - Pileckiego","spot":"1","number":"9610","bikes":"13","bike_racks":"22","free_racks":"9","terminal_type":"7inch","bike_numbers":"24038,28057,26845,26067,25536,25377,25375,25184,28994,63628,96295,96198,96195","bike_types":{"26":1,"4":12},"place_type":"0","rack_locks":"1"},{"uid":"2585894","lat":"52.1549453","lng":"21.0492977","name":"Roso\u0142a - Gandhi","spot":"1","number":"9611","bikes":"7","bike_racks":"22","free_racks":"15","terminal_type":"7inch","bike_numbers":"27570,26421,25559,25557,25512,25068,63605","bike_types":{"4":7},"place_type":"0","rack_locks":"1"},{"uid":"2585897","lat":"52.1493105","lng":"21.0453361","name":"Metro Imielin","spot":"1","number":"9612","bikes":"16","bike_racks":"22","free_racks":"6","terminal_type":"7inch","bike_numbers":"24991,24886,24851,28630,28481,28448,27471,27382,26898,26105,25894,25581,25481,25331,96454,96224","bike_types":{"4":16},"place_type":"0","rack_locks":"1"},{"uid":"2585899","lat":"52.1522333","lng":"21.0563922","name":"Roso\u0142a - Weso\u0142a","spot":"1","number":"9613","bikes":"3","bike_racks":"23","free_racks":"19","terminal_type":"7inch","bike_numbers":"28818,26186,96085","bike_types":{"4":3},"place_type":"0","rack_locks":"1"},{"uid":"2585901","lat":"52.1427201","lng":"21.0383624","name":"Pileckiego - Alternatywy","spot":"1","number":"9614","bikes":"12","bike_racks":"30","free_racks":"17","terminal_type":"7inch","bike_numbers":"24977,24475,28701,28372,27585,26928,26096,25839,25556,28848,96399,96395","bike_types":{"4":11,"51":1},"place_type":"0","rack_locks":"1"},{"uid":"2585902","lat":"52.142735","lng":"21.0448131","name":"Dereniowa - P\u0142askowickiej","spot":"1","number":"9615","bikes":"18","bike_racks":"22","free_racks":"7","terminal_type":"7inch","bike_numbers":"24777,24609,28735,28251,28040,27987,27855,27613,27352,26626,26557,26244,25735,25273,29053,29552,63613,96084","bike_types":{"4":18},"place_type":"0","rack_locks":"1"},{"uid":"2585904","lat":"52.1376039","lng":"21.0505531","name":"Stryje\u0144skich - Belgradzka","spot":"1","number":"9616","bikes":"5","bike_racks":"15","free_racks":"12","terminal_type":"7inch","bike_numbers":"26487,26245,25067,28982,96052","bike_types":{"4":5},"place_type":"0","rack_locks":"1"},{"uid":"2585905","lat":"52.1403909","lng":"21.0568187","name":"Metro Natolin","spot":"1","number":"9617","bikes":"30","bike_racks":"30","free_racks":"0","terminal_type":"7inch","bike_numbers":"24953,28748,28505,28466,28326,28024,27829,27781,27525,27507,26883,26688,26615,26523,26499,26341,26212,26191,25964,25673,25474,25392,25047,29553,28968,63614,96218,96107,29177,24047","bike_types":{"4":29,"26":1},"place_type":"0","rack_locks":"1"},{"uid":"2585906","lat":"52.1420749","lng":"21.0659905","name":"Belgradzka - Roso\u0142a","spot":"1","number":"9618","bikes":"5","bike_racks":"23","free_racks":"18","terminal_type":"7inch","bike_numbers":"24975,24892,24632,27599,60863","bike_types":{"4":5},"place_type":"0","rack_locks":"1"},{"uid":"2585908","lat":"52.1314333","lng":"21.0561562","name":"Stryje\u0144skich - W\u0105wozowa","spot":"1","number":"9619","bikes":"23","bike_racks":"23","free_racks":"6","terminal_type":"7inch","bike_numbers":"28773,28383,28298,28221,28144,28099,28068,27941,27790,27759,27583,27304,27251,26412,25978,25812,25741,25490,25370,63623,96561,96437,29192","bike_types":{"4":23},"place_type":"0","rack_locks":"1"},{"uid":"2585911","lat":"52.3326052","lng":"20.9418404","name":"Ordon\u00f3wny - \u015awiatowida","spot":"1","number":"9620","bikes":"24","bike_racks":"22","free_racks":"1","terminal_type":"7inch","bike_numbers":"24882,24743,28682,28642,28314,27664,27612,26915,26865,26692,26582,26461,26225,26018,25936,25577,25305,25300,25036,25030,96522,96448,96257,96248","bike_types":{"4":24},"place_type":"0","rack_locks":"1"},{"uid":"2585913","lat":"52.1310925","lng":"21.0654795","name":"Metro Kabaty","spot":"1","number":"9621","bikes":"11","bike_racks":"22","free_racks":"13","terminal_type":"7inch","bike_numbers":"24554,27595,27308,27189,26637,26609,26193,25966,29002,60867,96592","bike_types":{"4":11},"place_type":"0","rack_locks":"1"},{"uid":"2585916","lat":"52.1332642","lng":"21.0747962","name":"W\u0105wozowa - Roso\u0142a","spot":"1","number":"9622","bikes":"7","bike_racks":"18","free_racks":"10","terminal_type":"7inch","bike_numbers":"28416,28403,28377,29064,29421,96333,29184","bike_types":{"4":7},"place_type":"0","rack_locks":"1"},{"uid":"2585917","lat":"52.324116","lng":"21.05663","name":"Skarbka z G\u00f3r - Berensona","spot":"1","number":"9623","bikes":"22","bike_racks":"26","free_racks":"4","terminal_type":"7inch","bike_numbers":"24939,28657,28619,28607,28277,28090,27821,27680,27632,27279,26881,26768,26707,26430,26194,26152,25916,25587,28812,96020,96430,29246","bike_types":{"4":22},"place_type":"0","rack_locks":"1"},{"uid":"2585919","lat":"52.3485329","lng":"20.9418336","name":"Aluzyjna - Tr\u0105by","spot":"1","number":"9624","bikes":"13","bike_racks":"16","free_racks":"2","terminal_type":"7inch","bike_numbers":"24504,28612,27721,26759,26655,26623,25841,29045,29555,96391,96327,96265,96199","bike_types":{"4":13},"place_type":"0","rack_locks":"1"},{"uid":"2585920","lat":"52.3226982","lng":"20.9448107","name":"\u015awiatowida - Mehoffera","spot":"1","number":"9625","bikes":"10","bike_racks":"16","free_racks":"6","terminal_type":"7inch","bike_numbers":"28821,27986,27335,27170,26674,26330,25646,29373,28878,96190","bike_types":{"4":10},"place_type":"0","rack_locks":"1"},{"uid":"2585921","lat":"52.3212548","lng":"20.9477347","name":"Bia\u0142o\u0142\u0119cki O\u015brodek Sportu","spot":"1","number":"9626","bikes":"22","bike_racks":"30","free_racks":"8","terminal_type":"7inch","bike_numbers":"24993,28671,28652,28426,28072,27847,27445,26954,26941,26575,26551,26489,26172,28995,96044,96042,96486,96481,96137,29181,29223,96591","bike_types":{"4":22},"place_type":"0","rack_locks":"1"},{"uid":"2585922","lat":"52.3211272","lng":"20.9712964","name":"Bia\u0142o\u0142\u0119ka-Ratusz","spot":"1","number":"9627","bikes":"12","bike_racks":"19","free_racks":"7","terminal_type":"7inch","bike_numbers":"24900,24833,24677,28771,28431,27996,27167,25607,29108,96396,96138,29197","bike_types":{"4":12},"place_type":"0","rack_locks":"1"},{"uid":"2585924","lat":"52.3132981","lng":"20.9655324","name":"My\u015bliborska - al. Kukli\u0144skiego","spot":"1","number":"9628","bikes":"26","bike_racks":"22","free_racks":"0","terminal_type":"7inch","bike_numbers":"24926,28680,28562,28395,28390,28190,27952,27868,27350,27303,27098,27080,26835,26834,26645,26620,26536,26475,26000,25915,25736,25191,25139,96568,96332,96306","bike_types":{"4":26},"place_type":"0","rack_locks":"1"},{"uid":"2585925","lat":"52.3031984","lng":"20.9891666","name":"Modli\u0144ska - \u017bera\u0144ska","spot":"1","number":"9629","bikes":"33","bike_racks":"30","free_racks":"2","terminal_type":"7inch","bike_numbers":"24849,24560,28886,28308,28127,27982,27960,27895,27871,27725,27704,26769,26763,26757,26678,26592,26472,26188,25968,25784,25710,25470,25398,25349,25297,25229,25092,29125,29133,96544,96129,96117,29254","bike_types":{"4":31,"0":2},"place_type":"0","rack_locks":"1"},{"uid":"2585926","lat":"52.3150181","lng":"21.0610807","name":"Skarbka z G\u00f3r - Magiczna","spot":"1","number":"9630","bikes":"31","bike_racks":"30","free_racks":"3","terminal_type":"7inch","bike_numbers":"24830,24692,24042,25002,28587,28583,28526,28456,28440,28301,28067,27954,27538,27513,27487,27360,27354,27115,26827,26820,26460,26400,25591,25376,25146,29130,96451,96128,96120,29180,29233","bike_types":{"4":29,"26":1,"0":1},"place_type":"0","rack_locks":"1"},{"uid":"2585928","lat":"52.3000268","lng":"21.0425266","name":"P\u0119tla Br\u00f3dno - Podgrodzie","spot":"1","number":"9631","bikes":"29","bike_racks":"16","free_racks":"0","terminal_type":"7inch","bike_numbers":"24799,24649,28750,28734,28585,28566,28442,28350,27650,27463,27450,27427,27305,27274,27260,26986,26896,26292,26129,25807,25701,25615,25597,25538,25198,28863,96468,96240,29157","bike_types":{"4":29},"place_type":"0","rack_locks":"1"},{"uid":"2585929","lat":"52.2939957","lng":"21.0272258","name":"Rembieli\u0144ska - Kondratowicza","spot":"1","number":"9632","bikes":"22","bike_racks":"23","free_racks":"1","terminal_type":"7inch","bike_numbers":"24921,24700,24672,28404,27778,27742,27717,27462,27435,27328,27037,26994,26719,26522,26208,25988,25855,25782,25089,96536,96127,29160","bike_types":{"4":22},"place_type":"0","rack_locks":"1"},{"uid":"2585931","lat":"52.2917236","lng":"21.0481189","name":"Targ\u00f3wek-Ratusz","spot":"1","number":"9633","bikes":"26","bike_racks":"22","free_racks":"5","terminal_type":"7inch","bike_numbers":"24883,24600,24039,28699,28675,28553,28420,28402,28022,27575,26815,26738,26058,25943,25896,25552,25510,25494,25180,29075,29124,96490,96369,96282,96103,96577","bike_types":{"4":24,"26":1,"0":1},"place_type":"0","rack_locks":"1"},{"uid":"2585932","lat":"52.292208","lng":"21.0419554","name":"Kondratowicza - Chodecka","spot":"1","number":"9634","bikes":"11","bike_racks":"23","free_racks":"11","terminal_type":"7inch","bike_numbers":"28702,28151,28075,27601,27498,26231,25928,25458,29350,96526,96329","bike_types":{"4":11},"place_type":"0","rack_locks":"1"},{"uid":"2585934","lat":"52.2925145","lng":"21.0573949","name":"Kondratowicza - Przy Grodzisku","spot":"1","number":"9635","bikes":"21","bike_racks":"18","free_racks":"0","terminal_type":"7inch","bike_numbers":"28658,28651,28352,28291,28278,28120,27794,27342,26817,26793,26433,26305,26140,26048,25712,25467,29082,29143,96326,96204,29243","bike_types":{"4":20,"0":1},"place_type":"0","rack_locks":"1"},{"uid":"2585936","lat":"52.2878069","lng":"21.0213829","name":"Wysockiego - Poborza\u0144ska","spot":"1","number":"9636","bikes":"25","bike_racks":"23","free_racks":"3","terminal_type":"7inch","bike_numbers":"24644,28758,28628,28524,28368,27290,27138,26979,26844,26756,26599,26153,26138,26108,25929,25815,25406,25170,29388,96015,96574,96539,96524,96080,29222","bike_types":{"4":25},"place_type":"0","rack_locks":"1"},{"uid":"2585937","lat":"52.2885915","lng":"21.0310087","name":"Rembieli\u0144ska - Wyszogrodzka","spot":"1","number":"9637","bikes":"17","bike_racks":"30","free_racks":"13","terminal_type":"7inch","bike_numbers":"24859,24573,24008,28150,28082,27300,26642,26537,26505,26364,26346,26110,25246,28908,28777,96336,29253","bike_types":{"4":16,"26":1},"place_type":"0","rack_locks":"1"},{"uid":"2585938","lat":"52.2864841","lng":"21.0401998","name":"Chodecka - \u017buromi\u0144ska","spot":"1","number":"9638","bikes":"9","bike_racks":"15","free_racks":"6","terminal_type":"7inch","bike_numbers":"28705,28414,27512,27035,26857,26767,96516,96368,29247","bike_types":{"4":9},"place_type":"0","rack_locks":"1"},{"uid":"2585939","lat":"52.281231017533","lng":"21.025852560997","name":"Wysockiego - Matki Teresy z Kalkuty","spot":"1","number":"9639","bikes":"19","bike_racks":"17","free_racks":"0","terminal_type":"7inch","bike_numbers":"24552,24030,28762,28550,28498,28392,28374,27663,26667,26221,26130,26060,25351,29117,29046,24498,96356,96203,96580","bike_types":{"4":17,"26":1,"51":1},"place_type":"0","rack_locks":"1"},{"uid":"2585941","lat":"52.2835693","lng":"21.0720858","name":"Blokowa - DK Zacisze","spot":"1","number":"9640","bikes":"21","bike_racks":"18","free_racks":"4","terminal_type":"7inch","bike_numbers":"24918,28267,27914,27799,27670,27584,27561,27298,27122,26275,26237,26204,25821,25435,25357,25122,96392,96261,96132,29193,29182","bike_types":{"4":21},"place_type":"0","rack_locks":"1"},{"uid":"2585942","lat":"52.276259","lng":"21.0530748","name":"P\u0119tla Targ\u00f3wek","spot":"1","number":"9641","bikes":"10","bike_racks":"22","free_racks":"12","terminal_type":"7inch","bike_numbers":"27751,27344,26771,26459,26173,25910,25775,25707,25706,29232","bike_types":{"4":10},"place_type":"0","rack_locks":"1"},{"uid":"2585943","lat":"52.27139","lng":"21.01566","name":"Jagiello\u0144ska - ALK","spot":"1","number":"9642","bikes":"9","bike_racks":"16","free_racks":"7","terminal_type":"7inch","bike_numbers":"24548,24525,27667,27644,27361,25227,25167,25075,96281","bike_types":{"4":9},"place_type":"0","rack_locks":"1"},{"uid":"2585947","lat":"52.2694683","lng":"21.0499817","name":"Ossowskiego","spot":"1","number":"9644","bikes":"14","bike_racks":"17","free_racks":"3","terminal_type":"7inch","bike_numbers":"28357,28089,27615,27499,27489,27421,26390,25783,25560,25462,29030,29003,96041,29245","bike_types":{"4":14},"place_type":"0","rack_locks":"1"},{"uid":"2585951","lat":"52.272602123161","lng":"21.063210368156","name":"Radzymi\u0144ska -Trocka","spot":"1","number":"9645","bikes":"27","bike_racks":"20","free_racks":"2","terminal_type":"7inch","bike_numbers":"28686,28362,28359,28339,28126,28088,27939,27814,27730,27422,27397,27341,27225,27134,27133,26718,26281,26163,26122,25901,25882,25117,29135,96023,96221,29199,29230","bike_types":{"4":26,"0":1},"place_type":"0","rack_locks":"1"},{"uid":"2585953","lat":"52.27347","lng":"21.07698","name":"Bukowiecka - Zamkowa","spot":"1","number":"9646","bikes":"18","bike_racks":"15","free_racks":"0","terminal_type":"7inch","bike_numbers":"24604,24487,28529,28103,27551,27405,26808,26263,26151,25732,25527,25483,28954,29146,28778,28975,28963,96242","bike_types":{"4":16,"51":1,"0":1},"place_type":"0","rack_locks":"1"},{"uid":"2585954","lat":"52.2668885","lng":"21.0585675","name":"Radzymi\u0144ska - Piotra Skargi","spot":"1","number":"9647","bikes":"28","bike_racks":"20","free_racks":"4","terminal_type":"7inch","bike_numbers":"24901,24658,28749,27807,27124,27017,26491,26396,26161,25954,25926,25919,25780,25596,25323,25263,25248,25228,25141,25032,25016,29120,96494,96463,96361,96106,29202,29226","bike_types":{"4":27,"0":1},"place_type":"0","rack_locks":"1"},{"uid":"2585955","lat":"52.2614369","lng":"21.0155744","name":"Wybrze\u017ce Helskie - ZOO","spot":"1","number":"9648","bikes":"17","bike_racks":"22","free_racks":"6","terminal_type":"7inch","bike_numbers":"24855,24662,24593,28554,27675,27248,27073,27030,26998,26761,26513,26257,25950,29364,29360,96173,96123","bike_types":{"4":17},"place_type":"0","rack_locks":"1"},{"uid":"2585956","lat":"52.2632492","lng":"21.0212231","name":"Rondo Starzy\u0144skiego","spot":"1","number":"9649","bikes":"7","bike_racks":"24","free_racks":"20","terminal_type":"7inch","bike_numbers":"28874,28294,28101,26627,26588,25298,96555","bike_types":{"4":7},"place_type":"0","rack_locks":"1"},{"uid":"2585958","lat":"52.26421","lng":"21.02618","name":"Darwina - Nusbauma-Hilarowicza","spot":"1","number":"9650","bikes":"17","bike_racks":"21","free_racks":"6","terminal_type":"7inch","bike_numbers":"24938,25006,28606,28076,27734,27343,27019,26930,26777,26758,25890,25799,25754,25751,25466,25148,25099","bike_types":{"4":17},"place_type":"0","rack_locks":"1"},{"uid":"2585960","lat":"52.26554","lng":"21.03122","name":"Namys\u0142owska - Darwina","spot":"1","number":"9651","bikes":"16","bike_racks":"15","free_racks":"3","terminal_type":"7inch","bike_numbers":"24780,25003,28719,27877,26713,26644,26331,26323,25700,25663,25268,29429,29142,96267,96116,96581","bike_types":{"4":15,"0":1},"place_type":"0","rack_locks":"1"},{"uid":"2585961","lat":"52.2690405","lng":"21.0379493","name":"Rondo \u017baba","spot":"1","number":"9652","bikes":"11","bike_racks":"22","free_racks":"12","terminal_type":"7inch","bike_numbers":"24978,24606,27520,27323,26847,26440,25564,25553,25018,96498,96302","bike_types":{"4":11},"place_type":"0","rack_locks":"1"},{"uid":"2585963","lat":"52.2591682","lng":"21.0262224","name":"Jagiello\u0144ska - Plac Hallera","spot":"1","number":"9653","bikes":"23","bike_racks":"20","free_racks":"7","terminal_type":"7inch","bike_numbers":"24842,24599,24496,24481,28385,28137,28134,27893,27652,27249,26982,26456,26297,26168,26119,26033,25993,25933,25725,25677,25093,96126,29214","bike_types":{"4":21,"51":2},"place_type":"0","rack_locks":"1"},{"uid":"2585964","lat":"52.2613811","lng":"21.0305437","name":"Plac Hallera - Sawinkowa","spot":"1","number":"9654","bikes":"25","bike_racks":"28","free_racks":"6","terminal_type":"7inch","bike_numbers":"24955,24776,24729,24581,28647,28258,28214,28148,27696,27627,27557,27518,27239,27090,26886,26715,26395,26327,25350,25264,25076,25053,29116,96344,96328","bike_types":{"4":25},"place_type":"0","rack_locks":"1"},{"uid":"2585967","lat":"52.263","lng":"21.03418","name":"Namys\u0142owska - Szymanowskiego","spot":"1","number":"9655","bikes":"14","bike_racks":"16","free_racks":"1","terminal_type":"7inch","bike_numbers":"28432,28096,28058,28054,27574,26862,26565,26089,25593,25368,25161,96216,96208,24049","bike_types":{"4":13,"26":1},"place_type":"0","rack_locks":"1"},{"uid":"2585968","lat":"52.2538188","lng":"21.0231542","name":"Ratuszowa - ZOO","spot":"1","number":"9656","bikes":"22","bike_racks":"23","free_racks":"4","terminal_type":"7inch","bike_numbers":"24811,28732,28616,28560,28303,27833,27502,27446,27424,27385,26846,26229,26150,26111,26085,25989,25767,25130,28960,29644,28859,96401","bike_types":{"4":22},"place_type":"0","rack_locks":"1"},{"uid":"2585971","lat":"52.256355","lng":"21.029538","name":"Jagiello\u0144ska - Ratuszowa","spot":"1","number":"9657","bikes":"10","bike_racks":"16","free_racks":"5","terminal_type":"7inch","bike_numbers":"27484,27413,27331,26730,26685,25813,25739,25150,28989,28988","bike_types":{"4":10},"place_type":"0","rack_locks":"1"},{"uid":"2585972","lat":"52.261449","lng":"21.037614","name":"11 Listopada - Ratuszowa","spot":"1","number":"9658","bikes":"22","bike_racks":"30","free_racks":"10","terminal_type":"7inch","bike_numbers":"24793,28569,28295,28264,28026,27764,27761,27560,27503,27406,26987,26404,26366,26166,26081,25810,25419,25415,28799,96431,96266,29248","bike_types":{"4":22},"place_type":"0","rack_locks":"1"},{"uid":"2585974","lat":"52.263109","lng":"21.0381895","name":"11 listopada - \u015arodkowa","spot":"1","number":"9659","bikes":"15","bike_racks":"18","free_racks":"5","terminal_type":"7inch","bike_numbers":"28515,28369,28006,27818,27660,27576,26902,26464,26360,26224,25746,25445,29446,96021,96167","bike_types":{"4":15},"place_type":"0","rack_locks":"1"},{"uid":"2585975","lat":"52.25839","lng":"21.03537","name":"Stalowa - 11 Listopada","spot":"1","number":"9660","bikes":"18","bike_racks":"24","free_racks":"6","terminal_type":"7inch","bike_numbers":"24770,24456,28774,28624,28471,28276,27800,27366,27158,26517,26446,26104,25977,25973,25969,25359,25157,29037","bike_types":{"4":17,"51":1},"place_type":"0","rack_locks":"1"},{"uid":"2585978","lat":"52.234791","lng":"21.07905","name":"al. Stan\u00f3w Zjednoczonych - Ostrobramska","spot":"1","number":"9661","bikes":"7","bike_racks":"20","free_racks":"13","terminal_type":"7inch","bike_numbers":"24634,26965,26571,26386,26383,28872,96474","bike_types":{"4":7},"place_type":"0","rack_locks":"1"},{"uid":"2585981","lat":"52.2524758","lng":"21.0303479","name":"Floria\u0144ska - Park Praski","spot":"1","number":"9662","bikes":"16","bike_racks":"23","free_racks":"7","terminal_type":"7inch","bike_numbers":"24809,24794,28423,27879,27803,27363,27220,26951,26949,26027,25918,25341,25114,28981,96491,96283","bike_types":{"4":16},"place_type":"0","rack_locks":"1"},{"uid":"2585982","lat":"52.2549757","lng":"21.0339005","name":"Plac Wile\u0144ski","spot":"1","number":"9663","bikes":"52","bike_racks":"30","free_racks":"1","terminal_type":"7inch","bike_numbers":"24913,24870,24773,24767,24696,24668,24469,28697,28691,28678,28578,28499,28405,28397,28066,27998,27888,27775,27622,27362,27261,26616,26611,26540,26529,26450,26273,25811,25511,25491,25334,25096,25091,25074,29041,29040,28956,29456,29641,29140,28978,96003,96452,96408,96398,96315,96230,96096,29151,29269,29225,24046","bike_types":{"4":49,"51":1,"0":1,"26":1},"place_type":"0","rack_locks":"1"},{"uid":"2585983","lat":"52.2579576","lng":"21.0399804","name":"Wile\u0144ska - Rzeszotarskiej","spot":"1","number":"9664","bikes":"14","bike_racks":"16","free_racks":"8","terminal_type":"7inch","bike_numbers":"24800,28078,27862,27776,26985,26368,25395,29367,28961,28987,96549,96543,96382,96252","bike_types":{"4":14},"place_type":"0","rack_locks":"1"},{"uid":"2585984","lat":"52.2475848","lng":"20.9568001","name":"al. Prymasa Tysi\u0105clecia - Obozowa","spot":"1","number":"9665","bikes":"7","bike_racks":"13","free_racks":"7","terminal_type":"7inch","bike_numbers":"26945,26409,25976,25239,28924,96421,29186","bike_types":{"4":7},"place_type":"0","rack_locks":"1"},{"uid":"2585985","lat":"52.248607","lng":"21.029647","name":"Okrzei - Panie\u0144ska","spot":"1","number":"9666","bikes":"17","bike_racks":"16","free_racks":"0","terminal_type":"7inch","bike_numbers":"28673,28435,28297,28194,27817,27533,27330,27329,26595,26420,26256,26154,25330,29105,96231,96133,24055","bike_types":{"4":16,"26":1},"place_type":"0","rack_locks":"1"},{"uid":"2585987","lat":"52.2506334","lng":"21.0311174","name":"Sierakowskiego - K\u0142opotowskiego","spot":"1","number":"9667","bikes":"11","bike_racks":"25","free_racks":"14","terminal_type":"7inch","bike_numbers":"24897,24044,27959,26814,26247,26113,25990,25881,25787,25480,96299","bike_types":{"4":10,"26":1},"place_type":"0","rack_locks":"1"},{"uid":"2585990","lat":"52.2520876","lng":"21.0381368","name":"Targowa - Z\u0105bkowska","spot":"1","number":"9668","bikes":"30","bike_racks":"18","free_racks":"0","terminal_type":"7inch","bike_numbers":"24769,28822,28681,28676,28292,27974,27925,27869,27856,27657,27482,27429,27184,27026,26848,26807,26702,26302,25766,25212,25064,29097,29063,28860,28970,96002,96501,96284,96193,29261","bike_types":{"4":30},"place_type":"0","rack_locks":"1"},{"uid":"2585992","lat":"52.2544855","lng":"21.0433458","name":"Fabryka W\u00f3dek Koneser","spot":"1","number":"9669","bikes":"20","bike_racks":"25","free_racks":"5","terminal_type":"7inch","bike_numbers":"24947,24551,24514,28209,28053,27916,27530,27389,27316,27229,27014,26894,26706,26629,26547,25709,25195,96359,29283,29262","bike_types":{"4":20},"place_type":"0","rack_locks":"1"},{"uid":"2585994","lat":"52.2559027","lng":"21.0495613","name":"Radzymi\u0144ska - Wiosenna","spot":"1","number":"9670","bikes":"16","bike_racks":"26","free_racks":"8","terminal_type":"7inch","bike_numbers":"24725,28660,28052,27586,27212,26875,26866,26109,25985,25944,25649,25337,25287,25250,28836,29183","bike_types":{"4":16},"place_type":"0","rack_locks":"1"},{"uid":"2585995","lat":"52.25965","lng":"21.0529","name":"Radzymi\u0144ska - \u0141om\u017cy\u0144ska","spot":"1","number":"9671","bikes":"11","bike_racks":"24","free_racks":"14","terminal_type":"7inch","bike_numbers":"28542,28531,28394,28014,27393,27291,26495,25876,25402,29049,29244","bike_types":{"4":11},"place_type":"0","rack_locks":"1"},{"uid":"2585996","lat":"52.2583512","lng":"21.0585337","name":"P\u0119tla Kaw\u0119czy\u0144ska-Bazylika","spot":"1","number":"9672","bikes":"23","bike_racks":"26","free_racks":"3","terminal_type":"7inch","bike_numbers":"24880,28564,28302,28020,28010,27827,27621,27283,27064,27062,26995,26842,26530,26241,25998,25636,25563,25051,29081,29020,96046,96118,96579","bike_types":{"4":23},"place_type":"0","rack_locks":"1"},{"uid":"2585997","lat":"52.249864871462","lng":"21.042911410332","name":"Targowa - Kijowska","spot":"1","number":"9673","bikes":"9","bike_racks":"18","free_racks":"9","terminal_type":"7inch","bike_numbers":"28371,27755,26901,26732,26648,26276,25471,25011,96185","bike_types":{"4":9},"place_type":"0","rack_locks":"1"},{"uid":"2586000","lat":"52.252745","lng":"21.0510331","name":"Dworzec Wschodni - Kijowska","spot":"1","number":"9674","bikes":"24","bike_racks":"27","free_racks":"9","terminal_type":"7inch","bike_numbers":"24932,24871,24720,24647,24017,28760,28544,28087,28050,28000,27559,27437,27381,27301,27188,26961,26554,26392,26271,25567,25321,25200,29072,96360","bike_types":{"4":23,"26":1},"place_type":"0","rack_locks":"1"},{"uid":"2586001","lat":"52.247314","lng":"21.042731","name":"Metro Stadion Narodowy","spot":"1","number":"9675","bikes":"19","bike_racks":"15","free_racks":"0","terminal_type":"7inch","bike_numbers":"24771,24524,24474,24010,28484,28452,27701,27448,27168,26996,26606,26414,26387,25937,29057,28992,29441,96319,96191","bike_types":{"4":17,"51":1,"26":1},"place_type":"0","rack_locks":"1"},{"uid":"2586003","lat":"52.2472308","lng":"21.0476456","name":"al. Zieleniecka - Teatr Powszechny","spot":"1","number":"9676","bikes":"14","bike_racks":"14","free_racks":"0","terminal_type":"7inch","bike_numbers":"24761,28659,28436,28106,28016,27899,27634,27404,26921,26802,25659,29646,96438,29148","bike_types":{"4":14},"place_type":"0","rack_locks":"1"},{"uid":"2586005","lat":"52.247346","lng":"21.055947","name":"Grochowska - Mi\u0144ska","spot":"1","number":"9677","bikes":"23","bike_racks":"22","free_racks":"0","terminal_type":"7inch","bike_numbers":"24998,24997,24817,24575,24546,28718,28139,27714,27162,27094,26914,26766,26744,26666,26646,26287,26147,25857,25632,96482,96453,96158,96148","bike_types":{"4":23},"place_type":"0","rack_locks":"1"},{"uid":"2586009","lat":"52.2464","lng":"21.06868","name":"Praga-Po\u0142udnie-Ratusz","spot":"1","number":"9678","bikes":"3","bike_racks":"15","free_racks":"12","terminal_type":"7inch","bike_numbers":"24971,24577,28741","bike_types":{"4":3},"place_type":"0","rack_locks":"1"},{"uid":"2586011","lat":"52.2501129","lng":"21.0772011","name":"Dwernickiego - Siennicka","spot":"1","number":"9679","bikes":"28","bike_racks":"25","free_racks":"0","terminal_type":"7inch","bike_numbers":"24893,24626,24483,28490,28412,28406,28254,27886,27590,27106,26957,26772,26660,26654,26213,26126,26054,26041,25790,25674,25283,25245,25160,25126,25065,96034,96563,29265","bike_types":{"4":27,"51":1},"place_type":"0","rack_locks":"1"},{"uid":"2586012","lat":"52.260428882956","lng":"21.041538119316","name":"Stalowa - Czynszowa","spot":"1","number":"9680","bikes":"12","bike_racks":"15","free_racks":"2","terminal_type":"7inch","bike_numbers":"28629,28428,28364,27365,26789,26078,26031,25498,25127,25025,29281,29271","bike_types":{"4":12},"place_type":"0","rack_locks":"1"},{"uid":"2586014","lat":"52.2372419","lng":"21.0437644","name":"Wybrze\u017ce Szczeci\u0144skie - Stadion Narodowy","spot":"1","number":"9681","bikes":"12","bike_racks":"23","free_racks":"15","terminal_type":"7inch","bike_numbers":"24665,24494,28597,28077,27989,27971,27700,27510,27178,26200,25779,25063","bike_types":{"4":11,"51":1},"place_type":"0","rack_locks":"1"},{"uid":"2586018","lat":"52.2387103","lng":"21.0507515","name":"Rondo Waszyngtona - Stadion Narodowy","spot":"1","number":"9682","bikes":"9","bike_racks":"27","free_racks":"18","terminal_type":"7inch","bike_numbers":"25007,27908,27562,25980,25543,28907,96058,96161,96582","bike_types":{"4":9},"place_type":"0","rack_locks":"1"},{"uid":"2586019","lat":"52.242281006874","lng":"21.071160435677","name":"Waszyngtona - Kinowa","spot":"1","number":"9683","bikes":"13","bike_racks":"15","free_racks":"4","terminal_type":"7inch","bike_numbers":"24545,24005,28724,27208,27182,26183,26117,25885,25362,25238,25106,96558,96357","bike_types":{"4":12,"26":1},"place_type":"0","rack_locks":"1"},{"uid":"2586021","lat":"52.2445639","lng":"21.0838057","name":"Rondo Wiatraczna","spot":"1","number":"9684","bikes":"23","bike_racks":"30","free_racks":"7","terminal_type":"7inch","bike_numbers":"24960,24841,24788,24613,24479,28700,28557,28521,28310,28100,27951,27936,26837,26653,26643,26473,26043,25953,25904,25749,25652,29033,28985","bike_types":{"4":22,"51":1},"place_type":"0","rack_locks":"1"},{"uid":"2586022","lat":"52.2347451","lng":"21.053651","name":"Francuska - Walecznych","spot":"1","number":"9685","bikes":"0","bike_racks":"15","free_racks":"15","terminal_type":"7inch","place_type":"0","rack_locks":"1","bike_numbers":null,"bike_types":[]},{"uid":"2586024","lat":"52.236598","lng":"21.064774","name":"Mi\u0119dzynarodowa - Walecznych","spot":"1","number":"9686","bikes":"16","bike_racks":"15","free_racks":"6","terminal_type":"7inch","bike_numbers":"24895,24009,28411,27777,27642,27423,26855,26794,26636,26293,25693,25478,29015,96297,96294,96142","bike_types":{"4":15,"26":1},"place_type":"0","rack_locks":"1"},{"uid":"2586026","lat":"52.243020071904","lng":"21.102375984192","name":"Plac Szembeka","spot":"1","number":"9687","bikes":"15","bike_racks":"15","free_racks":"2","terminal_type":"7inch","bike_numbers":"24945,24633,28309,27861,27545,26371,26014,25917,25705,25144,25107,29078,96464,96165,96576","bike_types":{"4":15},"place_type":"0","rack_locks":"1"},{"uid":"2586028","lat":"52.237559","lng":"21.120087","name":"P\u0119tla Goc\u0142awek","spot":"1","number":"9688","bikes":"29","bike_racks":"16","free_racks":"0","terminal_type":"7inch","bike_numbers":"24531,28693,27608,27589,27411,27408,27144,27118,26682,26502,26197,26066,26034,26015,25996,25957,25905,25824,25598,25551,25514,25338,25149,25060,29042,96054,96045,96449,96092","bike_types":{"4":29},"place_type":"0","rack_locks":"1"},{"uid":"2586030","lat":"52.2258359","lng":"21.0600907","name":"Brukselska - PROM","spot":"1","number":"9689","bikes":"14","bike_racks":"15","free_racks":"1","terminal_type":"7inch","bike_numbers":"24982,24775,24685,28491,28315,28274,27932,27858,27699,27505,26684,26053,25169,96363","bike_types":{"4":14},"place_type":"0","rack_locks":"1"},{"uid":"2586031","lat":"52.260205610017","lng":"21.046854257584","name":"al. Solidarno\u015bci - Szwedzka","spot":"1","number":"9690","bikes":"14","bike_racks":"18","free_racks":"4","terminal_type":"7inch","bike_numbers":"24815,28348,27864,27554,26956,26214,26106,26032,25666,25088,96569,96402,96287,24051","bike_types":{"4":13,"26":1},"place_type":"0","rack_locks":"1"},{"uid":"2586032","lat":"52.230088","lng":"21.067948","name":"al. Stan\u00f3w Zjednoczonych - Mi\u0119dzynarodowa","spot":"1","number":"9691","bikes":"29","bike_racks":"26","free_racks":"1","terminal_type":"7inch","bike_numbers":"24905,24861,24676,24635,24620,24016,28892,28555,28102,27648,27536,27534,27398,27312,27271,27070,26935,26934,25802,25756,25546,25381,25292,25119,25072,28950,28853,96346,96078","bike_types":{"4":28,"26":1},"place_type":"0","rack_locks":"1"},{"uid":"2586034","lat":"52.23483","lng":"21.09975","name":"Ostrobramska - Zamieniecka","spot":"1","number":"9692","bikes":"16","bike_racks":"23","free_racks":"7","terminal_type":"7inch","bike_numbers":"24915,28558,27815,27112,26959,26665,26211,25941,25722,25699,25421,25233,29115,28798,28890,96291","bike_types":{"4":16},"place_type":"0","rack_locks":"1"},{"uid":"2586037","lat":"52.2251969","lng":"21.0712892","name":"Afryka\u0144ska - Egipska","spot":"1","number":"9693","bikes":"20","bike_racks":"16","free_racks":"0","terminal_type":"7inch","bike_numbers":"24969,24909,24583,24539,28802,28738,28512,28496,27870,27698,27479,27246,26176,25534,25386,25110,28864,96476,29175,29147","bike_types":{"4":20},"place_type":"0","rack_locks":"1"},{"uid":"2586039","lat":"52.22837","lng":"21.08581","name":"Abrahama - Kapelan\u00f3w AK","spot":"1","number":"9694","bikes":"13","bike_racks":"15","free_racks":"4","terminal_type":"7inch","bike_numbers":"24973,24972,24748,24589,24029,27920,27377,27243,26897,25744,25079,25627,29187","bike_types":{"4":12,"26":1},"place_type":"0","rack_locks":"1"},{"uid":"2586044","lat":"52.22974","lng":"21.10624","name":"Rechniewskiego - Nowaka-Jeziora\u0144skiego","spot":"1","number":"9696","bikes":"25","bike_racks":"30","free_racks":"6","terminal_type":"7inch","bike_numbers":"24984,24888,28873,28195,28105,28085,27267,26352,26025,25902,25745,25670,25327,25275,25211,25028,28862,28823,96487,96429,96341,96249,96155,29176,29240","bike_types":{"4":25},"place_type":"0","rack_locks":"1"},{"uid":"2586045","lat":"52.2223071","lng":"21.0907259","name":"Meissnera - Fieldorfa","spot":"1","number":"9697","bikes":"19","bike_racks":"15","free_racks":"3","terminal_type":"7inch","bike_numbers":"24505,28646,28614,28465,28322,27865,27853,27697,27555,27321,26367,26253,26023,25302,25296,29213,28841,96324,96296","bike_types":{"4":19},"place_type":"0","rack_locks":"1"},{"uid":"2586268","lat":"52.23938046828","lng":"21.016716957092","name":"Krakowskie Przedmie\u015bcie - Traugutta 2","spot":"1","number":"94931","bikes":"16","bike_racks":"24","free_racks":"8","terminal_type":"7inch","bike_numbers":"24970,24735,24726,24642,28898,28119,27918,27757,27720,27000,26239,26004,25405,28807,96457,29149","bike_types":{"4":16},"place_type":"0","rack_locks":"1"},{"uid":"2586270","lat":"52.241814568386","lng":"21.024039387703","name":"Lipowa - Dobra 2","spot":"1","number":"94961","bikes":"9","bike_racks":"19","free_racks":"9","terminal_type":"7inch","bike_numbers":"24750,28091,27840,27009,25429,29554,28856,96005,96419","bike_types":{"4":9},"place_type":"0","rack_locks":"1"},{"uid":"2586272","lat":"52.219916006513","lng":"21.011733412743","name":"Plac Politechniki 2","spot":"1","number":"95381","bikes":"11","bike_racks":"27","free_racks":"16","terminal_type":"7inch","bike_numbers":"24705,24680,28534,28252,28093,27139,27049,26672,25588,25284,96517","bike_types":{"4":11},"place_type":"0","rack_locks":"1"},