[{"region_info":{"lat":"52.2345","lng":"21.0024","zoom":"11","name":"VETURILO Poland","hotline":"+4819115","domain":"vp","language":"pl","email":"info@nextbike.pl","timezone":"Europe\/Warsaw","currency":"PLN","country_calling_code":"+48","system_operator_address":"Nextbike Polska S.A. ul. Przasnyska 6B, 01-756 Warszawa","country":"PL","country_name":"Poland","terms":"http:\/\/www.veturilo.waw.pl\/terms\/?v=201701","policy":"","website":"http:\/\/www.veturilo.waw.pl\/","show_free_racks":"1","booked_bikes":"0","set_point_bikes":"5285","available_bikes":"4720"},"places_summary":{"lngMin":20.8689688,"lngMax":21.120087,"latMin":52.117285,"latMax":52.3485329,"lngAvg":21.008117591667,"latAvg":52.230678041088},"places":[{"uid":"2585259","lat":"52.296298","lng":"20.9583575","name":"Dewajtis - UKSW","spot":"1","number":"9402","bikes":"19","bike_racks":"30","free_racks":"11","terminal_type":"7inch","bike_numbers":"24588,27811,27738,27594,27348,27142,26862,26847,26591,26367,26301,26242,26093,25857,25674,25221,60830,96350,29254","bike_types":{"4":19},"place_type":"0","rack_locks":"1"},{"uid":"2585263","lat":"52.2909738","lng":"20.9295559","name":"Metro M\u0142ociny","spot":"1","number":"9403","bikes":"19","bike_racks":"30","free_racks":"11","terminal_type":"7inch","bike_numbers":"24966,24699,24675,24635,24567,28664,28444,28147,26823,25928,25907,25788,25406,25317,25264,29109,29050,29428,96236","bike_types":{"4":19},"place_type":"0","rack_locks":"1"},{"uid":"2585265","lat":"52.2901732","lng":"20.9503698","name":"Marymoncka - Dewajtis","spot":"1","number":"9404","bikes":"20","bike_racks":"30","free_racks":"10","terminal_type":"7inch","bike_numbers":"24804,24799,28534,28354,28271,27702,27402,27291,26835,26038,25950,25306,25214,29089,96439,96391,96379,96326,29155,96581","bike_types":{"4":20},"place_type":"0","rack_locks":"1"},{"uid":"2585267","lat":"52.285914","lng":"20.940561","name":"Metro Wawrzyszew","spot":"1","number":"9405","bikes":"13","bike_racks":"20","free_racks":"7","terminal_type":"7inch","bike_numbers":"24716,24483,28729,28694,28641,28575,28547,25897,29649,96515,96436,96235,29275","bike_types":{"4":12,"51":1},"place_type":"0","rack_locks":"1"},{"uid":"2585269","lat":"52.2336142","lng":"21.0146353","name":"G\u00f3rskiego - Szpitalna","spot":"1","number":"9406","bikes":"4","bike_racks":"16","free_racks":"12","terminal_type":"7inch","bike_numbers":"26753,25091,28847,96459","bike_types":{"4":4},"place_type":"0","rack_locks":"1"},{"uid":"2585271","lat":"52.2816265","lng":"20.9498871","name":"Metro Stare Bielany","spot":"1","number":"9407","bikes":"20","bike_racks":"30","free_racks":"9","terminal_type":"7inch","bike_numbers":"24876,24492,28757,28619,28577,28320,28282,27466,27433,27233,26476,26191,25987,25822,25740,25612,25013,29142,28828,29241","bike_types":{"4":18,"51":1,"0":1},"place_type":"0","rack_locks":"1"},{"uid":"2585272","lat":"52.2361217","lng":"21.0219096","name":"Ordynacka - Uniwersytet Muzyczny","spot":"1","number":"9408","bikes":"15","bike_racks":"20","free_racks":"5","terminal_type":"7inch","bike_numbers":"24696,24652,24529,28262,28060,27971,27715,27267,27224,27169,26630,25828,28959,28867,96002","bike_types":{"4":15},"place_type":"0","rack_locks":"1"},{"uid":"2585273","lat":"52.2768774","lng":"20.9481302","name":"Bielany-Ratusz","spot":"1","number":"9409","bikes":"21","bike_racks":"28","free_racks":"6","terminal_type":"7inch","bike_numbers":"24931,28371,27514,27298,26936,26853,26684,26646,26291,26150,26097,25358,25219,29461,96036,96473,96285,96106,96093,29197,96589","bike_types":{"4":21},"place_type":"0","rack_locks":"1"},{"uid":"2585275","lat":"52.2761569","lng":"20.9616673","name":"Metro S\u0142odowiec","spot":"1","number":"9410","bikes":"17","bike_racks":"30","free_racks":"13","terminal_type":"7inch","bike_numbers":"24650,24608,28096,27997,27316,27182,27086,26513,26495,25963,25810,25697,28991,96481,96153,29253,29240","bike_types":{"4":17},"place_type":"0","rack_locks":"1"},{"uid":"2585278","lat":"52.2777751","lng":"20.9856999","name":"Potocka - OSiR \u017boliborz","spot":"1","number":"9411","bikes":"12","bike_racks":"15","free_racks":"3","terminal_type":"7inch","bike_numbers":"28563,27559,27436,27250,26988,25983,25655,25210,29111,28982,96348,96284","bike_types":{"4":12},"place_type":"0","rack_locks":"1"},{"uid":"2585280","lat":"52.273527782989","lng":"20.994186401367","name":"Gwia\u017adzista - Promyka","spot":"1","number":"9412","bikes":"16","bike_racks":"16","free_racks":"0","terminal_type":"7inch","bike_numbers":"28622,28579,28087,27938,27771,27765,27256,27231,27019,26828,26466,26433,25026,28911,96494,29279","bike_types":{"4":16},"place_type":"0","rack_locks":"1"},{"uid":"2585281","lat":"52.270941","lng":"20.9326269","name":"al. Reymonta - Conrada","spot":"1","number":"9413","bikes":"30","bike_racks":"30","free_racks":"0","terminal_type":"7inch","bike_numbers":"24970,24751,28701,28638,28601,28597,28145,28138,28101,28022,27921,27830,27790,27685,27590,27427,27273,27132,26905,26774,25818,25786,25203,25626,25624,28815,96268,96248,96223,29262","bike_types":{"4":30},"place_type":"0","rack_locks":"1"},{"uid":"2585283","lat":"52.2706441","lng":"20.9504181","name":"Broniewskiego - Perzy\u0144skiego","spot":"1","number":"9414","bikes":"11","bike_racks":"16","free_racks":"5","terminal_type":"7inch","bike_numbers":"24865,28698,28026,27450,26808,26135,25784,28808,96365,96102,29239","bike_types":{"4":11},"place_type":"0","rack_locks":"1"},{"uid":"2585284","lat":"52.2714203","lng":"20.9727099","name":"Metro Marymont","spot":"1","number":"9415","bikes":"18","bike_racks":"30","free_racks":"13","terminal_type":"7inch","bike_numbers":"24894,28658,28621,28020,27595,27091,26901,26682,25866,25546,25527,25400,25292,29110,28863,28964,96241,29220","bike_types":{"4":18},"place_type":"0","rack_locks":"1"},{"uid":"2585285","lat":"52.2694081","lng":"20.9833664","name":"Metro Plac Wilsona","spot":"1","number":"9416","bikes":"15","bike_racks":"21","free_racks":"6","terminal_type":"7inch","bike_numbers":"24538,27817,27794,27078,27074,26821,26400,26179,25650,29445,29434,96529,96511,96498,29180","bike_types":{"4":15},"place_type":"0","rack_locks":"1"},{"uid":"2585286","lat":"52.2668623","lng":"20.9637032","name":"Broniewskiego - W\u0142o\u015bcia\u0144ska","spot":"1","number":"9417","bikes":"12","bike_racks":"19","free_racks":"7","terminal_type":"7inch","bike_numbers":"28755,26751,26636,26326,26278,26096,25989,29065,29051,28827,96402,29162","bike_types":{"4":12},"place_type":"0","rack_locks":"1"},{"uid":"2585288","lat":"52.2643984","lng":"20.9723179","name":"Broniewskiego - Krasi\u0144skiego","spot":"1","number":"9418","bikes":"13","bike_racks":"16","free_racks":"3","maintenance":"1","terminal_type":"7inch","bike_numbers":"24846,28661,28322,28075,26003,25990,25517,25499,25198,25165,25012,29115,28989","bike_types":{"4":13},"place_type":"0","rack_locks":"1"},{"uid":"2585289","lat":"52.267875","lng":"21.0020667","name":"Wybrze\u017ce Gdy\u0144skie - KS Sp\u00f3jnia","spot":"1","number":"9419","bikes":"12","bike_racks":"15","free_racks":"2","terminal_type":"7inch","bike_numbers":"24843,24042,28558,27967,27500,26611,25916,25902,29088,96042,96186,96165","bike_types":{"4":11,"26":1},"place_type":"0","rack_locks":"1"},{"uid":"2585291","lat":"52.2624054","lng":"20.9802551","name":"Plac Grunwaldzki","spot":"1","number":"9420","bikes":"22","bike_racks":"30","free_racks":"8","terminal_type":"7inch","bike_numbers":"24475,28766,28754,28728,28285,27996,27520,27432,27398,26844,26450,26256,26019,25948,25884,25635,25422,25207,25147,29042,28859,96592","bike_types":{"51":1,"4":21},"place_type":"0","rack_locks":"1"},{"uid":"2585296","lat":"52.2612575","lng":"20.9863191","name":"Zaj\u0105czka - Bitwy Pod Rokitn\u0105","spot":"1","number":"9421","bikes":"12","bike_racks":"15","free_racks":"3","terminal_type":"7inch","bike_numbers":"24998,24557,28555,28429,27844,27083,27010,25712,29075,96029,29269,96576","bike_types":{"4":12},"place_type":"0","rack_locks":"1"},{"uid":"2585297","lat":"52.2645018","lng":"20.9895998","name":"Plac Inwalid\u00f3w","spot":"1","number":"9422","bikes":"10","bike_racks":"15","free_racks":"5","terminal_type":"7inch","bike_numbers":"28672,28587,28385,28193,27876,26704,26461,25315,96149,29171","bike_types":{"4":10},"place_type":"0","rack_locks":"1"},{"uid":"2585299","lat":"52.258245356688","lng":"20.898613929749","name":"P\u0119tla Stare Bemowo","spot":"1","number":"9423","bikes":"5","bike_racks":"21","free_racks":"16","terminal_type":"7inch","bike_numbers":"28886,28763,28474,26627,25116","bike_types":{"4":5},"place_type":"0","rack_locks":"1"},{"uid":"2585301","lat":"52.260895125763","lng":"20.923923254013","name":"P\u0119tla Nowe Bemowo","spot":"1","number":"9424","bikes":"20","bike_racks":"25","free_racks":"6","terminal_type":"7inch","bike_numbers":"24971,24752,24624,24504,24487,28662,28486,28483,27656,27565,27389,27243,26526,25435,25420,25399,29458,96183,29173,29206","bike_types":{"4":19,"51":1},"place_type":"0","rack_locks":"1"},{"uid":"2585304","lat":"52.2575903","lng":"20.9323374","name":"Obro\u0144c\u00f3w Tobruku - Pieni\u0105\u017cka","spot":"1","number":"9425","bikes":"13","bike_racks":"22","free_racks":"10","terminal_type":"7inch","bike_numbers":"24026,28079,27684,27469,27283,27118,26525,26095,25872,25157,25096,28856,96321","bike_types":{"26":1,"4":12},"place_type":"0","rack_locks":"1"},{"uid":"2585305","lat":"52.2593225","lng":"20.9605511","name":"Pow\u0105zkowska - Krasi\u0144skiego","spot":"1","number":"9426","bikes":"15","bike_racks":"23","free_racks":"8","terminal_type":"7inch","bike_numbers":"24559,24028,24020,24006,27878,27732,27581,26786,26212,26154,26100,25753,25107,28949,96193","bike_types":{"4":12,"26":3},"place_type":"0","rack_locks":"1"},{"uid":"2585306","lat":"52.2563145","lng":"20.9682307","name":"Pow\u0105zkowska - Plac Niemena","spot":"1","number":"9427","bikes":"9","bike_racks":"16","free_racks":"8","terminal_type":"7inch","bike_numbers":"24823,27608,26927,26836,26422,26396,28851,29178,29215","bike_types":{"4":9},"place_type":"0","rack_locks":"1"},{"uid":"2585307","lat":"52.258524460024","lng":"20.970931649208","name":"Przasnyska - Rydygiera","spot":"1","number":"9428","bikes":"14","bike_racks":"15","free_racks":"1","terminal_type":"7inch","bike_numbers":"24984,24616,24525,28338,28256,28074,27785,27697,27305,26993,26984,26211,29387,96023","bike_types":{"4":14},"place_type":"0","rack_locks":"1"},{"uid":"2585308","lat":"52.253594","lng":"20.9798744","name":"Pow\u0105zkowska - Burakowska","spot":"1","number":"9429","bikes":"16","bike_racks":"20","free_racks":"4","terminal_type":"7inch","bike_numbers":"28327,27743,27625,27357,27288,26718,26510,26238,25837,25684,25241,25080,29036,28941,96421,96206","bike_types":{"4":16},"place_type":"0","rack_locks":"1"},{"uid":"2585311","lat":"52.2576018","lng":"20.9944975","name":"Metro Dworzec Gda\u0144ski","spot":"1","number":"9430","bikes":"26","bike_racks":"30","free_racks":"4","terminal_type":"7inch","bike_numbers":"24726,24682,28554,28452,28351,28300,28013,27956,26921,26764,26045,25945,25925,25922,25729,25463,25105,25082,28960,29125,28962,96041,96330,96177,96083,29183","bike_types":{"4":25,"0":1},"place_type":"0","rack_locks":"1"},{"uid":"2585315","lat":"52.2465952","lng":"20.9429216","name":"Obozowa - Cio\u0142ka","spot":"1","number":"9432","bikes":"12","bike_racks":"13","free_racks":"1","terminal_type":"7inch","bike_numbers":"24934,24564,28457,27617,27449,27063,26406,25344,29092,28908,96112,29190","bike_types":{"4":12},"place_type":"0","rack_locks":"1"},{"uid":"2585317","lat":"52.227621983552","lng":"20.956758856773","name":"al. Prymasa Tysi\u0105clecia - Kasprzaka","spot":"1","number":"9433","bikes":"16","bike_racks":"23","free_racks":"6","terminal_type":"7inch","bike_numbers":"24742,24590,25004,28505,27866,27317,26759,26321,26069,25912,25709,25591,25072,29459,28846,96160","bike_types":{"4":16},"place_type":"0","rack_locks":"1"},{"uid":"2585319","lat":"52.246037","lng":"20.962463","name":"Obozowa - Radziwie","spot":"1","number":"9434","bikes":"11","bike_racks":"13","free_racks":"3","terminal_type":"7inch","bike_numbers":"24531,24505,24024,28218,27948,26822,26511,25865,25258,29015,29388","bike_types":{"4":10,"26":1},"place_type":"0","rack_locks":"1"},{"uid":"2585321","lat":"52.2514708","lng":"20.9857053","name":"al. Jana Paw\u0142a II - Stawki","spot":"1","number":"9435","bikes":"17","bike_racks":"23","free_racks":"6","terminal_type":"7inch","bike_numbers":"24937,24605,24509,28667,28559,28155,26456,26286,26232,26066,25466,25423,25084,96396,96346,29233,29226","bike_types":{"4":17},"place_type":"0","rack_locks":"1"},{"uid":"2585323","lat":"52.2535305","lng":"20.9924922","name":"Stawki - Dubois","spot":"1","number":"9436","bikes":"5","bike_racks":"13","free_racks":"8","terminal_type":"7inch","bike_numbers":"28768,27370,26726,26402,26085","bike_types":{"4":5},"place_type":"0","rack_locks":"1"},{"uid":"2585326","lat":"52.2541702","lng":"20.9980649","name":"Andersa - Muranowska","spot":"1","number":"9437","bikes":"18","bike_racks":"30","free_racks":"14","terminal_type":"7inch","bike_numbers":"24960,24958,24753,28731,28688,28034,27825,27792,27392,27061,26971,26676,26560,25077,25020,25961,96319,96302","bike_types":{"4":18},"place_type":"0","rack_locks":"1"},{"uid":"2585327","lat":"52.255877","lng":"21.0099819","name":"Sanguszki - Wybrze\u017ce Gda\u0144skie","spot":"1","number":"9438","bikes":"23","bike_racks":"28","free_racks":"5","terminal_type":"7inch","bike_numbers":"24634,28602,28586,28151,28023,27698,27564,27408,27259,27157,26686,26252,26243,26201,26157,25988,25846,25614,25248,25099,96492,29167,24051","bike_types":{"4":22,"26":1},"place_type":"0","rack_locks":"1"},{"uid":"2585330","lat":"52.24418","lng":"20.97794","name":"Okopowa - Anielewicza","spot":"1","number":"9440","bikes":"8","bike_racks":"20","free_racks":"12","terminal_type":"7inch","bike_numbers":"28710,27973,27577,27409,26357,26020,25999,96214","bike_types":{"4":8},"place_type":"0","rack_locks":"1"},{"uid":"2585333","lat":"52.2486","lng":"20.98352","name":"Smocza - Mi\u0142a","spot":"1","number":"9441","bikes":"13","bike_racks":"15","free_racks":"2","terminal_type":"7inch","bike_numbers":"24854,28062,27860,27665,26845,26755,26304,25796,25339,25263,96009,96159,96585","bike_types":{"4":13},"place_type":"0","rack_locks":"1"},{"uid":"2585334","lat":"52.24616","lng":"20.98538","name":"Smocza - Anielewicza","spot":"1","number":"9442","bikes":"16","bike_racks":"17","free_racks":"1","terminal_type":"7inch","bike_numbers":"24815,27805,27801,27701,27621,26997,26893,26290,26057,25648,25388,25373,25234,96455,96332,96187","bike_types":{"4":16},"place_type":"0","rack_locks":"1"},{"uid":"2585335","lat":"52.247226","lng":"20.9893155","name":"al. Jana Paw\u0142a II - Anielewicza","spot":"1","number":"9443","bikes":"16","bike_racks":"22","free_racks":"7","terminal_type":"7inch","bike_numbers":"24991,28899,28716,28123,28044,27969,27355,26810,26389,25751,25698,29010,28946,60834,28985,96163","bike_types":{"4":16},"place_type":"0","rack_locks":"1"},{"uid":"2585337","lat":"52.249052","lng":"20.9948923","name":"Anielewicza - Zamenhofa","spot":"1","number":"9444","bikes":"13","bike_racks":"15","free_racks":"2","terminal_type":"7inch","bike_numbers":"24967,28424,28100,28045,27393,26662,26462,25779,25184,29138,96060,63603,29169","bike_types":{"4":12,"0":1},"place_type":"0","rack_locks":"1"},{"uid":"2585338","lat":"52.2492196","lng":"20.9971878","name":"Anielewicza - Andersa","spot":"1","number":"9445","bikes":"12","bike_racks":"20","free_racks":"8","terminal_type":"7inch","bike_numbers":"28309,27900,27753,26979,26467,26329,26299,25374,63621,96339,29265,96584","bike_types":{"4":12},"place_type":"0","rack_locks":"1"},{"uid":"2585340","lat":"52.251549","lng":"21.002749","name":"Bonifraterska - Franciszka\u0144ska","spot":"1","number":"9446","bikes":"9","bike_racks":"18","free_racks":"10","terminal_type":"7inch","bike_numbers":"28608,27575,26904,26747,26698,26181,25573,29345,28844","bike_types":{"4":9},"place_type":"0","rack_locks":"1"},{"uid":"2585342","lat":"52.2541119","lng":"21.0093342","name":"Ko\u015bcielna - Piesza","spot":"1","number":"9448","bikes":"20","bike_racks":"26","free_racks":"6","terminal_type":"7inch","bike_numbers":"24945,24930,24613,28650,28340,28324,27950,27499,27261,27257,26556,26533,26371,26229,25393,25305,25130,29020,28840,28965","bike_types":{"4":20},"place_type":"0","rack_locks":"1"},{"uid":"2585344","lat":"52.2392622","lng":"20.8987641","name":"P\u0119tla Os. G\u00f3rczewska","spot":"1","number":"9449","bikes":"9","bike_racks":"15","free_racks":"7","terminal_type":"7inch","bike_numbers":"27777,27644,27598,27109,26660,25685,25578,25201,96479","bike_types":{"4":9},"place_type":"0","rack_locks":"1"},{"uid":"2585345","lat":"52.2389287","lng":"20.9139535","name":"Bemowo-Ratusz","spot":"1","number":"9450","bikes":"26","bike_racks":"20","free_racks":"3","terminal_type":"7inch","bike_numbers":"24458,28549,28478,27959,27752,27614,27501,27413,27309,27221,27097,27002,26991,26894,26859,26749,26654,25601,25568,25375,25120,29454,28777,96534,96260,29211","bike_types":{"51":1,"4":25},"place_type":"0","rack_locks":"1"},{"uid":"2585346","lat":"52.2387861","lng":"20.9424946","name":"Okocimska - Olbrachta","spot":"1","number":"9451","bikes":"8","bike_racks":"18","free_racks":"10","terminal_type":"7inch","bike_numbers":"24849,24548,28654,28459,27823,27390,25771,96258","bike_types":{"4":8},"place_type":"0","rack_locks":"1"},{"uid":"2585349","lat":"52.2506241","lng":"21.0533611","name":"Dworzec Wschodni - Lubelska","spot":"1","number":"9452","bikes":"13","bike_racks":"15","free_racks":"2","terminal_type":"7inch","bike_numbers":"24583,28628,27802,27609,27517,27441,26440,26398,25773,25542,25159,96119,29204","bike_types":{"4":13},"place_type":"0","rack_locks":"1"},{"uid":"2585351","lat":"52.2369249","lng":"20.9723559","name":"Leszno - M\u0142ynarska","spot":"1","number":"9453","bikes":"15","bike_racks":"30","free_racks":"16","terminal_type":"7inch","bike_numbers":"24649,24491,24029,28365,28314,28142,26795,26366,25253,25032,29552,96518,96449,96324,29255","bike_types":{"4":13,"51":1,"26":1},"place_type":"0","rack_locks":"1"},{"uid":"2585352","lat":"52.2430451","lng":"20.9803864","name":"Dzielna - Bellottiego","spot":"1","number":"9454","bikes":"7","bike_racks":"13","free_racks":"4","terminal_type":"7inch","bike_numbers":"24995,28882,27924,26934,26276,25789,25155","bike_types":{"4":7},"place_type":"0","rack_locks":"1"},{"uid":"2585353","lat":"52.24108","lng":"20.98316","name":"Wolno\u015b\u0107 - Bellottiego","spot":"1","number":"9455","bikes":"6","bike_racks":"16","free_racks":"10","terminal_type":"7inch","bike_numbers":"24790,28325,28041,27566,25451,25238","bike_types":{"4":6},"place_type":"0","rack_locks":"1"},{"uid":"2585354","lat":"52.2435448","lng":"20.9873507","name":"Smocza - Nowolipki","spot":"1","number":"9456","bikes":"12","bike_racks":"16","free_racks":"4","terminal_type":"7inch","bike_numbers":"24693,28874,27406,27318,27244,27073,26960,26273,25953,28975,29251,96587","bike_types":{"4":12},"place_type":"0","rack_locks":"1"},{"uid":"2585356","lat":"52.2445767","lng":"20.99177","name":"al. Jana Paw\u0142a II - Nowolipki","spot":"1","number":"9457","bikes":"13","bike_racks":"16","free_racks":"3","terminal_type":"7inch","bike_numbers":"24880,24601,24030,28897,28637,28011,26381,26380,29043,29013,29421,96573,29260","bike_types":{"4":12,"26":1},"place_type":"0","rack_locks":"1"},{"uid":"2585358","lat":"52.22868","lng":"20.91509","name":"Powsta\u0144c\u00f3w \u015al\u0105skich - Cz\u0142uchowska","spot":"1","number":"9458","bikes":"12","bike_racks":"16","free_racks":"2","terminal_type":"7inch","bike_numbers":"24885,24595,28288,27470,26857,26743,25939,25919,25794,25665,96371,29199","bike_types":{"4":12},"place_type":"0","rack_locks":"1"},{"uid":"2585360","lat":"52.2342032","lng":"20.934689","name":"Jana Olbrachta - Antka Rozpylacza","spot":"1","number":"9459","bikes":"4","bike_racks":"13","free_racks":"9","terminal_type":"7inch","bike_numbers":"24917,24773,26115,26092","bike_types":{"4":4},"place_type":"0","rack_locks":"1"},{"uid":"2585364","lat":"52.2401623","lng":"20.9877277","name":"Wola-Ratusz","spot":"1","number":"9460","bikes":"6","bike_racks":"15","free_racks":"9","terminal_type":"7inch","bike_numbers":"28752,27800,27341,26503,26482,29011","bike_types":{"4":6},"place_type":"0","rack_locks":"1"},{"uid":"2585368","lat":"52.2445326","lng":"20.99998","name":"Plac Bankowy - Kino Muran\u00f3w","spot":"1","number":"9462","bikes":"12","bike_racks":"17","free_racks":"5","terminal_type":"7inch","bike_numbers":"24947,24636,24494,26199,26186,25522,25407,25342,29079,29431,96403,96152","bike_types":{"4":11,"51":1},"place_type":"0","rack_locks":"1"},{"uid":"2585369","lat":"52.2449465","lng":"21.0012943","name":"Andersa - D\u0142uga","spot":"1","number":"9463","bikes":"12","bike_racks":"30","free_racks":"18","terminal_type":"7inch","bike_numbers":"24926,28714,28548,28150,27007,25984,25970,29340,96385,96359,96316,96101","bike_types":{"4":12},"place_type":"0","rack_locks":"1"},{"uid":"2585370","lat":"52.2442666","lng":"21.0015893","name":"Marsza\u0142kowska - al. Solidarno\u015bci","spot":"1","number":"9464","bikes":"16","bike_racks":"30","free_racks":"13","terminal_type":"7inch","bike_numbers":"24857,24803,24724,24580,25009,28065,27563,27561,27324,27145,26592,25604,25134,60845,28832,96480","bike_types":{"4":16},"place_type":"0","rack_locks":"1"},{"uid":"2585371","lat":"52.2431975","lng":"21.0016603","name":"Plac Bankowy - Ratusz","spot":"1","number":"9465","bikes":"16","bike_racks":"30","free_racks":"14","terminal_type":"7inch","bike_numbers":"24740,24728,28502,28454,28293,27962,27299,27229,26957,26643,26397,26224,25707,25251,28948,29362","bike_types":{"4":16},"place_type":"0","rack_locks":"1"},{"uid":"2585373","lat":"52.2435719","lng":"21.0066801","name":"Senatorska - Biela\u0144ska","spot":"1","number":"9466","bikes":"14","bike_racks":"17","free_racks":"3","terminal_type":"7inch","bike_numbers":"24655,28565,28332,28297,28085,28008,27648,27100,26473,26464,26176,25875,25543,29221","bike_types":{"4":14},"place_type":"0","rack_locks":"1"},{"uid":"2585377","lat":"52.246314509834","lng":"21.0113042593","name":"Miodowa","spot":"1","number":"9467","bikes":"17","bike_racks":"24","free_racks":"7","terminal_type":"7inch","bike_numbers":"24943,24795,24556,28665,28427,28350,28012,27396,27374,26624,26486,26393,25504,25432,25421,28841,96097","bike_types":{"4":17},"place_type":"0","rack_locks":"1"},{"uid":"2585378","lat":"52.2435965","lng":"21.0140803","name":"Krakowskie Przedmie\u015bcie - Tr\u0119backa","spot":"1","number":"9468","bikes":"8","bike_racks":"14","free_racks":"8","terminal_type":"7inch","bike_numbers":"28762,28690,28035,27562,26720,25681,25324,96342","bike_types":{"4":8},"place_type":"0","rack_locks":"1"},{"uid":"2585379","lat":"52.2465625","lng":"21.0174345","name":"Mariensztat","spot":"1","number":"9469","bikes":"8","bike_racks":"15","free_racks":"7","terminal_type":"7inch","bike_numbers":"24969,28308,27714,27252,27045,27037,25552,96219","bike_types":{"4":8},"place_type":"0","rack_locks":"1"},{"uid":"2585381","lat":"52.224934","lng":"20.945489","name":"Jana Kazimierza - Giz\u00f3w","spot":"1","number":"9471","bikes":"9","bike_racks":"13","free_racks":"4","terminal_type":"7inch","bike_numbers":"28442,27799,27718,26772,26515,25962,96550,96523,96476","bike_types":{"4":9},"place_type":"0","rack_locks":"1"},{"uid":"2585385","lat":"52.23016","lng":"20.951558","name":"Wolska - Elekcyjna","spot":"1","number":"9472","bikes":"18","bike_racks":"20","free_racks":"2","terminal_type":"7inch","bike_numbers":"24528,25001,28706,28473,28466,28410,28397,28064,27992,27315,27115,27102,26518,26185,26163,25967,25237,96486","bike_types":{"4":18},"place_type":"0","rack_locks":"1"},{"uid":"2585387","lat":"52.237662392829","lng":"20.955492854118","name":"al. Prymasa Tysi\u0105clecia - G\u00f3rczewska","spot":"1","number":"9473","bikes":"18","bike_racks":"20","free_racks":"2","terminal_type":"7inch","bike_numbers":"24765,28750,28265,27867,27807,27548,27468,26840,26756,26733,26668,26421,26363,25381,25074,29121,96225,96199","bike_types":{"4":17,"0":1},"place_type":"0","rack_locks":"1"},{"uid":"2585389","lat":"52.2333374","lng":"20.9652776","name":"Wolska - P\u0142ocka","spot":"1","number":"9474","bikes":"19","bike_racks":"20","free_racks":"1","terminal_type":"7inch","bike_numbers":"24656,25002,28898,28712,28364,28115,28038,27527,26947,26942,26414,26297,25767,25695,25323,29426,28866,96483,96273","bike_types":{"4":19},"place_type":"0","rack_locks":"1"},{"uid":"2585391","lat":"52.228522296173","lng":"20.969638824463","name":"Kasprzaka - Skierniewicka","spot":"1","number":"9475","bikes":"15","bike_racks":"21","free_racks":"6","terminal_type":"7inch","bike_numbers":"24911,24877,24774,24769,28640,27963,27686,27463,27208,27203,27151,26401,25391,29136,29182","bike_types":{"4":14,"0":1},"place_type":"0","rack_locks":"1"},{"uid":"2585394","lat":"52.22898","lng":"20.97843","name":"Kasprzaka - Karolkowa","spot":"1","number":"9476","bikes":"7","bike_racks":"15","free_racks":"8","terminal_type":"7inch","bike_numbers":"24659,27694,27435,27138,26008,96424,96310","bike_types":{"4":7},"place_type":"0","rack_locks":"1"},{"uid":"2585396","lat":"52.2328752","lng":"20.9805411","name":"Muzeum Powstania Warszawskiego","spot":"1","number":"9477","bikes":"8","bike_racks":"10","free_racks":"1","terminal_type":"7inch","bike_numbers":"28430,27942,27640,27593,27186,25468,96405,96234","bike_types":{"4":8},"place_type":"0","rack_locks":"1"},{"uid":"2585398","lat":"52.22983","lng":"20.983123","name":"Metro Rondo Daszy\u0144skiego","spot":"1","number":"9478","bikes":"5","bike_racks":"26","free_racks":"21","terminal_type":"7inch","bike_numbers":"28341,27849,27125,26938,26913","bike_types":{"4":5},"place_type":"0","rack_locks":"1"},{"uid":"2585400","lat":"52.23145","lng":"20.98869","name":"Prosta - Wronia","spot":"1","number":"9479","bikes":"6","bike_racks":"15","free_racks":"9","terminal_type":"7inch","bike_numbers":"27949,27038,26459,25997,25808,29067","bike_types":{"4":6},"place_type":"0","rack_locks":"1"},{"uid":"2585401","lat":"52.2373141","lng":"20.9888488","name":"\u017belazna - Ch\u0142odna","spot":"1","number":"9480","bikes":"4","bike_racks":"15","free_racks":"11","terminal_type":"7inch","bike_numbers":"24853,27693,27057,96508","bike_types":{"4":4},"place_type":"0","rack_locks":"1"},{"uid":"2585402","lat":"52.2344946","lng":"20.9905117","name":"\u017belazna - Grzybowska","spot":"1","number":"9481","bikes":"21","bike_racks":"20","free_racks":"0","terminal_type":"7inch","bike_numbers":"24800,24643,24516,25000,28132,28130,27733,27522,26987,26618,26596,26580,26437,25671,25282,25229,25142,29386,96547,96269,96134","bike_types":{"4":21},"place_type":"0","rack_locks":"1"},{"uid":"2585405","lat":"52.238666","lng":"20.9957314","name":"al. Jana Paw\u0142a II - Plac Mirowski","spot":"1","number":"9482","bikes":"16","bike_racks":"21","free_racks":"5","terminal_type":"7inch","bike_numbers":"24718,24466,27851,27610,26551,26439,26061,26031,25595,25256,25194,25100,96053,96549,96360,29234","bike_types":{"4":15,"51":1},"place_type":"0","rack_locks":"1"},{"uid":"2585406","lat":"52.2357151","lng":"20.9966071","name":"al. Jana Paw\u0142a II - Grzybowska","spot":"1","number":"9483","bikes":"21","bike_racks":"30","free_racks":"8","terminal_type":"7inch","bike_numbers":"24978,24816,24792,24599,24541,28680,28214,27612,27554,27493,27301,26802,26693,26653,25944,25303,25016,96569,96372,29152,29203","bike_types":{"4":21},"place_type":"0","rack_locks":"1"},{"uid":"2585410","lat":"52.23958","lng":"21.00027","name":"Ptasia - Zimna","spot":"1","number":"9485","bikes":"8","bike_racks":"16","free_racks":"8","terminal_type":"7inch","bike_numbers":"28141,26307,25565,25403,25030,28776,96167,96586","bike_types":{"4":8},"place_type":"0","rack_locks":"1"},{"uid":"2585412","lat":"52.2336314","lng":"21.0028795","name":"Emilii Plater - \u015awi\u0119tokrzyska","spot":"1","number":"9486","bikes":"8","bike_racks":"26","free_racks":"18","terminal_type":"7inch","bike_numbers":"28715,28131,26871,25475,25206,29200,28997,96411","bike_types":{"4":8},"place_type":"0","rack_locks":"1"},{"uid":"2585413","lat":"52.2358704","lng":"21.0037806","name":"Plac Grzybowski","spot":"1","number":"9487","bikes":"6","bike_racks":"26","free_racks":"21","terminal_type":"7inch","bike_numbers":"24739,27079,26545,25382,25224,29449","bike_types":{"4":6},"place_type":"0","rack_locks":"1"},{"uid":"2585416","lat":"52.2384853","lng":"21.0067552","name":"Marsza\u0142kowska - Kr\u00f3lewska","spot":"1","number":"9488","bikes":"17","bike_racks":"19","free_racks":"2","terminal_type":"7inch","bike_numbers":"24976,28598,28570,28148,28102,27671,27306,27271,25835,25619,25472,25023,29451,96026,96392,96122,29217","bike_types":{"4":17},"place_type":"0","rack_locks":"1"},{"uid":"2585417","lat":"52.2364206","lng":"21.0072407","name":"Marsza\u0142kowska - Zielna","spot":"1","number":"9489","bikes":"6","bike_racks":"30","free_racks":"24","terminal_type":"7inch","bike_numbers":"26678,26148,26145,25825,25185,25132","bike_types":{"4":6},"place_type":"0","rack_locks":"1"},{"uid":"2585420","lat":"52.2397008","lng":"21.0119292","name":"Plac Ma\u0142achowskiego","spot":"1","number":"9491","bikes":"7","bike_racks":"16","free_racks":"9","terminal_type":"7inch","bike_numbers":"24735,24500,28643,25337,29083,29373,25629","bike_types":{"4":6,"51":1},"place_type":"0","rack_locks":"1"},{"uid":"2585422","lat":"52.2359114","lng":"21.0135654","name":"Plac Powsta\u0144c\u00f3w Warszawy","spot":"1","number":"9492","bikes":"14","bike_racks":"20","free_racks":"6","terminal_type":"7inch","bike_numbers":"24913,27983,27546,27297,27012,26861,26432,26352,26014,25890,25723,28894,96059,96056","bike_types":{"4":14},"place_type":"0","rack_locks":"1"},{"uid":"2585423","lat":"52.2393559","lng":"21.016603","name":"Krakowskie Przedmie\u015bcie - Traugutta","spot":"1","number":"9493","bikes":"11","bike_racks":"24","free_racks":"13","terminal_type":"7inch","bike_numbers":"24955,24932,24797,27926,27119,26621,25597,29122,96082,29201,29280","bike_types":{"4":10,"0":1},"place_type":"0","rack_locks":"1"},{"uid":"2585429","lat":"52.238298","lng":"21.0184014","name":"Obo\u017ana - Kopernika","spot":"1","number":"9495","bikes":"15","bike_racks":"22","free_racks":"7","terminal_type":"7inch","bike_numbers":"24975,28482,28477,27654,27455,27421,27239,26827,26579,26289,26028,25704,29639,63620,96452","bike_types":{"4":15},"place_type":"0","rack_locks":"1"},{"uid":"2585430","lat":"52.24190654256","lng":"21.024259328842","name":"Lipowa - Dobra","spot":"1","number":"9496","bikes":"11","bike_racks":"19","free_racks":"8","terminal_type":"7inch","bike_numbers":"24508,24467,28678,26672,26425,26284,25854,25268,29046,63602,96264","bike_types":{"4":10,"51":1},"place_type":"0","rack_locks":"1"},{"uid":"2585431","lat":"52.2413087","lng":"21.0281727","name":"Centrum Nauki Kopernik","spot":"1","number":"9497","bikes":"19","bike_racks":"30","free_racks":"11","terminal_type":"7inch","bike_numbers":"24944,28412,28401,28133,27846,27759,27323,27303,27181,26916,26854,26394,26204,25330,29646,28915,28974,96561,96354","bike_types":{"4":19},"place_type":"0","rack_locks":"1"},{"uid":"2585432","lat":"52.2264464","lng":"20.9837164","name":"Kolejowa","spot":"1","number":"9498","bikes":"11","bike_racks":"16","free_racks":"5","terminal_type":"7inch","bike_numbers":"24956,28668,28071,27613,27023,26706,26269,26241,26005,29060,24555","bike_types":{"4":11},"place_type":"0","rack_locks":"1"},{"uid":"2585433","lat":"52.22983","lng":"20.993996","name":"\u017belazna - Sienna","spot":"1","number":"9499","bikes":"5","bike_racks":"30","free_racks":"23","terminal_type":"7inch","bike_numbers":"27521,27170,25255,96423,29194","bike_types":{"4":5},"place_type":"0","rack_locks":"1"},{"uid":"2585435","lat":"52.230201297582","lng":"20.999550819397","name":"al. Jana Paw\u0142a II - Z\u0142ota","spot":"1","number":"9500","bikes":"6","bike_racks":"16","free_racks":"9","terminal_type":"7inch","bike_numbers":"28135,27062,26930,26237,29448,29128","bike_types":{"4":5,"0":1},"place_type":"0","rack_locks":"1"},{"uid":"2585438","lat":"52.2309778","lng":"21.0036755","name":"Emilii Plater - Z\u0142ota","spot":"1","number":"9501","bikes":"13","bike_racks":"30","free_racks":"17","terminal_type":"7inch","bike_numbers":"28402,28345,27840,27641,27039,26929,26063,25680,25539,25341,28978,96460,29250","bike_types":{"4":13},"place_type":"0","rack_locks":"1"},{"uid":"2585440","lat":"52.232816601853","lng":"21.006980538368","name":"Pa\u0142ac Kultury i Nauki","spot":"1","number":"9502","bikes":"16","bike_racks":"17","free_racks":"1","terminal_type":"7inch","bike_numbers":"24964,24461,28803,28461,28335,26949,26800,26559,26446,26248,26111,25425,25384,96115,29264,29231","bike_types":{"4":15,"51":1},"place_type":"0","rack_locks":"1"},{"uid":"2585442","lat":"52.232934","lng":"21.0101791","name":"Marsza\u0142kowska - Z\u0142ota","spot":"1","number":"9503","bikes":"11","bike_racks":"22","free_racks":"10","terminal_type":"7inch","bike_numbers":"28348,27703,27538,27000,26766,26451,26119,26055,25316,29004,29132","bike_types":{"4":10,"0":1},"place_type":"0","rack_locks":"1"},{"uid":"2585445","lat":"52.231987","lng":"21.016092","name":"Bracka - Krucza","spot":"1","number":"9504","bikes":"17","bike_racks":"20","free_racks":"3","terminal_type":"7inch","bike_numbers":"24992,24663,26843,26319,25888,25726,25611,25449,25411,25209,25171,25024,96004,96468,96373,96130,29263","bike_types":{"4":17},"place_type":"0","rack_locks":"1"},{"uid":"2585446","lat":"52.2355713","lng":"21.0179642","name":"Nowy \u015awiat - Warecka","spot":"1","number":"9505","bikes":"9","bike_racks":"24","free_racks":"15","terminal_type":"7inch","bike_numbers":"24621,24479,28312,28217,27053,25277,25058,96025,96146","bike_types":{"4":8,"51":1},"place_type":"0","rack_locks":"1"},{"uid":"2585447","lat":"52.2337571","lng":"21.0202789","name":"Ga\u0142czy\u0144skiego - Foksal","spot":"1","number":"9506","bikes":"17","bike_racks":"24","free_racks":"7","terminal_type":"7inch","bike_numbers":"24940,28019,27730,27278,27209,26750,26555,26136,26065,26043,25719,25576,25523,25439,29014,25622,96519","bike_types":{"4":17},"place_type":"0","rack_locks":"1"},{"uid":"2585450","lat":"52.2375934","lng":"21.0256487","name":"Topiel - Tamka","spot":"1","number":"9507","bikes":"12","bike_racks":"20","free_racks":"8","terminal_type":"7inch","bike_numbers":"24996,24678,24660,28525,28055,26161,25175,29064,29357,96047,96320,96230","bike_types":{"4":12},"place_type":"0","rack_locks":"1"},{"uid":"2585452","lat":"52.2358752","lng":"21.0317323","name":"Solec - Jaracza","spot":"1","number":"9508","bikes":"11","bike_racks":"15","free_racks":"4","terminal_type":"7inch","bike_numbers":"28902,28663,27584,27489,27084,26415,26070,26034,25122,28913,28971","bike_types":{"4":11},"place_type":"0","rack_locks":"1"},{"uid":"2585453","lat":"52.2218874","lng":"20.9795301","name":"al. Jerozolimskie - Niemcewicza","spot":"1","number":"9509","bikes":"11","bike_racks":"19","free_racks":"8","terminal_type":"7inch","bike_numbers":"24714,28760,28685,27658,27479,27131,26502,25397,25271,96571,29151","bike_types":{"4":11},"place_type":"0","rack_locks":"1"},{"uid":"2585455","lat":"52.2222155","lng":"20.9866293","name":"Ochota-Ratusz","spot":"1","number":"9510","bikes":"12","bike_racks":"23","free_racks":"11","terminal_type":"7inch","bike_numbers":"28528,28488,26900,26769,26748,26475,26164,26132,25109,29659,96441,96274","bike_types":{"4":12},"place_type":"0","rack_locks":"1"},{"uid":"2585457","lat":"52.2249718","lng":"20.9897661","name":"Plac Zawiszy","spot":"1","number":"9511","bikes":"12","bike_racks":"24","free_racks":"11","terminal_type":"7inch","bike_numbers":"24938,28561,28512,27679,26671,26574,26302,26112,25309,28813,96451,24049","bike_types":{"4":11,"26":1},"place_type":"0","rack_locks":"1"},{"uid":"2585460","lat":"52.22626","lng":"20.9961309","name":"al. Jerozolimskie - Lindleya","spot":"1","number":"9512","bikes":"2","bike_racks":"15","free_racks":"13","terminal_type":"7inch","bike_numbers":"28420,26017","bike_types":{"4":2},"place_type":"0","rack_locks":"1"},{"uid":"2585462","lat":"52.2241455","lng":"20.9975244","name":"Lindleya - szpital","spot":"1","number":"9513","bikes":"9","bike_racks":"28","free_racks":"18","terminal_type":"7inch","bike_numbers":"24758,28692,27439,27423,26725,25850,25711,25610,25386","bike_types":{"4":9},"place_type":"0","rack_locks":"1"},{"uid":"2585464","lat":"52.227861","lng":"21.0008509","name":"Warszawa \u015ar\u00f3dmie\u015bcie WKD","spot":"1","number":"9514","bikes":"5","bike_racks":"18","free_racks":"11","terminal_type":"7inch","bike_numbers":"28761,27176,96024,96553,96357","bike_types":{"4":5},"place_type":"0","rack_locks":"1"},{"uid":"2585466","lat":"52.2249555","lng":"21.0031664","name":"Oczki - WUM","spot":"1","number":"9515","bikes":"1","bike_racks":"19","free_racks":"18","terminal_type":"7inch","bike_numbers":"29086","bike_types":{"4":1},"place_type":"0","rack_locks":"1"},{"uid":"2585469","lat":"52.2290464","lng":"21.0054544","name":"Emilii Plater - Al. Jerozolimskie","spot":"1","number":"9517","bikes":"18","bike_racks":"30","free_racks":"13","terminal_type":"7inch","bike_numbers":"24600,28677,28562,28040,27934,27632,27418,26940,26283,25885,25514,25493,25446,25169,28924,28993,96530,96117","bike_types":{"4":18},"place_type":"0","rack_locks":"1"},{"uid":"2585470","lat":"52.2259343","lng":"21.0067537","name":"Emilii Plater - Wsp\u00f3lna","spot":"1","number":"9518","bikes":"9","bike_racks":"15","free_racks":"6","terminal_type":"7inch","bike_numbers":"28539,28292,28088,27635,27308,27036,26500,96562,29186","bike_types":{"4":9},"place_type":"0","rack_locks":"1"},{"uid":"2585472","lat":"52.23001","lng":"21.01088","name":"Metro Centrum","spot":"1","number":"9519","bikes":"11","bike_racks":"30","free_racks":"21","terminal_type":"7inch","bike_numbers":"27328,26990,26885,26642,26547,26350,26137,25056,29654,28875,96506","bike_types":{"4":11},"place_type":"0","rack_locks":"1"},{"uid":"2585473","lat":"52.229347019086","lng":"21.011314988136","name":"Marsza\u0142kowska - Al. Jerozolimskie","spot":"1","number":"9520","bikes":"16","bike_racks":"24","free_racks":"8","terminal_type":"7inch","bike_numbers":"28741,28695,28301,28296,28018,27915,27484,27171,26449,26047,25977,25849,25359,25113,28888,63630","bike_types":{"4":16},"place_type":"0","rack_locks":"1"},{"uid":"2585476","lat":"52.230418150276","lng":"21.013610959053","name":"al. Jerozolimskie - rejon Rotundy","spot":"1","number":"9521","bikes":"5","bike_racks":"24","free_racks":"19","terminal_type":"7inch","bike_numbers":"24571,28522,27160,25298,25215","bike_types":{"4":5},"place_type":"0","rack_locks":"1"},{"uid":"2585477","lat":"52.2262882","lng":"21.0135705","name":"Marsza\u0142kowska - Ho\u017ca","spot":"1","number":"9522","bikes":"11","bike_racks":"15","free_racks":"4","terminal_type":"7inch","bike_numbers":"24537,27751,27401,27226,26588,25354,28981,28833,28823,96414,96577","bike_types":{"4":11},"place_type":"0","rack_locks":"1"},{"uid":"2585492","lat":"52.2282923","lng":"21.0178542","name":"Krucza - Wsp\u00f3lna","spot":"1","number":"9523","bikes":"10","bike_racks":"28","free_racks":"18","terminal_type":"7inch","bike_numbers":"24730,28589,28358,27338,26939,25782,25512,96046,96462,96173","bike_types":{"4":10},"place_type":"0","rack_locks":"1"},{"uid":"2585684","lat":"52.23144","lng":"21.0213036","name":"Rondo de Gaulle'a","spot":"1","number":"9524","bikes":"14","bike_racks":"22","free_racks":"8","terminal_type":"7inch","bike_numbers":"24891,27511,27386,27069,26652,26603,26000,25585,25279,25035,28918,96325,96194,96142","bike_types":{"4":14},"place_type":"0","rack_locks":"1"},{"uid":"2585694","lat":"52.2278487","lng":"21.0235084","name":"Plac Trzech Krzy\u017cy","spot":"1","number":"9525","bikes":"15","bike_racks":"23","free_racks":"8","maintenance":"1","terminal_type":"7inch","bike_numbers":"28635,28436,28376,27748,27611,27404,26710,26463,26219,25068,29033,96556,96467,96306,96301","bike_types":{"4":15},"place_type":"0","rack_locks":"1"},{"uid":"2585695","lat":"52.23324","lng":"21.0261179","name":"Smolna - PKP Powi\u015ble","spot":"1","number":"9526","bikes":"5","bike_racks":"18","free_racks":"13","terminal_type":"7inch","bike_numbers":"27741,26863,25815,96418,96221","bike_types":{"4":5},"place_type":"0","rack_locks":"1"},{"uid":"2585699","lat":"52.2340191","lng":"21.0300328","name":"Herberta - PKP Powi\u015ble","spot":"1","number":"9527","bikes":"17","bike_racks":"26","free_racks":"9","terminal_type":"7inch","bike_numbers":"24925,24777,28311,28143,28094,27940,27764,27545,27420,27043,26512,26480,25973,25778,25679,96406,29242","bike_types":{"4":17},"place_type":"0","rack_locks":"1"},{"uid":"2585704","lat":"52.2347879","lng":"21.0340991","name":"Solec - al. 3 Maja","spot":"1","number":"9528","bikes":"20","bike_racks":"24","free_racks":"4","terminal_type":"7inch","bike_numbers":"24897,24754,24570,28581,28544,28208,28072,27945,27858,26830,26793,26077,25974,25858,25530,25172,25079,29446,96294,96150","bike_types":{"4":20},"place_type":"0","rack_locks":"1"},{"uid":"2585708","lat":"52.2301405","lng":"21.0303694","name":"Ksi\u0105\u017c\u0119ca - Rozbrat","spot":"1","number":"9529","bikes":"13","bike_racks":"15","free_racks":"3","terminal_type":"7inch","bike_numbers":"24881,28394,28054,27923,27149,26358,25986,25649,25239,29107,28812,96113,96580","bike_types":{"4":13},"place_type":"0","rack_locks":"1"},{"uid":"2585711","lat":"52.2172177","lng":"20.9713608","name":"Szcz\u0119\u015bliwicka - APS","spot":"1","number":"9530","bikes":"14","bike_racks":"22","free_racks":"6","terminal_type":"7inch","bike_numbers":"28455,27547,27440,27111,26691,26601,26216,26116,25914,25827,25183,29063,96216,96211","bike_types":{"4":14},"place_type":"0","rack_locks":"1"},{"uid":"2585712","lat":"52.2179474","lng":"20.9775567","name":"Kopi\u0144ska - Bia\u0142obrzeska","spot":"1","number":"9531","bikes":"9","bike_racks":"15","free_racks":"6","terminal_type":"7inch","bike_numbers":"24619,28422,28413,26524,25936,25677,25168,25153,25958","bike_types":{"4":9},"place_type":"0","rack_locks":"1"},{"uid":"2585714","lat":"52.2178554","lng":"20.9828138","name":"Plac Narutowicza","spot":"1","number":"9532","bikes":"20","bike_racks":"30","free_racks":"11","terminal_type":"7inch","bike_numbers":"24609,28510,27268,27174,26970,26813,26727,26479,26372,26309,25742,25668,25094,28896,63627,96551,96545,96488,96080,29157","bike_types":{"4":20},"place_type":"0","rack_locks":"1"},{"uid":"2585716","lat":"52.216641","lng":"20.9879476","name":"Raszy\u0144ska - Wawelska","spot":"1","number":"9533","bikes":"8","bike_racks":"20","free_racks":"11","terminal_type":"7inch","bike_numbers":"24676,27104,26777,26553,26091,25494,25196,25195","bike_types":{"4":8},"place_type":"0","rack_locks":"1"},{"uid":"2585717","lat":"52.2191029","lng":"20.9890149","name":"Raszy\u0144ska - Filtrowa","spot":"1","number":"9534","bikes":"10","bike_racks":"22","free_racks":"12","terminal_type":"7inch","bike_numbers":"24585,28084,28024,27856,27569,27289,27179,26501,26108,29191","bike_types":{"4":10},"place_type":"0","rack_locks":"1"},{"uid":"2585720","lat":"52.220676","lng":"21.0045554","name":"al. Niepodleg\u0142o\u015bci - Nowowiejska","spot":"1","number":"9535","bikes":"7","bike_racks":"30","free_racks":"22","terminal_type":"7inch","bike_numbers":"28431,27874,27782,27483,26770,26377,96114","bike_types":{"4":7},"place_type":"0","rack_locks":"1"},{"uid":"2585721","lat":"52.2174693","lng":"21.0056537","name":"Kaczy\u0144skiego - al. Niepodleg\u0142o\u015bci","spot":"1","number":"9536","bikes":"7","bike_racks":"16","free_racks":"9","terminal_type":"7inch","bike_numbers":"28573,27122,26977,26383,26226,26187,28805","bike_types":{"4":7},"place_type":"0","rack_locks":"1"},{"uid":"2585722","lat":"52.2226831","lng":"21.0081097","name":"Noakowskiego - Koszykowa","spot":"1","number":"9537","bikes":"12","bike_racks":"24","free_racks":"12","terminal_type":"7inch","bike_numbers":"24871,24818,24786,24582,28380,27512,26852,26493,26027,25052,28977,96442","bike_types":{"4":12},"place_type":"0","rack_locks":"1"},{"uid":"2585724","lat":"52.219916","lng":"21.0116824","name":"Plac Politechniki","spot":"1","number":"9538","bikes":"20","bike_racks":"27","free_racks":"7","terminal_type":"7inch","bike_numbers":"24712,24697,24666,28367,28149,28049,27599,27415,26728,26497,25766,25336,25027,29037,29367,96528,96189,96158,29277,29225","bike_types":{"4":20},"place_type":"0","rack_locks":"1"},{"uid":"2585727","lat":"52.223503","lng":"21.0128519","name":"Pozna\u0144ska - Zesp\u00f3\u0142 Szk\u00f3\u0142 Gastronomicznych","spot":"1","number":"9539","bikes":"16","bike_racks":"18","free_racks":"2","terminal_type":"7inch","bike_numbers":"24953,24573,24478,28468,28419,28006,27572,27375,26569,26528,26436,26353,96433,96276,29187,29274","bike_types":{"4":15,"51":1},"place_type":"0","rack_locks":"1"},{"uid":"2585728","lat":"52.2174857","lng":"21.0142949","name":"Rondo Jazdy Polskiej","spot":"1","number":"9540","bikes":"10","bike_racks":"24","free_racks":"15","terminal_type":"7inch","bike_numbers":"28720,28580,28453,28359,28252,27638,27425,26705,26558,96495","bike_types":{"4":10},"place_type":"0","rack_locks":"1"},{"uid":"2585729","lat":"52.2197435","lng":"21.0157353","name":"ul. Wary\u0144skiego-ul. Nowowiejska-Metro Politechnika ","spot":"1","number":"9541","bikes":"15","bike_racks":"20","free_racks":"5","terminal_type":"7inch","bike_numbers":"24560,28316,27127,26887,26816,26783,26666,26590,26470,26208,25461,25300,29078,96572,29224","bike_types":{"4":15},"place_type":"0","rack_locks":"1"},{"uid":"2585731","lat":"52.2197681","lng":"21.0172775","name":"Plac Zbawiciela","spot":"1","number":"9542","bikes":"7","bike_racks":"12","free_racks":"5","terminal_type":"7inch","bike_numbers":"27775,26478,25980,25550,29213,29433,29174","bike_types":{"4":7},"place_type":"0","rack_locks":"1"},{"uid":"2585735","lat":"52.2229427","lng":"21.0158211","name":"Plac Konstytucji","spot":"1","number":"9543","bikes":"19","bike_racks":"30","free_racks":"12","terminal_type":"7inch","bike_numbers":"24875,25003,27818,27758,27361,27236,26585,26538,26369,26048,25661,25295,25145,29007,28990,96491,96249,29248,96578","bike_types":{"4":19},"place_type":"0","rack_locks":"1"},{"uid":"2585737","lat":"52.2238152","lng":"21.0207859","name":"Mokotowska - Pi\u0119kna","spot":"1","number":"9544","bikes":"15","bike_racks":"22","free_racks":"7","terminal_type":"7inch","bike_numbers":"24972,24692,24584,24455,28531,27544,27471,27183,25934,25860,25272,25083,25059,96018,96176","bike_types":{"4":14,"51":1},"place_type":"0","rack_locks":"1"},{"uid":"2585738","lat":"52.2200212","lng":"21.0256299","name":"Plac na Rozdro\u017cu","spot":"1","number":"9545","bikes":"18","bike_racks":"26","free_racks":"8","terminal_type":"7inch","bike_numbers":"28592,27941,27869,27796,27235,26658,26379,26261,26155,25734,25275,25233,29352,29456,29641,29126,28837,96311","bike_types":{"4":17,"0":1},"place_type":"0","rack_locks":"1"},{"uid":"2585742","lat":"52.2249504","lng":"21.0268155","name":"Matejki - Wiejska","spot":"1","number":"9546","bikes":"11","bike_racks":"20","free_racks":"9","terminal_type":"7inch","bike_numbers":"24747,24549,28820,27380,26342,25582,25370,25022,29644,96022,96327","bike_types":{"4":11},"place_type":"0","rack_locks":"1"},{"uid":"2585747","lat":"52.2221129","lng":"21.0343873","name":"My\u015bliwiecka - Rozbrat","spot":"1","number":"9547","bikes":"11","bike_racks":"21","free_racks":"10","terminal_type":"7inch","bike_numbers":"24791,28719,27639,26213,26183,25733,25653,25636,96416,96202,29252","bike_types":{"4":11},"place_type":"0","rack_locks":"1"},{"uid":"2585748","lat":"52.2277124","lng":"21.0442955","name":"Port Czerniakowski","spot":"1","number":"9548","bikes":"17","bike_racks":"30","free_racks":"13","terminal_type":"7inch","bike_numbers":"24848,24620,24032,28207,27211,26879,26675,26423,26382,26178,26051,25735,25363,28958,28884,96454,96261","bike_types":{"4":16,"26":1},"place_type":"0","rack_locks":"1"},{"uid":"2585749","lat":"52.2109711","lng":"20.9759125","name":"Gr\u00f3jecka - Bitwy Warszawskiej 1920 roku","spot":"1","number":"9549","bikes":"10","bike_racks":"20","free_racks":"10","terminal_type":"7inch","bike_numbers":"24648,28383,27789,27071,26805,25971,25966,96275,96111,96107","bike_types":{"4":10},"place_type":"0","rack_locks":"1"},{"uid":"2585750","lat":"52.2130296","lng":"20.9819985","name":"Pasteura - Winnicka - UW","spot":"1","number":"9550","bikes":"3","bike_racks":"24","free_racks":"21","terminal_type":"7inch","bike_numbers":"26739,25283,25128","bike_types":{"4":3},"place_type":"0","rack_locks":"1"},{"uid":"2585762","lat":"52.2107722","lng":"20.9847557","name":"Stefana Banacha - UW","spot":"1","number":"9551","bikes":"14","bike_racks":"29","free_racks":"14","terminal_type":"7inch","bike_numbers":"28773,28289,27988,26999,26785,26632,26392,26196,25349,25076,28956,28842,96526,29247","bike_types":{"4":14},"place_type":"0","rack_locks":"1"},{"uid":"2585764","lat":"52.212671","lng":"21.003437","name":"Biblioteka Narodowa","spot":"1","number":"9552","bikes":"4","bike_racks":"24","free_racks":"20","terminal_type":"7inch","bike_numbers":"28873,28216,27834,26514","bike_types":{"4":4},"place_type":"0","rack_locks":"1"},{"uid":"2585766","lat":"52.21691","lng":"21.01997","name":"Marsza\u0142kowska - Litewska","spot":"1","number":"9553","bikes":"5","bike_racks":"15","free_racks":"10","terminal_type":"7inch","bike_numbers":"28904,28485,28317,26711,25487","bike_types":{"4":5},"place_type":"0","rack_locks":"1"},{"uid":"2585770","lat":"52.2083858","lng":"20.9631103","name":"P\u0119tla Szcz\u0119\u015bliwice ","spot":"1","number":"9554","bikes":"13","bike_racks":"19","free_racks":"6","terminal_type":"7inch","bike_numbers":"24719,28550,27947,27939,27445,27279,26959,26083,26071,26026,25931,25721,25589","bike_types":{"4":13},"place_type":"0","rack_locks":"1"},{"uid":"2585771","lat":"52.206153650625","lng":"20.970287919044","name":"Dickensa - Geodet\u00f3w","spot":"1","number":"9555","bikes":"20","bike_racks":"16","free_racks":"4","terminal_type":"7inch","bike_numbers":"28887,28321,28251,28052,27812,27509,27165,27006,26864,26110,26010,25935,25645,25516,25331,29049,60842,96544,96349,96305","bike_types":{"4":20},"place_type":"0","rack_locks":"1"},{"uid":"2585772","lat":"52.205361371875","lng":"20.984664559364","name":"\u017bwirki i Wigury - Ksi\u0119cia Trojdena","spot":"1","number":"9556","bikes":"14","bike_racks":"17","free_racks":"3","terminal_type":"7inch","bike_numbers":"24591,28272,27832,26294,26264,26158,26068,25901,25693,25615,25387,28986,96006,96533","bike_types":{"4":14},"place_type":"0","rack_locks":"1"},{"uid":"2585774","lat":"52.205801893754","lng":"20.998928546906","name":"Rakowiecka - \u015aw. A. Boboli","spot":"1","number":"9557","bikes":"5","bike_racks":"17","free_racks":"12","terminal_type":"7inch","bike_numbers":"24495,28254,27295,25191,96055","bike_types":{"51":1,"4":4},"place_type":"0","rack_locks":"1"},{"uid":"2585776","lat":"52.209916","lng":"21.0067794","name":"al. Niepodleg\u0142o\u015bci - Batorego","spot":"1","number":"9558","bikes":"6","bike_racks":"26","free_racks":"14","terminal_type":"7inch","bike_numbers":"24705,28036,26866,26865,25559,96198","bike_types":{"4":6},"place_type":"0","rack_locks":"1"},{"uid":"2585779","lat":"52.2132375","lng":"21.0210568","name":"Plac Unii Lubelskiej","spot":"1","number":"9559","bikes":"19","bike_racks":"24","free_racks":"6","terminal_type":"7inch","bike_numbers":"28724,28529,27734,27629,27526,27253,26811,26411,26334,25979,25814,25465,25252,29114,29140,96554,96536,96427,29198","bike_types":{"4":18,"0":1},"place_type":"0","rack_locks":"1"},{"uid":"2585781","lat":"52.2027557","lng":"20.9508951","name":"W\u0142odarzewska - Maszynowa","spot":"1","number":"9560","bikes":"14","bike_racks":"18","free_racks":"3","terminal_type":"7inch","bike_numbers":"24847,24717,24465,28278,27965,27189,27042,26257,26102,25748,25596,25533,25067,96344","bike_types":{"4":13,"51":1},"place_type":"0","rack_locks":"1"},{"uid":"2585782","lat":"52.2017647","lng":"20.9820897","name":"Sanocka - Pruszkowska","spot":"1","number":"9561","bikes":"9","bike_racks":"15","free_racks":"7","terminal_type":"7inch","bike_numbers":"24043,28099,26435,26399,26129,26099,26060,25873,29346","bike_types":{"26":1,"4":8},"place_type":"0","rack_locks":"1"},{"uid":"2585785","lat":"52.1981365","lng":"20.9833717","name":"\u017bwirki i Wigury - Rac\u0142awicka","spot":"1","number":"9562","bikes":"14","bike_racks":"18","free_racks":"4","terminal_type":"7inch","bike_numbers":"24860,24750,24576,28691,28585,28146,28051,27696,27534,27337,26529,25603,25111,29452","bike_types":{"4":14},"place_type":"0","rack_locks":"1"},{"uid":"2585787","lat":"52.20177","lng":"20.99969","name":"Wo\u0142oska - Kulskiego","spot":"1","number":"9563","bikes":"8","bike_racks":"15","free_racks":"7","terminal_type":"7inch","bike_numbers":"28738,28476,28409,26965,96484,96178,96147,29208","bike_types":{"4":8},"place_type":"0","rack_locks":"1"},{"uid":"2585788","lat":"52.2042638","lng":"21.014428","name":"Madali\u0144skiego - Kazimierzowska","spot":"1","number":"9564","bikes":"15","bike_racks":"24","free_racks":"9","terminal_type":"7inch","bike_numbers":"24902,28450,28315,28261,28112,26962,26339,25817,25798,25702,25690,25584,29062,96415,29216","bike_types":{"4":15},"place_type":"0","rack_locks":"1"},{"uid":"2585789","lat":"52.2055175","lng":"21.0231033","name":"Pu\u0142awska - Dworkowa","spot":"1","number":"9565","bikes":"10","bike_racks":"19","free_racks":"9","terminal_type":"7inch","bike_numbers":"24858,28644,28411,28355,28333,27496,27040,27008,26331,25617","bike_types":{"4":10},"place_type":"0","rack_locks":"1"},{"uid":"2585790","lat":"52.2071756","lng":"21.0312643","name":"Belwederska - Gagarina","spot":"1","number":"9566","bikes":"19","bike_racks":"30","free_racks":"17","terminal_type":"7inch","bike_numbers":"24489,27966,27815,27745,27711,27180,27049,26855,26078,26074,26053,25863,25162,29070,28980,28814,96474,96390,96262","bike_types":{"51":1,"4":18},"place_type":"0","rack_locks":"1"},{"uid":"2585791","lat":"52.2074193","lng":"21.0479621","name":"Czerniakowska - Gagarina","spot":"1","number":"9567","bikes":"16","bike_racks":"25","free_racks":"9","terminal_type":"7inch","bike_numbers":"24680,28818,28718,28631,28307,27881,27452,26752,26042,25937,25908,25404,25321,25273,25260,29349","bike_types":{"4":16},"place_type":"0","rack_locks":"1"},{"uid":"2585794","lat":"52.1938131","lng":"20.9914431","name":"Etiudy Rewolucyjnej - Mi\u0105czy\u0144ska","spot":"1","number":"9568","bikes":"13","bike_racks":"18","free_racks":"5","terminal_type":"7inch","bike_numbers":"24746,28530,28270,27210,27162,26465,25867,25477,25320,25232,25151,96430,96090","bike_types":{"4":13},"place_type":"0","rack_locks":"1"},{"uid":"2585799","lat":"52.1994156","lng":"21.0121384","name":"Metro Rac\u0142awicka","spot":"1","number":"9570","bikes":"12","bike_racks":"30","free_racks":"18","terminal_type":"7inch","bike_numbers":"24617,28770,28666,27808,27098,26886,26715,26527,26244,25940,96215,29266","bike_types":{"4":12},"place_type":"0","rack_locks":"1"},{"uid":"2585800","lat":"52.199505","lng":"21.0240975","name":"Pu\u0142awska - Dolna","spot":"1","number":"9571","bikes":"16","bike_racks":"18","free_racks":"3","terminal_type":"7inch","bike_numbers":"24914,28676,28253,27525,27351,27215,27140,26561,26458,25923,25730,25720,25507,28942,29455,25627","bike_types":{"4":16},"place_type":"0","rack_locks":"1"},{"uid":"2585802","lat":"52.2014754","lng":"21.0360047","name":"Sobieskiego - Che\u0142mska","spot":"1","number":"9572","bikes":"10","bike_racks":"15","free_racks":"5","terminal_type":"7inch","bike_numbers":"28363,27536,26831,26712,26694,26522,26001,29551,63623,96381","bike_types":{"4":10},"place_type":"0","rack_locks":"1"},{"uid":"2585804","lat":"52.1998446","lng":"21.05095","name":"Czerniakowska - ZUS","spot":"1","number":"9573","bikes":"14","bike_racks":"15","free_racks":"1","terminal_type":"7inch","bike_numbers":"24597,28192,28118,28015,27978,27133,27015,26925,26567,25311,25114,28906,96314,29282","bike_types":{"4":14},"place_type":"0","rack_locks":"1"},{"uid":"2585807","lat":"52.1916776","lng":"20.8689688","name":"PKP Ursus-Nied\u017awiadek","spot":"1","number":"9574","bikes":"9","bike_racks":"15","free_racks":"6","terminal_type":"7inch","bike_numbers":"28083,27659,27438,26215,25840,25161,96007,96398,29278","bike_types":{"4":9},"place_type":"0","rack_locks":"1"},{"uid":"2585808","lat":"52.1960469","lng":"20.8849347","name":"PKP Ursus","spot":"1","number":"9575","bikes":"13","bike_racks":"16","free_racks":"2","terminal_type":"7inch","bike_numbers":"24744,28514,28287,26954,26143,25833,25826,25599,25500,25414,25380,25313,96345","bike_types":{"4":13},"place_type":"0","rack_locks":"1"},{"uid":"2585809","lat":"52.1869936","lng":"20.8906478","name":"Sosnkowskiego - OSiR Ursus","spot":"1","number":"9576","bikes":"10","bike_racks":"15","free_racks":"5","terminal_type":"7inch","bike_numbers":"24855,28721,27388,26126,25340,25261,25081,29129,96048,96340","bike_types":{"4":9,"0":1},"place_type":"0","rack_locks":"1"},{"uid":"2585811","lat":"52.2005548","lng":"20.8937538","name":"Ursus-Ratusz","spot":"1","number":"9577","bikes":"6","bike_racks":"15","free_racks":"8","terminal_type":"7inch","bike_numbers":"24748,27720,26876,26258,25620,25011","bike_types":{"4":6},"place_type":"0","rack_locks":"1"},{"uid":"2585814","lat":"52.1906376","lng":"20.8999443","name":"Skoroszewska - Prystora","spot":"1","number":"9578","bikes":"13","bike_racks":"17","free_racks":"4","terminal_type":"7inch","bike_numbers":"24968,24685,24462,28747,26758,26362,25819,25593,25304,29095,96051,96461,96251","bike_types":{"4":12,"51":1},"place_type":"0","rack_locks":"1"},{"uid":"2585817","lat":"52.1882609","lng":"20.9603771","name":"G\u0142adka - OSiR W\u0142ochy","spot":"1","number":"9579","bikes":"9","bike_racks":"16","free_racks":"7","terminal_type":"7inch","bike_numbers":"28723,28538,27076,25947,25811,25776,25540,25481,96574","bike_types":{"4":9},"place_type":"0","rack_locks":"1"},{"uid":"2585820","lat":"52.2056441","lng":"20.9159142","name":"PKP W\u0142ochy","spot":"1","number":"9580","bikes":"13","bike_racks":"17","free_racks":"3","terminal_type":"7inch","bike_numbers":"24862,24671,24631,28046,27855,27784,27453,26880,25856,25613,29017,96297,96172","bike_types":{"4":13},"place_type":"0","rack_locks":"1"},{"uid":"2585821","lat":"52.2012157","lng":"20.9353145","name":"al. Jerozolimskie - Popularna","spot":"1","number":"9581","bikes":"11","bike_racks":"19","free_racks":"8","terminal_type":"7inch","bike_numbers":"28105,27974,27786,27081,27032,26736,26249,25839,25718,25442,96208","bike_types":{"4":11},"place_type":"0","rack_locks":"1"},{"uid":"2585824","lat":"52.1924709","lng":"20.9596664","name":"W\u0142ochy-Ratusz","spot":"1","number":"9582","bikes":"13","bike_racks":"15","free_racks":"2","terminal_type":"7inch","bike_numbers":"28758,28551,28210,27989,27293,26860,26615,26571,26200,26040,25541,25192,29117","bike_types":{"4":13},"place_type":"0","rack_locks":"1"},{"uid":"2585825","lat":"52.1946888","lng":"20.9667823","name":"1 Sierpnia - DK W\u0142ochy","spot":"1","number":"9583","bikes":"10","bike_racks":"15","free_racks":"5","terminal_type":"7inch","bike_numbers":"24809,27837,27824,27497,26982,26972,26104,28829,96520,96229","bike_types":{"4":10},"place_type":"0","rack_locks":"1"},{"uid":"2585827","lat":"52.1888962","lng":"21.0175887","name":"Metro Wierzbno","spot":"1","number":"9584","bikes":"13","bike_racks":"20","free_racks":"7","terminal_type":"7inch","bike_numbers":"24745,24553,28699,28659,28379,27247,27232,26998,26833,26819,25727,25557,29076","bike_types":{"4":13},"place_type":"0","rack_locks":"1"},{"uid":"2585830","lat":"52.18648","lng":"21.02538","name":"Pu\u0142awska - Idzikowskiego","spot":"1","number":"9585","bikes":"7","bike_racks":"17","free_racks":"10","terminal_type":"7inch","bike_numbers":"24021,28639,25394,25044,96464,96252,29270","bike_types":{"26":1,"4":6},"place_type":"0","rack_locks":"1"},{"uid":"2585835","lat":"52.1882861","lng":"21.0498825","name":"Sobieskiego - Mangalia","spot":"1","number":"9586","bikes":"11","bike_racks":"15","free_racks":"6","terminal_type":"7inch","bike_numbers":"24610,28620,27742,27482,27117,26848,25218,25036,28992,96045,63619","bike_types":{"4":11},"place_type":"0","rack_locks":"1"},{"uid":"2585837","lat":"52.178777","lng":"21.0016387","name":"Wo\u0142oska - Marynarska","spot":"1","number":"9588","bikes":"9","bike_racks":"26","free_racks":"18","terminal_type":"7inch","bike_numbers":"24565,24040,27797,25686,25379,96507,96366,96363,96191","bike_types":{"4":8,"26":1},"place_type":"0","rack_locks":"1"},{"uid":"2585838","lat":"52.1800882","lng":"21.0207403","name":"al. Niepodleg\u0142o\u015bci - al. Wilanowska","spot":"1","number":"9589","bikes":"17","bike_racks":"22","free_racks":"6","terminal_type":"7inch","bike_numbers":"24501,28623,28599,28360,28221,28126,26613,26168,26139,25102,29080,29056,29026,28944,28870,63601,96329","bike_types":{"4":17},"place_type":"0","rack_locks":"1"},{"uid":"2585839","lat":"52.1779163","lng":"21.049562","name":"P\u0119tla Stegny","spot":"1","number":"9590","bikes":"14","bike_racks":"23","free_racks":"9","terminal_type":"7inch","bike_numbers":"24700,24691,24628,27884,27699,27399,25932,25710,25418,25412,29003,28857,28877,96181","bike_types":{"4":14},"place_type":"0","rack_locks":"1"},{"uid":"2585843","lat":"52.1818472","lng":"21.0562822","name":"Sobieskiego - \u015bw. Bonifacego","spot":"1","number":"9591","bikes":"22","bike_racks":"22","free_racks":"0","terminal_type":"7inch","bike_numbers":"24895,24801,24764,24001,28490,28439,28398,28279,27269,26562,26531,26311,25642,25424,25152,25015,96513,96303,96238,96227,96226,24054","bike_types":{"4":20,"26":2},"place_type":"0","rack_locks":"1"},{"uid":"2585844","lat":"52.1702836","lng":"20.9959132","name":"P\u0119tla Bokserska","spot":"1","number":"9592","bikes":"14","bike_racks":"15","free_racks":"3","terminal_type":"7inch","bike_numbers":"28732,28092,27667,27266,27070,26767,26506,26364,26266,26138,26004,25955,25242,96164","bike_types":{"4":14},"place_type":"0","rack_locks":"1"},{"uid":"2585846","lat":"52.1710498","lng":"21.0059144","name":"Gintrowskiego - Gotarda","spot":"1","number":"9593","bikes":"8","bike_racks":"15","free_racks":"7","terminal_type":"7inch","bike_numbers":"24951,24510,28280,28264,25913,25371,29427,29154","bike_types":{"4":8},"place_type":"0","rack_locks":"1"},{"uid":"2585848","lat":"52.174435","lng":"21.0128814","name":"al. Lotnik\u00f3w - Kaczmarskiego","spot":"1","number":"9594","bikes":"9","bike_racks":"30","free_racks":"20","terminal_type":"7inch","bike_numbers":"24909,24463,27909,26961,26351,26037,25758,96378,96169","bike_types":{"4":8,"51":1},"place_type":"0","rack_locks":"1"},{"uid":"2585850","lat":"52.1733132","lng":"21.0257305","name":"Metro S\u0142u\u017cew","spot":"1","number":"9595","bikes":"5","bike_racks":"24","free_racks":"17","terminal_type":"7inch","bike_numbers":"24798,24642,27220,26679,25244","bike_types":{"4":5},"place_type":"0","rack_locks":"1"},{"uid":"2585853","lat":"52.17343","lng":"21.03179","name":"Wa\u0142brzyska - Wr\u00f3bla","spot":"1","number":"9596","bikes":"16","bike_racks":"30","free_racks":"14","terminal_type":"7inch","bike_numbers":"24741,24664,28471,28374,27410,27080,26907,26888,25886,25881,25682,25602,29339,96426,96343,96195","bike_types":{"4":16},"place_type":"0","rack_locks":"1"},{"uid":"2585856","lat":"52.170135","lng":"21.0685748","name":"Jana III Sobieskiego - al. Wilanowska","spot":"1","number":"9597","bikes":"12","bike_racks":"15","free_racks":"3","terminal_type":"7inch","bike_numbers":"24732,28743,28392,27583,27515,27248,27227,27106,26420,25972,96428,96105","bike_types":{"4":12},"place_type":"0","rack_locks":"1"},{"uid":"2585860","lat":"52.1655879","lng":"21.0839331","name":"al. Wilanowska - Przycz\u00f3\u0142kowa","spot":"1","number":"9598","bikes":"14","bike_racks":"16","free_racks":"1","terminal_type":"7inch","bike_numbers":"24835,24824,28660,28368,28028,26565,26454,26390,26345,26245,25713,60864,96205,96583","bike_types":{"4":13,"0":1},"place_type":"0","rack_locks":"1"},{"uid":"2585863","lat":"52.16479","lng":"21.10925","name":"Vogla - Syta","spot":"1","number":"9599","bikes":"14","bike_racks":"16","free_racks":"2","terminal_type":"7inch","bike_numbers":"24709,28494,27993,27781,27556,27346,26434,25993,25910,25476,25431,25314,25287,63628","bike_types":{"4":14},"place_type":"0","rack_locks":"1"},{"uid":"2585868","lat":"52.1606257","lng":"21.0723245","name":"al. Rzeczypospolitej - Klimczaka","spot":"1","number":"9600","bikes":"14","bike_racks":"16","free_racks":"2","terminal_type":"7inch","bike_numbers":"24985,24866,28546,28005,27508,27429,27419,26912,26883,25664,29342,28854,96333,96289","bike_types":{"4":14},"place_type":"0","rack_locks":"1"},{"uid":"2585871","lat":"52.1569168","lng":"21.0760903","name":"al. Rzeczypospolitej - Branickiego","spot":"1","number":"9601","bikes":"13","bike_racks":"16","free_racks":"3","terminal_type":"7inch","bike_numbers":"24459,27739,27376,26011,25691,25351,96040,63629,63605,96525,96395,96212,29267","bike_types":{"51":1,"4":12},"place_type":"0","rack_locks":"1"},{"uid":"2585872","lat":"52.1593735","lng":"21.086449","name":"Przycz\u00f3\u0142kowa - Branickiego","spot":"1","number":"9602","bikes":"9","bike_racks":"16","free_racks":"7","terminal_type":"7inch","bike_numbers":"24999,25007,28136,27716,27695,26637,26376,25413,28999","bike_types":{"4":9},"place_type":"0","rack_locks":"1"},{"uid":"2585873","lat":"52.1618136","lng":"21.0277355","name":"Metro Ursyn\u00f3w II","spot":"1","number":"9603","bikes":"11","bike_racks":"30","free_racks":"19","terminal_type":"7inch","bike_numbers":"24794,27865,27631,27506,27178,26388,26146,25462,29096,28872,96140","bike_types":{"4":11},"place_type":"0","rack_locks":"1"},{"uid":"2585875","lat":"52.1622579","lng":"21.0280761","name":"Metro Ursyn\u00f3w I","spot":"1","number":"9604","bikes":"13","bike_racks":"30","free_racks":"15","terminal_type":"7inch","bike_numbers":"24878,24543,28700,27704,27114,27050,26490,25728,63618,63614,96220,96174,96088","bike_types":{"4":13},"place_type":"0","rack_locks":"1"},{"uid":"2585876","lat":"52.162401","lng":"21.0383811","name":"Jastrz\u0119bowskiego - SGGW","spot":"1","number":"9605","bikes":"15","bike_racks":"28","free_racks":"13","terminal_type":"7inch","bike_numbers":"24950,28821,28509,27184,27153,27011,26975,26923,26375,25898,25426,25178,28940,24819,28881","bike_types":{"4":15},"place_type":"0","rack_locks":"1"},{"uid":"2585880","lat":"52.1557534","lng":"21.0232776","name":"Romera - Pieciolinii","spot":"1","number":"9606","bikes":"8","bike_racks":"16","free_racks":"11","terminal_type":"7inch","bike_numbers":"24646,26867,26205,25581,25117,29035,96037,96154","bike_types":{"4":8},"place_type":"0","rack_locks":"1"},{"uid":"2585883","lat":"52.1568674","lng":"21.0338401","name":"Metro Stok\u0142osy","spot":"1","number":"9607","bikes":"18","bike_racks":"27","free_racks":"10","terminal_type":"7inch","bike_numbers":"24661,24532,28817,27875,26798,26605,26426,26280,26172,25892,25816,25775,25416,25297,25204,28910,29554,63606","bike_types":{"4":18},"place_type":"0","rack_locks":"1"},{"uid":"2585885","lat":"52.1572887","lng":"21.0440084","name":"Roso\u0142a - Ciszewskiego - SGGW","spot":"1","number":"9608","bikes":"21","bike_racks":"30","free_racks":"9","terminal_type":"7inch","bike_numbers":"24981,28756,28740,28511,27968,27953,27488,27159,27029,26873,26716,26448,26207,25964,25924,25562,25343,25177,28824,96128,96076","bike_types":{"4":21},"place_type":"0","rack_locks":"1"},{"uid":"2585888","lat":"52.1521429","lng":"21.0181224","name":"Pu\u0142awska - Pileckiego","spot":"1","number":"9609","bikes":"12","bike_racks":"22","free_racks":"10","terminal_type":"7inch","bike_numbers":"28267,28056,27970,27448,27009,26563,26177,25556,25266,25038,28826,96245","bike_types":{"4":12},"place_type":"0","rack_locks":"1"},{"uid":"2585893","lat":"52.1495064","lng":"21.0332527","name":"Ciszewskiego - Pileckiego","spot":"1","number":"9610","bikes":"5","bike_racks":"22","free_racks":"16","terminal_type":"7inch","bike_numbers":"24946,27957,27888,26487,96184","bike_types":{"4":5},"place_type":"0","rack_locks":"1"},{"uid":"2585894","lat":"52.1549453","lng":"21.0492977","name":"Roso\u0142a - Gandhi","spot":"1","number":"9611","bikes":"15","bike_racks":"22","free_racks":"7","terminal_type":"7inch","bike_numbers":"28626,28303,28048,27431,27154,27141,27139,26557,26279,25725,25706,25174,96043,60867,29158","bike_types":{"4":15},"place_type":"0","rack_locks":"1"},{"uid":"2585897","lat":"52.1493105","lng":"21.0453361","name":"Metro Imielin","spot":"1","number":"9612","bikes":"13","bike_racks":"22","free_racks":"9","terminal_type":"7inch","bike_numbers":"24990,24890,28058,27485,27384,26468,25899,25805,25254,25628,28979,96489,96579","bike_types":{"4":13},"place_type":"0","rack_locks":"1"},{"uid":"2585899","lat":"52.1522333","lng":"21.0563922","name":"Roso\u0142a - Weso\u0142a","spot":"1","number":"9613","bikes":"19","bike_racks":"23","free_racks":"5","terminal_type":"7inch","bike_numbers":"24776,24677,24524,28299,27842,27831,27768,26994,26246,25770,25291,25223,25173,29106,29141,96334,96304,96299,29156","bike_types":{"4":18,"0":1},"place_type":"0","rack_locks":"1"},{"uid":"2585901","lat":"52.1427201","lng":"21.0383624","name":"Pileckiego - Alternatywy","spot":"1","number":"9614","bikes":"20","bike_racks":"30","free_racks":"10","terminal_type":"7inch","bike_numbers":"24575,28726,28326,27587,27524,27491,27205,26966,26673,26114,25761,25756,25646,25579,25377,60815,29361,29144,96312,96265","bike_types":{"4":19,"0":1},"place_type":"0","rack_locks":"1"},{"uid":"2585902","lat":"52.142735","lng":"21.0448131","name":"Dereniowa - P\u0142askowickiej","spot":"1","number":"9615","bikes":"16","bike_racks":"22","free_racks":"6","terminal_type":"7inch","bike_numbers":"24977,24892,24701,24625,24604,28552,27829,27793,26341,25942,25683,25045,60836,28868,63612,96243","bike_types":{"4":16},"place_type":"0","rack_locks":"1"},{"uid":"2585904","lat":"52.1376039","lng":"21.0505531","name":"Stryje\u0144skich - Belgradzka","spot":"1","number":"9616","bikes":"11","bike_racks":"15","free_racks":"4","terminal_type":"7inch","bike_numbers":"24942,24920,28069,27510,27379,26584,25353,28800,96388,96188,24046","bike_types":{"4":10,"26":1},"place_type":"0","rack_locks":"1"},{"uid":"2585905","lat":"52.1403909","lng":"21.0568187","name":"Metro Natolin","spot":"1","number":"9617","bikes":"18","bike_racks":"30","free_racks":"12","terminal_type":"7inch","bike_numbers":"24552,24481,28696,28435,28403,28298,27655,27622,27366,26878,26818,26507,25401,25269,29053,60854,96231,96222","bike_types":{"4":17,"51":1},"place_type":"0","rack_locks":"1"},{"uid":"2585906","lat":"52.1420749","lng":"21.0659905","name":"Belgradzka - Roso\u0142a","spot":"1","number":"9618","bikes":"15","bike_racks":"23","free_racks":"8","terminal_type":"7inch","bike_numbers":"24690,24038,24031,24017,28675,28400,26306,25917,25832,25553,29131,28871,96347,96144,29258","bike_types":{"4":11,"26":3,"0":1},"place_type":"0","rack_locks":"1"},{"uid":"2585908","lat":"52.1314333","lng":"21.0561562","name":"Stryje\u0144skich - W\u0105wozowa","spot":"1","number":"9619","bikes":"16","bike_racks":"23","free_racks":"7","terminal_type":"7inch","bike_numbers":"24954,24554,28372,28260,28068,28027,27880,27223,27207,26612,26499,26195,25737,25310,60855,60828","bike_types":{"4":16},"place_type":"0","rack_locks":"1"},{"uid":"2585911","lat":"52.3326052","lng":"20.9418404","name":"Ordon\u00f3wny - \u015awiatowida","spot":"1","number":"9620","bikes":"21","bike_racks":"22","free_racks":"1","terminal_type":"7inch","bike_numbers":"28433,28076,27982,27847,27787,27721,27579,27486,26986,26953,26651,25905,25608,25489,25483,25197,25053,29077,96008,96185,29185","bike_types":{"4":21},"place_type":"0","rack_locks":"1"},{"uid":"2585913","lat":"52.1310925","lng":"21.0654795","name":"Metro Kabaty","spot":"1","number":"9621","bikes":"12","bike_racks":"22","free_racks":"10","terminal_type":"7inch","bike_numbers":"28689,28361,28215,27981,27407,27103,26928,26075,25575,25491,25054,25050","bike_types":{"4":12},"place_type":"0","rack_locks":"1"},{"uid":"2585916","lat":"52.1332642","lng":"21.0747962","name":"W\u0105wozowa - Roso\u0142a","spot":"1","number":"9622","bikes":"17","bike_racks":"18","free_racks":"1","terminal_type":"7inch","bike_numbers":"24997,24683,24629,27975,27457,27135,26407,26288,25927,25757,25519,25467,25347,25104,25049,96567,96218","bike_types":{"4":17},"place_type":"0","rack_locks":"1"},{"uid":"2585917","lat":"52.324116","lng":"21.05663","name":"Skarbka z G\u00f3r - Berensona","spot":"1","number":"9623","bikes":"13","bike_racks":"26","free_racks":"13","terminal_type":"7inch","bike_numbers":"28657,28526,28277,27882,27465,27321,26669,26413,26259,26142,25755,96431,96204","bike_types":{"4":13},"place_type":"0","rack_locks":"1"},{"uid":"2585919","lat":"52.3485329","lng":"20.9418336","name":"Aluzyjna - Tr\u0105by","spot":"1","number":"9624","bikes":"13","bike_racks":"16","free_racks":"3","terminal_type":"7inch","bike_numbers":"24896,24569,28612,28404,27806,27158,26655,26620,25807,25609,96531,96401,96317","bike_types":{"4":13},"place_type":"0","rack_locks":"1"},{"uid":"2585920","lat":"52.3226982","lng":"20.9448107","name":"\u015awiatowida - Mehoffera","spot":"1","number":"9625","bikes":"13","bike_racks":"16","free_racks":"2","terminal_type":"7inch","bike_numbers":"24882,24859,24470,27895,27476,26408,26338,26030,28950,28850,96015,96005,29160","bike_types":{"4":12,"51":1},"place_type":"0","rack_locks":"1"},{"uid":"2585921","lat":"52.3212548","lng":"20.9477347","name":"Bia\u0142o\u0142\u0119cki O\u015brodek Sportu","spot":"1","number":"9626","bikes":"24","bike_racks":"30","free_racks":"6","terminal_type":"7inch","bike_numbers":"24993,24918,24900,24886,24802,28749,27964,27897,27833,27664,27345,26941,26667,26265,26263,25900,25859,25571,25480,29105,28864,96044,96010,96137","bike_types":{"4":24},"place_type":"0","rack_locks":"1"},{"uid":"2585922","lat":"52.3211272","lng":"20.9712964","name":"Bia\u0142o\u0142\u0119ka-Ratusz","spot":"1","number":"9627","bikes":"18","bike_racks":"19","free_racks":"2","terminal_type":"7inch","bike_numbers":"28154,27986,27529,27219,27172,26915,26834,26735,26623,26472,26024,25356,25135,29023,28966,96434,96138,29261","bike_types":{"4":18},"place_type":"0","rack_locks":"1"},{"uid":"2585924","lat":"52.3132981","lng":"20.9655324","name":"My\u015bliborska - al. Kukli\u0144skiego","spot":"1","number":"9628","bikes":"21","bike_racks":"22","free_racks":"1","terminal_type":"7inch","bike_numbers":"24486,28437,28391,28390,27919,27705,27504,27327,27030,27004,26989,26210,26171,26018,25156,29108,28938,28995,96337,96335,96094","bike_types":{"51":1,"4":20},"place_type":"0","rack_locks":"1"},{"uid":"2585925","lat":"52.3031984","lng":"20.9891666","name":"Modli\u0144ska - \u017bera\u0144ska","spot":"1","number":"9629","bikes":"24","bike_racks":"30","free_racks":"6","terminal_type":"7inch","bike_numbers":"24743,24622,28590,28127,27912,27868,27108,26763,26760,26738,26692,26489,26236,26184,25738,25538,25528,25479,25408,29135,29133,96521,96263,96247","bike_types":{"4":22,"16":1,"0":2},"place_type":"0","rack_locks":"1"},{"uid":"2585926","lat":"52.3150181","lng":"21.0610807","name":"Skarbka z G\u00f3r - Magiczna","spot":"1","number":"9630","bikes":"27","bike_racks":"30","free_racks":"2","terminal_type":"7inch","bike_numbers":"24562,24526,24011,28645,28583,28456,27870,27626,27147,27094,26815,26787,26757,26707,26685,26641,26346,25376,25071,28865,28878,28994,96038,96505,96429,96200,29272","bike_types":{"4":26,"26":1},"place_type":"0","rack_locks":"1"},{"uid":"2585928","lat":"52.3000268","lng":"21.0425266","name":"P\u0119tla Br\u00f3dno - Podgrodzie","spot":"1","number":"9631","bikes":"12","bike_racks":"20","free_racks":"8","terminal_type":"7inch","bike_numbers":"24939,28686,28120,27916,27854,27354,27294,26277,26086,28935,29127,96510","bike_types":{"4":11,"0":1},"place_type":"0","rack_locks":"1"},{"uid":"2585929","lat":"52.2939957","lng":"21.0272258","name":"Rembieli\u0144ska - Kondratowicza","spot":"1","number":"9632","bikes":"20","bike_racks":"23","free_racks":"3","terminal_type":"7inch","bike_numbers":"24005,28624,28607,28213,28073,27681,27651,27378,27020,26639,26281,26240,25938,25350,25294,28909,28835,96397,96369,29222","bike_types":{"26":1,"4":19},"place_type":"0","rack_locks":"1"},{"uid":"2585931","lat":"52.2917236","lng":"21.0481189","name":"Targ\u00f3wek-Ratusz","spot":"1","number":"9633","bikes":"19","bike_racks":"28","free_racks":"9","terminal_type":"7inch","bike_numbers":"24014,28615,28195,28001,27908,27788,27769,27619,27199,26602,26484,26457,26054,25471,96487,96394,96322,96162,96103","bike_types":{"26":1,"4":18},"place_type":"0","rack_locks":"1"},{"uid":"2585932","lat":"52.292208","lng":"21.0419554","name":"Kondratowicza - Chodecka","spot":"1","number":"9634","bikes":"22","bike_racks":"23","free_racks":"1","terminal_type":"7inch","bike_numbers":"24787,28772,28209,28153,28111,28067,27927,27776,27541,27335,27282,27206,26958,26951,26153,25106,29084,29040,96538,96482,96190,29209","bike_types":{"4":22},"place_type":"0","rack_locks":"1"},{"uid":"2585934","lat":"52.2925145","lng":"21.0573949","name":"Kondratowicza - Przy Grodzisku","spot":"1","number":"9635","bikes":"12","bike_racks":"18","free_racks":"6","terminal_type":"7inch","bike_numbers":"24916,28652,28627,27677,27383,27342,26103,25150,29146,28891,96353,96078","bike_types":{"4":11,"0":1},"place_type":"0","rack_locks":"1"},{"uid":"2585936","lat":"52.2878069","lng":"21.0213829","name":"Wysockiego - Poborza\u0144ska","spot":"1","number":"9636","bikes":"20","bike_racks":"23","free_racks":"3","terminal_type":"7inch","bike_numbers":"28775,28137,28066,27918,27835,27051,26151,25915,25666,25572,25488,25470,25213,25170,29347,29034,25625,28806,96376,29219","bike_types":{"4":20},"place_type":"0","rack_locks":"1"},{"uid":"2585937","lat":"52.2885915","lng":"21.0310087","name":"Rembieli\u0144ska - Wyszogrodzka","spot":"1","number":"9637","bikes":"18","bike_racks":"30","free_racks":"11","terminal_type":"7inch","bike_numbers":"24720,24688,28876,28736,28606,27725,27344,27300,26841,26453,26125,26087,25842,25760,25520,25180,25075,29161","bike_types":{"4":18},"place_type":"0","rack_locks":"1"},{"uid":"2585938","lat":"52.2864841","lng":"21.0401998","name":"Chodecka - \u017buromi\u0144ska","spot":"1","number":"9638","bikes":"14","bike_racks":"15","free_racks":"1","terminal_type":"7inch","bike_numbers":"24813,28533,27549,27454,27360,27077,27017,26744,25243,29047,29039,28967,96182,96084","bike_types":{"4":14},"place_type":"0","rack_locks":"1"},{"uid":"2585939","lat":"52.281231017533","lng":"21.025852560997","name":"Wysockiego - Matki Teresy z Kalkuty","spot":"1","number":"9639","bikes":"14","bike_racks":"17","free_racks":"3","terminal_type":"7inch","bike_numbers":"24811,28774,28707,28017,27740,26640,25235,25158,25146,29422,28969,96516,96407,96400","bike_types":{"4":14},"place_type":"0","rack_locks":"1"},{"uid":"2585941","lat":"52.2835693","lng":"21.0720858","name":"Blokowa - DK Zacisze","spot":"1","number":"9640","bikes":"14","bike_racks":"18","free_racks":"4","terminal_type":"7inch","bike_numbers":"24614,28532,27810,27692,27443,26128,26076,25926,25621,29348,29072,28961,96054,96020","bike_types":{"4":14},"place_type":"0","rack_locks":"1"},{"uid":"2585942","lat":"52.276259","lng":"21.0530748","name":"P\u0119tla Targ\u00f3wek","spot":"1","number":"9641","bikes":"19","bike_racks":"22","free_racks":"3","terminal_type":"7inch","bike_numbers":"24987,24949,24534,24527,28656,28417,27717,27580,26791,26491,26250,26214,26009,25460,25445,25125,25124,28907,29259","bike_types":{"4":19},"place_type":"0","rack_locks":"1"},{"uid":"2585943","lat":"52.27139","lng":"21.01566","name":"Jagiello\u0144ska - ALK","spot":"1","number":"9642","bikes":"17","bike_racks":"16","free_racks":"0","terminal_type":"7inch","bike_numbers":"24657,24513,28822,28611,28030,27359,27193,26441,25395,25010,29041,28912,28880,28879,63615,96453,96420","bike_types":{"4":17},"place_type":"0","rack_locks":"1"},{"uid":"2585947","lat":"52.2694683","lng":"21.0499817","name":"Ossowskiego","spot":"1","number":"9644","bikes":"13","bike_racks":"17","free_racks":"4","terminal_type":"7inch","bike_numbers":"24783,25006,28342,28339,28082,28004,27951,27167,26850,26239,25985,28889,96497","bike_types":{"4":13},"place_type":"0","rack_locks":"1"},{"uid":"2585951","lat":"52.272602123161","lng":"21.063210368156","name":"Radzymi\u0144ska -Trocka","spot":"1","number":"9645","bikes":"13","bike_racks":"20","free_racks":"6","terminal_type":"7inch","bike_numbers":"24952,27700,27660,27502,27417,27296,27092,26932,26335,25456,25141,25070,96283","bike_types":{"4":13},"place_type":"0","rack_locks":"1"},{"uid":"2585953","lat":"52.27347","lng":"21.07698","name":"Bukowiecka - Zamkowa","spot":"1","number":"9646","bikes":"10","bike_racks":"15","free_racks":"5","terminal_type":"7inch","bike_numbers":"24924,28722,28305,27998,27255,26963,26041,25455,29443,96156","bike_types":{"4":10},"place_type":"0","rack_locks":"1"},{"uid":"2585954","lat":"52.2668885","lng":"21.0585675","name":"Radzymi\u0144ska - Piotra Skargi","spot":"1","number":"9647","bikes":"18","bike_racks":"20","free_racks":"2","terminal_type":"7inch","bike_numbers":"28735,28568,27672,27519,27202,26754,26722,26581,26356,26007,25941,25933,25911,25348,25088,29368,96546,29218","bike_types":{"4":18},"place_type":"0","rack_locks":"1"},{"uid":"2585955","lat":"52.2614369","lng":"21.0155744","name":"Wybrze\u017ce Helskie - ZOO","spot":"1","number":"9648","bikes":"14","bike_racks":"22","free_racks":"10","terminal_type":"7inch","bike_numbers":"24702,28642,27907,27284,26572,25744,25705,25390,25211,29052,29024,24498,96192,29229","bike_types":{"4":13,"51":1},"place_type":"0","rack_locks":"1"},{"uid":"2585956","lat":"52.2632492","lng":"21.0212231","name":"Rondo Starzy\u0144skiego","spot":"1","number":"9649","bikes":"14","bike_racks":"24","free_racks":"8","terminal_type":"7inch","bike_numbers":"24831,24471,27859,27848,27582,27228,27087,26734,26488,26174,25981,25415,29097,24048","bike_types":{"4":12,"51":1,"26":1},"place_type":"0","rack_locks":"1"},{"uid":"2585958","lat":"52.26421","lng":"21.02618","name":"Darwina - Nusbauma-Hilarowicza","spot":"1","number":"9650","bikes":"15","bike_racks":"21","free_racks":"6","terminal_type":"7inch","bike_numbers":"24607,24016,28347,27585,27377,26895,26872,26789,26690,26089,25447,25360,28939,28853,29205","bike_types":{"4":14,"26":1},"place_type":"0","rack_locks":"1"},{"uid":"2585960","lat":"52.26554","lng":"21.03122","name":"Namys\u0142owska - Darwina","spot":"1","number":"9651","bikes":"10","bike_racks":"15","free_racks":"5","terminal_type":"7inch","bike_numbers":"28560,28458,27530,26955,26745,26088,25920,25703,28809,96535","bike_types":{"4":10},"place_type":"0","rack_locks":"1"},{"uid":"2585961","lat":"52.2690405","lng":"21.0379493","name":"Rondo \u017baba","spot":"1","number":"9652","bikes":"18","bike_racks":"22","free_racks":"4","terminal_type":"7inch","bike_numbers":"24630,28441,28408,28156,27922,27747,27539,27225,27058,26719,26546,26325,25663,25226,29019,96552,96148,24053","bike_types":{"4":17,"26":1},"place_type":"0","rack_locks":"1"},{"uid":"2585963","lat":"52.2591682","lng":"21.0262224","name":"Jagiello\u0144ska - Plac Hallera","spot":"1","number":"9653","bikes":"13","bike_racks":"20","free_racks":"7","terminal_type":"7inch","bike_numbers":"28616,28496,28268,28061,27473,27356,27173,26633,26015,25716,29012,96209,29179","bike_types":{"4":13},"place_type":"0","rack_locks":"1"},{"uid":"2585964","lat":"52.2613811","lng":"21.0305437","name":"Plac Hallera - Sawinkowa","spot":"1","number":"9654","bikes":"19","bike_racks":"28","free_racks":"9","terminal_type":"7inch","bike_numbers":"28484,28447,28080,27661,27645,27550,27474,27387,27313,26079,26059,25831,25097,29005,29660,25631,96031,96472,96242","bike_types":{"4":19},"place_type":"0","rack_locks":"1"},{"uid":"2585967","lat":"52.263","lng":"21.03418","name":"Namys\u0142owska - Szymanowskiego","spot":"1","number":"9655","bikes":"10","bike_racks":"16","free_racks":"6","terminal_type":"7inch","bike_numbers":"24820,28693,28674,27161,27096,26127,25490,25061,29447,96358","bike_types":{"4":10},"place_type":"0","rack_locks":"1"},{"uid":"2585968","lat":"52.2538188","lng":"21.0231542","name":"Ratuszowa - ZOO","spot":"1","number":"9656","bikes":"18","bike_racks":"23","free_racks":"4","terminal_type":"7inch","bike_numbers":"24898,24708,24612,24022,25005,27028,26537,25877,25851,25792,25667,25525,29048,29044,28839,28972,96099,29271","bike_types":{"4":17,"26":1},"place_type":"0","rack_locks":"1"},{"uid":"2585971","lat":"52.256355","lng":"21.029538","name":"Jagiello\u0144ska - Ratuszowa","spot":"1","number":"9657","bikes":"15","bike_racks":"16","free_racks":"1","terminal_type":"7inch","bike_numbers":"24903,28687,28524,27995,27994,27676,27156,27026,26740,25478,25029,29002,29120,60862,96502","bike_types":{"4":14,"0":1},"place_type":"0","rack_locks":"1"},{"uid":"2585972","lat":"52.261449","lng":"21.037614","name":"11 Listopada - Ratuszowa","spot":"1","number":"9658","bikes":"19","bike_racks":"30","free_racks":"11","terminal_type":"7inch","bike_numbers":"24778,24723,28819,28310,28104,27976,27744,27597,27461,27018,26809,26801,26742,26156,26012,25547,63625,96386,96118","bike_types":{"4":19},"place_type":"0","rack_locks":"1"},{"uid":"2585974","lat":"52.263109","lng":"21.0381895","name":"11 listopada - \u015arodkowa","spot":"1","number":"9659","bikes":"16","bike_racks":"18","free_racks":"2","terminal_type":"7inch","bike_numbers":"24457,28081,27979,27798,27195,26919,26732,26649,26275,25577,25398,25257,25249,28996,96555,96419","bike_types":{"51":1,"4":15},"place_type":"0","rack_locks":"1"},{"uid":"2585975","lat":"52.25839","lng":"21.03537","name":"Stalowa - 11 Listopada","spot":"1","number":"9660","bikes":"17","bike_racks":"24","free_racks":"7","terminal_type":"7inch","bike_numbers":"24737,24736,24734,28405,28378,28110,27634,27188,27146,26504,25736,25567,96443,96399,96315,96233,96124","bike_types":{"4":17},"place_type":"0","rack_locks":"1"},{"uid":"2585978","lat":"52.234791","lng":"21.07905","name":"al. Stan\u00f3w Zjednoczonych - Ostrobramska","spot":"1","number":"9661","bikes":"17","bike_racks":"20","free_racks":"2","terminal_type":"7inch","bike_numbers":"28290,28194,28144,28032,26790,26044,25821,25724,25433,25119,29103,29087,29364,28914,96028,96157,96089","bike_types":{"4":17},"place_type":"0","rack_locks":"1"},{"uid":"2585981","lat":"52.2524758","lng":"21.0303479","name":"Floria\u0144ska - Park Praski","spot":"1","number":"9662","bikes":"16","bike_racks":"23","free_racks":"7","terminal_type":"7inch","bike_numbers":"24722,28537,28050,27803,27385,27312,27024,26708,25918,25772,25259,25121,29435,28843,96016,96240","bike_types":{"4":16},"place_type":"0","rack_locks":"1"},{"uid":"2585982","lat":"52.2549757","lng":"21.0339005","name":"Plac Wile\u0144ski","spot":"1","number":"9663","bikes":"21","bike_racks":"30","free_racks":"9","terminal_type":"7inch","bike_numbers":"28603,28393,28053,27911,27778,27761,27444,27192,27022,26638,26617,26552,26404,26167,26140,26094,25560,25405,28933,96296,29228","bike_types":{"4":21},"place_type":"0","rack_locks":"1"},{"uid":"2585983","lat":"52.2579576","lng":"21.0399804","name":"Wile\u0144ska - Rzeszotarskiej","spot":"1","number":"9664","bikes":"24","bike_racks":"16","free_racks":"0","terminal_type":"7inch","bike_numbers":"24948,24838,28356,27828,27820,27663,27274,27241,27217,27035,27016,26964,26920,26610,26333,26159,25781,25230,29090,96478,96171,96135,29256,29238","bike_types":{"4":24},"place_type":"0","rack_locks":"1"},{"uid":"2585984","lat":"52.2475848","lng":"20.9568001","name":"al. Prymasa Tysi\u0105clecia - Obozowa","spot":"1","number":"9665","bikes":"11","bike_racks":"13","free_racks":"2","terminal_type":"7inch","bike_numbers":"24485,27809,27620,27033,26981,25590,25285,25278,25085,96539,96077","bike_types":{"51":1,"4":10},"place_type":"0","rack_locks":"1"},{"uid":"2585985","lat":"52.248607","lng":"21.029647","name":"Okrzei - Panie\u0144ska","spot":"1","number":"9666","bikes":"10","bike_racks":"16","free_racks":"6","terminal_type":"7inch","bike_numbers":"28574,28010,27414,27330,27072,26568,25222,29098,96091,24055","bike_types":{"4":9,"26":1},"place_type":"0","rack_locks":"1"},{"uid":"2585987","lat":"52.2506334","lng":"21.0311174","name":"Sierakowskiego - K\u0142opotowskiego","spot":"1","number":"9667","bikes":"18","bike_racks":"25","free_racks":"6","terminal_type":"7inch","bike_numbers":"24827,28114,27397,27275,27116,26974,26771,26768,25943,25696,25658,25334,25236,29143,28895,96475,96166,96132","bike_types":{"4":17,"0":1},"place_type":"0","rack_locks":"1"},{"uid":"2585990","lat":"52.2520876","lng":"21.0381368","name":"Targowa - Z\u0105bkowska","spot":"1","number":"9668","bikes":"19","bike_racks":"18","free_racks":"0","terminal_type":"7inch","bike_numbers":"24602,28892,28646,28629,28446,28362,27727,26657,26597,26594,26517,26118,25820,25747,25327,96013,96568,96540,96281","bike_types":{"4":19},"place_type":"0","rack_locks":"1"},{"uid":"2585992","lat":"52.2544855","lng":"21.0433458","name":"Fabryka W\u00f3dek Koneser","spot":"1","number":"9669","bikes":"20","bike_racks":"25","free_racks":"6","terminal_type":"7inch","bike_numbers":"24907,24861,24814,28683,28520,28077,27460,27372,27362,27262,27148,26714,26554,26530,26508,26222,26166,26117,25474,29652","bike_types":{"4":20},"place_type":"0","rack_locks":"1"},{"uid":"2585994","lat":"52.2559027","lng":"21.0495613","name":"Radzymi\u0144ska - Wiosenna","spot":"1","number":"9670","bikes":"22","bike_racks":"26","free_racks":"5","terminal_type":"7inch","bike_numbers":"24961,24766,24725,24662,28764,28491,28140,27683,27343,27246,27212,26837,26776,26359,26282,25896,25448,25126,25101,96566,96477,96457","bike_types":{"4":22},"place_type":"0","rack_locks":"1"},{"uid":"2585995","lat":"52.25965","lng":"21.0529","name":"Radzymi\u0144ska - \u0141om\u017cy\u0144ska","spot":"1","number":"9671","bikes":"21","bike_racks":"24","free_racks":"3","terminal_type":"7inch","bike_numbers":"24921,24770,28567,28211,27990,27687,27459,27416,27411,27394,26814,26344,26225,25893,25855,25802,25536,25284,25270,25200,96298","bike_types":{"4":21},"place_type":"0","rack_locks":"1"},{"uid":"2585996","lat":"52.2583512","lng":"21.0585337","name":"P\u0119tla Kaw\u0119czy\u0144ska-Bazylika","spot":"1","number":"9672","bikes":"13","bike_racks":"26","free_racks":"13","terminal_type":"7inch","bike_numbers":"24893,24796,24586,28382,28275,27813,27650,27137,25998,29139,96469,96287,96116","bike_types":{"4":12,"0":1},"place_type":"0","rack_locks":"1"},{"uid":"2585997","lat":"52.249864871462","lng":"21.042911410332","name":"Targowa - Kijowska","spot":"1","number":"9673","bikes":"13","bike_racks":"18","free_racks":"5","terminal_type":"7inch","bike_numbers":"24844,24788,24623,24496,28515,27755,27652,26902,25793,25660,96313,29193,29246","bike_types":{"4":12,"51":1},"place_type":"0","rack_locks":"1"},{"uid":"2586000","lat":"52.252745","lng":"21.0510331","name":"Dworzec Wschodni - Kijowska","spot":"1","number":"9674","bikes":"18","bike_racks":"27","free_racks":"11","terminal_type":"7inch","bike_numbers":"24832,24010,25008,27902,27731,27352,27068,26996,26543,26315,26016,25906,25787,25570,29359,96267,29168,29245","bike_types":{"4":17,"26":1},"place_type":"0","rack_locks":"1"},{"uid":"2586001","lat":"52.247314","lng":"21.042731","name":"Metro Stadion Narodowy","spot":"1","number":"9675","bikes":"14","bike_racks":"15","free_racks":"4","terminal_type":"7inch","bike_numbers":"24768,28553,28535,28212,27772,27513,27155,26842,26295,25345,25167,96356,96224,29164","bike_types":{"4":14},"place_type":"0","rack_locks":"1"},{"uid":"2586003","lat":"52.2472308","lng":"21.0476456","name":"al. Zieleniecka - Teatr Powszechny","spot":"1","number":"9676","bikes":"9","bike_racks":"14","free_racks":"4","terminal_type":"7inch","bike_numbers":"28369,26622,26313,25544,25364,25064,29102,96412,96288","bike_types":{"4":9},"place_type":"0","rack_locks":"1"},{"uid":"2586005","lat":"52.247136","lng":"21.056658","name":"Grochowska - Mi\u0144ska","spot":"1","number":"9677","bikes":"25","bike_racks":"30","free_racks":"7","terminal_type":"7inch","bike_numbers":"28632,28503,28016,27673,27434,27353,27260,27222,26781,26709,26549,26343,26192,25996,25878,25876,25824,25746,25452,25438,25148,25129,25046,28954,29281","bike_types":{"4":25},"place_type":"0","rack_locks":"1"},{"uid":"2586009","lat":"52.2464","lng":"21.06868","name":"Praga-Po\u0142udnie-Ratusz","spot":"1","number":"9678","bikes":"13","bike_racks":"15","free_racks":"3","terminal_type":"7inch","bike_numbers":"24550,28304,27403,26807,26427,25676,25274,25199,25193,25630,96548,96380,96141","bike_types":{"4":13},"place_type":"0","rack_locks":"1"},{"uid":"2586011","lat":"52.2501129","lng":"21.0772011","name":"Dwernickiego - Siennicka","spot":"1","number":"9679","bikes":"17","bike_racks":"25","free_racks":"13","terminal_type":"7inch","bike_numbers":"24577,24539,28697,27770,27194,26696,26583,25969,25836,25587,25518,25299,25280,25047,96543,96255,29249","bike_types":{"4":17},"place_type":"0","rack_locks":"1"},{"uid":"2586012","lat":"52.260428882956","lng":"21.041538119316","name":"Stalowa - Czynszowa","spot":"1","number":"9680","bikes":"10","bike_racks":"15","free_racks":"6","terminal_type":"7inch","bike_numbers":"28617,27551,27331,27163,26945,26109,25882,29030,28952,29124","bike_types":{"4":9,"0":1},"place_type":"0","rack_locks":"1"},{"uid":"2586014","lat":"52.2372419","lng":"21.0437644","name":"Wybrze\u017ce Szczeci\u0144skie - Stadion Narodowy","spot":"1","number":"9681","bikes":"17","bike_racks":"23","free_racks":"6","terminal_type":"7inch","bike_numbers":"24694,24644,24514,28475,28274,27961,27480,27371,27272,27196,26701,26361,26101,25894,25453,96143,96133","bike_types":{"4":17},"place_type":"0","rack_locks":"1"},{"uid":"2586018","lat":"52.2387103","lng":"21.0507515","name":"Rondo Waszyngtona - Stadion Narodowy","spot":"1","number":"9682","bikes":"21","bike_racks":"27","free_racks":"6","terminal_type":"7inch","bike_numbers":"24775,28542,28517,28414,28373,28286,28117,27706,27646,27477,27270,27031,26773,25473,25362,25293,29073,28916,28855,96448,29192","bike_types":{"4":21},"place_type":"0","rack_locks":"1"},{"uid":"2586019","lat":"52.242281006874","lng":"21.071160435677","name":"Waszyngtona - Kinowa","spot":"1","number":"9683","bikes":"10","bike_racks":"15","free_racks":"8","terminal_type":"7inch","bike_numbers":"28588,27604,27130,26424,26360,25745,25694,25216,29081,29237","bike_types":{"4":10},"place_type":"0","rack_locks":"1"},{"uid":"2586021","lat":"52.2445639","lng":"21.0838057","name":"Rondo Wiatraczna","spot":"1","number":"9684","bikes":"19","bike_racks":"30","free_racks":"11","terminal_type":"7inch","bike_numbers":"24668,24640,24593,28033,27914,27276,26935,26914,26839,26540,25607,25095,29119,96564,96558,96417,96271,96120,29149","bike_types":{"4":19},"place_type":"0","rack_locks":"1"},{"uid":"2586022","lat":"52.2347451","lng":"21.053651","name":"Francuska - Walecznych","spot":"1","number":"9685","bikes":"11","bike_racks":"15","free_racks":"4","terminal_type":"7inch","bike_numbers":"24908,27763,27574,26896,26570,25976,25795,25160,60831,29656,96559","bike_types":{"4":11},"place_type":"0","rack_locks":"1"},{"uid":"2586024","lat":"52.236598","lng":"21.064774","name":"Mi\u0119dzynarodowa - Walecznych","spot":"1","number":"9686","bikes":"9","bike_racks":"15","free_racks":"5","terminal_type":"7inch","bike_numbers":"24012,27589,27112,26874,26387,26064,25457,25355,96203","bike_types":{"26":1,"4":8},"place_type":"0","rack_locks":"1"},{"uid":"2586026","lat":"52.243020071904","lng":"21.102375984192","name":"Plac Szembeka","spot":"1","number":"9687","bikes":"14","bike_racks":"15","free_racks":"1","terminal_type":"7inch","bike_numbers":"24884,28702,27883,27669,26796,25594,25458,25430,25338,29113,28951,28970,96228,29148","bike_types":{"4":14},"place_type":"0","rack_locks":"1"},{"uid":"2586028","lat":"52.237559","lng":"21.120087","name":"P\u0119tla Goc\u0142awek","spot":"1","number":"9688","bikes":"8","bike_racks":"16","free_racks":"8","terminal_type":"7inch","bike_numbers":"28465,27709,27615,27481,27164,27088,26505,96500","bike_types":{"4":8},"place_type":"0","rack_locks":"1"},{"uid":"2586030","lat":"52.2258359","lng":"21.0600907","name":"Brukselska - PROM","spot":"1","number":"9689","bikes":"12","bike_racks":"15","free_racks":"3","terminal_type":"7inch","bike_numbers":"24687,28801,28116,27674,27533,27424,26124,25844,25586,25524,25041,29350","bike_types":{"4":12},"place_type":"0","rack_locks":"1"},{"uid":"2586031","lat":"52.260205610017","lng":"21.046854257584","name":"al. Solidarno\u015bci - Szwedzka","spot":"1","number":"9690","bikes":"13","bike_racks":"18","free_racks":"4","terminal_type":"7inch","bike_numbers":"28869,28578,28057,26948,26780,26354,25965,25946,25441,29436,96003,96362,96361","bike_types":{"4":13},"place_type":"0","rack_locks":"1"},{"uid":"2586032","lat":"52.230088","lng":"21.067948","name":"al. Stan\u00f3w Zjednoczonych - Mi\u0119dzynarodowa","spot":"1","number":"9691","bikes":"16","bike_racks":"26","free_racks":"10","terminal_type":"7inch","bike_numbers":"24873,24826,24706,24665,27932,27713,27505,27237,25929,25838,25688,25378,25186,28936,96509,96292","bike_types":{"4":16},"place_type":"0","rack_locks":"1"},{"uid":"2586034","lat":"52.23483","lng":"21.09975","name":"Ostrobramska - Zamieniecka","spot":"1","number":"9692","bikes":"20","bike_racks":"23","free_racks":"2","terminal_type":"7inch","bike_numbers":"24731,24669,24545,28352,27422,27201,26910,26906,26817,26520,26292,26122,25385,25368,25176,25110,25098,96437,96375,29207","bike_types":{"4":20},"place_type":"0","rack_locks":"1"},{"uid":"2586037","lat":"52.2251969","lng":"21.0712892","name":"Afryka\u0144ska - Egipska","spot":"1","number":"9693","bikes":"15","bike_racks":"16","free_racks":"1","terminal_type":"7inch","bike_numbers":"24606,28717,27382,26635,26355,26217,26203,26067,26052,25874,25847,25800,25639,25513,25227","bike_types":{"4":15},"place_type":"0","rack_locks":"1"},{"uid":"2586039","lat":"52.22837","lng":"21.08581","name":"Abrahama - Kapelan\u00f3w AK","spot":"1","number":"9694","bikes":"12","bike_racks":"15","free_racks":"3","terminal_type":"7inch","bike_numbers":"28366,28152,27089,27005,26985,25217,29116,60850,63613,96565,96456,96291","bike_types":{"4":12},"place_type":"0","rack_locks":"1"},{"uid":"2586042","lat":"52.2296088","lng":"21.0945572","name":"Fieldorfa - Bukowskiego","spot":"1","number":"9695","bikes":"15","bike_racks":"20","free_racks":"5","terminal_type":"7inch","bike_numbers":"24004,28636,28630,28493,27889,27827,27498,27143,27099,26898,25495,28845,96450,96108,29243","bike_types":{"26":1,"4":14},"place_type":"0","rack_locks":"1"},{"uid":"2586044","lat":"52.22974","lng":"21.10624","name":"Rechniewskiego - Nowaka-Jeziora\u0144skiego","spot":"1","number":"9696","bikes":"19","bike_racks":"30","free_racks":"12","terminal_type":"7inch","bike_numbers":"24793,28389,28014,27464,27367,26013,25956,25829,25722,25641,25605,25496,25332,29038,28798,28849,96575,96377,96155","bike_types":{"4":19},"place_type":"0","rack_locks":"1"},{"uid":"2586045","lat":"52.2223071","lng":"21.0907259","name":"Meissnera - Fieldorfa","spot":"1","number":"9697","bikes":"14","bike_racks":"15","free_racks":"4","terminal_type":"7inch","bike_numbers":"24530,24517,28418,28257,28106,28037,27980,27542,27368,26496,26058,25640,25419,25189","bike_types":{"4":14},"place_type":"0","rack_locks":"1"},{"uid":"2586268","lat":"52.23938046828","lng":"21.016716957092","name":"Krakowskie Przedmie\u015bcie - Traugutta 2","spot":"1","number":"94931","bikes":"11","bike_racks":"24","free_racks":"13","terminal_type":"7inch","bike_numbers":"24842,24839,28885,28089,27896,27395,26498,26025,25790,25564,28852","bike_types":{"4":11},"place_type":"0","rack_locks":"1"},