[{"region_info":{"lat":"52.2345","lng":"21.0024","zoom":"11","name":"VETURILO Poland","hotline":"+4819115","domain":"vp","language":"pl","email":"info@nextbike.pl","timezone":"Europe\/Warsaw","currency":"PLN","country_calling_code":"+48","system_operator_address":"Nextbike Polska S.A. ul. Przasnyska 6B, 01-756 Warszawa","country":"PL","country_name":"Poland","terms":"http:\/\/www.veturilo.waw.pl\/terms\/?v=201701","policy":"","website":"http:\/\/www.veturilo.waw.pl\/","show_free_racks":"1","booked_bikes":"0","set_point_bikes":"5283","available_bikes":"3467"},"places_summary":{"lngMin":20.8689688,"lngMax":21.120087,"latMin":52.117285,"latMax":52.3485329,"lngAvg":21.008117591667,"latAvg":52.230678041088},"places":[{"uid":"2585259","lat":"52.296298","lng":"20.9583575","name":"Dewajtis - UKSW","spot":"1","number":"9402","bikes":"7","bike_racks":"30","free_racks":"16","terminal_type":"7inch","bike_numbers":"24886,28478,26278,26242,25046,29428,29220","bike_types":{"4":7},"place_type":"0","rack_locks":"1"},{"uid":"2585263","lat":"52.2909738","lng":"20.9295559","name":"Metro M\u0142ociny","spot":"1","number":"9403","bikes":"2","bike_racks":"30","free_racks":"26","terminal_type":"7inch","bike_numbers":"24966,27619","bike_types":{"4":2},"place_type":"0","rack_locks":"1"},{"uid":"2585265","lat":"52.2901732","lng":"20.9503698","name":"Marymoncka - Dewajtis","spot":"1","number":"9404","bikes":"17","bike_racks":"30","free_racks":"13","terminal_type":"7inch","bike_numbers":"28601,28370,28065,27924,27912,27757,27231,27217,27191,26887,26879,26547,28935,96422,96374,96172,29218","bike_types":{"4":17},"place_type":"0","rack_locks":"1"},{"uid":"2585267","lat":"52.285914","lng":"20.940561","name":"Metro Wawrzyszew","spot":"1","number":"9405","bikes":"4","bike_racks":"20","free_racks":"15","terminal_type":"7inch","bike_numbers":"24588,27396,96026,96418","bike_types":{"4":4},"place_type":"0","rack_locks":"1"},{"uid":"2585269","lat":"52.2336142","lng":"21.0146353","name":"G\u00f3rskiego - Szpitalna","spot":"1","number":"9406","bikes":"17","bike_racks":"16","free_racks":"0","terminal_type":"7inch","bike_numbers":"24489,28708,28634,28411,27392,27144,27072,26800,25668,25071,29644,28861,28837,63608,96529,96420,96161","bike_types":{"51":1,"4":16},"place_type":"0","rack_locks":"1"},{"uid":"2585271","lat":"52.2816265","lng":"20.9498871","name":"Metro Stare Bielany","spot":"1","number":"9407","bikes":"11","bike_racks":"30","free_racks":"18","terminal_type":"7inch","bike_numbers":"24846,28763,28577,28473,27997,27989,27537,27450,26862,25740,25256","bike_types":{"4":11},"place_type":"0","rack_locks":"1"},{"uid":"2585272","lat":"52.2361217","lng":"21.0219096","name":"Ordynacka - Uniwersytet Muzyczny","spot":"1","number":"9408","bikes":"8","bike_racks":"20","free_racks":"10","terminal_type":"7inch","bike_numbers":"28575,27795,27198,27037,26128,25421,25308,29063","bike_types":{"4":8},"place_type":"0","rack_locks":"1"},{"uid":"2585273","lat":"52.2768774","lng":"20.9481302","name":"Bielany-Ratusz","spot":"1","number":"9409","bikes":"7","bike_racks":"28","free_racks":"19","terminal_type":"7inch","bike_numbers":"27876,27059,25841,25612,25460,25358,28776","bike_types":{"4":7},"place_type":"0","rack_locks":"1"},{"uid":"2585275","lat":"52.2761569","lng":"20.9616673","name":"Metro S\u0142odowiec","spot":"1","number":"9410","bikes":"14","bike_racks":"30","free_racks":"15","terminal_type":"7inch","bike_numbers":"24913,24716,25004,28653,28190,28098,27952,27784,26513,25565,25504,29019,96264,96159","bike_types":{"4":14},"place_type":"0","rack_locks":"1"},{"uid":"2585278","lat":"52.2777751","lng":"20.9856999","name":"Potocka - OSiR \u017boliborz","spot":"1","number":"9411","bikes":"4","bike_racks":"15","free_racks":"12","terminal_type":"7inch","bike_numbers":"24907,26427,25789,25206","bike_types":{"4":4},"place_type":"0","rack_locks":"1"},{"uid":"2585280","lat":"52.273527782989","lng":"20.994186401367","name":"Gwia\u017adzista - Promyka","spot":"1","number":"9412","bikes":"6","bike_racks":"16","free_racks":"10","terminal_type":"7inch","bike_numbers":"24908,28474,28143,26953,26326,25344","bike_types":{"4":6},"place_type":"0","rack_locks":"1"},{"uid":"2585281","lat":"52.270941","lng":"20.9326269","name":"al. Reymonta - Conrada","spot":"1","number":"9413","bikes":"12","bike_racks":"30","free_racks":"19","terminal_type":"7inch","bike_numbers":"28138,28022,27638,27132,27014,26774,26573,26135,26053,25957,96307,96248","bike_types":{"4":12},"place_type":"0","rack_locks":"1"},{"uid":"2585283","lat":"52.2706441","lng":"20.9504181","name":"Broniewskiego - Perzy\u0144skiego","spot":"1","number":"9414","bikes":"0","bike_racks":"16","free_racks":"14","terminal_type":"7inch","place_type":"0","rack_locks":"1","bike_numbers":null,"bike_types":[]},{"uid":"2585284","lat":"52.2714203","lng":"20.9727099","name":"Metro Marymont","spot":"1","number":"9415","bikes":"15","bike_racks":"30","free_racks":"11","terminal_type":"7inch","bike_numbers":"24843,28737,28455,28031,27993,27644,27573,27549,27430,25869,25487,29434,29125,96191,96087","bike_types":{"4":14,"0":1},"place_type":"0","rack_locks":"1"},{"uid":"2585285","lat":"52.2694081","lng":"20.9833664","name":"Metro Plac Wilsona","spot":"1","number":"9416","bikes":"20","bike_racks":"21","free_racks":"3","terminal_type":"7inch","bike_numbers":"24604,24199,28498,27977,27955,27593,27379,27321,26346,26183,26110,25035,29084,29071,29042,28841,28978,96328,96169,29165","bike_types":{"4":19,"37":1},"place_type":"0","rack_locks":"1"},{"uid":"2585286","lat":"52.2668623","lng":"20.9637032","name":"Broniewskiego - W\u0142o\u015bcia\u0144ska","spot":"1","number":"9417","bikes":"1","bike_racks":"19","free_racks":"18","terminal_type":"7inch","bike_numbers":"28211","bike_types":{"4":1},"place_type":"0","rack_locks":"1"},{"uid":"2585288","lat":"52.2643984","lng":"20.9723179","name":"Broniewskiego - Krasi\u0144skiego","spot":"1","number":"9418","bikes":"2","bike_racks":"16","free_racks":"13","maintenance":"1","terminal_type":"7inch","bike_numbers":"28633,26502","bike_types":{"4":2},"place_type":"0","rack_locks":"1"},{"uid":"2585289","lat":"52.267875","lng":"21.0020667","name":"Wybrze\u017ce Gdy\u0144skie - KS Sp\u00f3jnia","spot":"1","number":"9419","bikes":"10","bike_racks":"15","free_racks":"6","terminal_type":"7inch","bike_numbers":"24832,28258,27929,27888,27670,26177,26044,25931,25285,25034","bike_types":{"4":10},"place_type":"0","rack_locks":"1"},{"uid":"2585291","lat":"52.2624054","lng":"20.9802551","name":"Plac Grunwaldzki","spot":"1","number":"9420","bikes":"15","bike_racks":"30","free_racks":"16","terminal_type":"7inch","bike_numbers":"24870,24573,28721,28452,28398,26946,26159,25555,25298,25214,25204,29110,29044,28827,29269","bike_types":{"4":15},"place_type":"0","rack_locks":"1"},{"uid":"2585296","lat":"52.2612575","lng":"20.9863191","name":"Zaj\u0105czka - Bitwy Pod Rokitn\u0105","spot":"1","number":"9421","bikes":"1","bike_racks":"15","free_racks":"14","terminal_type":"7inch","bike_numbers":"28327","bike_types":{"4":1},"place_type":"0","rack_locks":"1"},{"uid":"2585297","lat":"52.2645018","lng":"20.9895998","name":"Plac Inwalid\u00f3w","spot":"1","number":"9422","bikes":"7","bike_racks":"15","free_racks":"5","terminal_type":"7inch","bike_numbers":"24475,28723,27074,26921,26198,25770,96448","bike_types":{"51":1,"4":6},"place_type":"0","rack_locks":"1"},{"uid":"2585299","lat":"52.258245356688","lng":"20.898613929749","name":"P\u0119tla Stare Bemowo","spot":"1","number":"9423","bikes":"12","bike_racks":"21","free_racks":"7","terminal_type":"7inch","bike_numbers":"24458,28487,27840,27590,26865,26371,25237,25201,25198,29641,96130,96109","bike_types":{"51":1,"4":11},"place_type":"0","rack_locks":"1"},{"uid":"2585301","lat":"52.260895125763","lng":"20.923923254013","name":"P\u0119tla Nowe Bemowo","spot":"1","number":"9424","bikes":"17","bike_racks":"25","free_racks":"7","terminal_type":"7inch","bike_numbers":"24020,28514,27891,27125,26633,26536,26475,26294,25872,25461,25436,25428,25259,29454,96008,96268,96170","bike_types":{"26":1,"4":16},"place_type":"0","rack_locks":"1"},{"uid":"2585304","lat":"52.2575903","lng":"20.9323374","name":"Obro\u0144c\u00f3w Tobruku - Pieni\u0105\u017cka","spot":"1","number":"9425","bikes":"17","bike_racks":"22","free_racks":"1","terminal_type":"7inch","bike_numbers":"24930,24478,28363,28285,28042,27950,27470,27109,26968,26040,25987,25197,25036,96508,96311,96097,29211","bike_types":{"4":16,"51":1},"place_type":"0","rack_locks":"1"},{"uid":"2585305","lat":"52.2593225","lng":"20.9605511","name":"Pow\u0105zkowska - Krasi\u0144skiego","spot":"1","number":"9426","bikes":"13","bike_racks":"23","free_racks":"10","terminal_type":"7inch","bike_numbers":"28358,27737,27639,26819,26798,25243,29079,25627,28863,28851,96530,96362,29232","bike_types":{"4":13},"place_type":"0","rack_locks":"1"},{"uid":"2585306","lat":"52.2563145","lng":"20.9682307","name":"Pow\u0105zkowska - Plac Niemena","spot":"1","number":"9427","bikes":"4","bike_racks":"16","free_racks":"12","terminal_type":"7inch","bike_numbers":"28147,27182,26618,29660","bike_types":{"4":4},"place_type":"0","rack_locks":"1"},{"uid":"2585307","lat":"52.258524460024","lng":"20.970931649208","name":"Przasnyska - Rydygiera","spot":"1","number":"9428","bikes":"6","bike_racks":"15","free_racks":"9","terminal_type":"7inch","bike_numbers":"24881,27518,27489,27010,26901,26273","bike_types":{"4":6},"place_type":"0","rack_locks":"1"},{"uid":"2585308","lat":"52.253594","lng":"20.9798744","name":"Pow\u0105zkowska - Burakowska","spot":"1","number":"9429","bikes":"13","bike_racks":"20","free_racks":"8","terminal_type":"7inch","bike_numbers":"28099,28075,27350,26663,26445,26421,26304,25818,25785,25665,29448,96249,29252","bike_types":{"4":13},"place_type":"0","rack_locks":"1"},{"uid":"2585311","lat":"52.2576018","lng":"20.9944975","name":"Metro Dworzec Gda\u0144ski","spot":"1","number":"9430","bikes":"5","bike_racks":"30","free_racks":"13","terminal_type":"7inch","bike_numbers":"26319,29113,96396,96119,29256","bike_types":{"4":5},"place_type":"0","rack_locks":"1"},{"uid":"2585315","lat":"52.2465952","lng":"20.9429216","name":"Obozowa - Cio\u0142ka","spot":"1","number":"9432","bikes":"2","bike_racks":"13","free_racks":"6","terminal_type":"7inch","bike_numbers":"28680,27864","bike_types":{"4":2},"place_type":"0","rack_locks":"1"},{"uid":"2585317","lat":"52.227621983552","lng":"20.956758856773","name":"al. Prymasa Tysi\u0105clecia - Kasprzaka","spot":"1","number":"9433","bikes":"0","bike_racks":"23","free_racks":"22","terminal_type":"7inch","place_type":"0","rack_locks":"1","bike_numbers":null,"bike_types":[]},{"uid":"2585319","lat":"52.246037","lng":"20.962463","name":"Obozowa - Radziwie","spot":"1","number":"9434","bikes":"0","bike_racks":"13","free_racks":"12","terminal_type":"7inch","place_type":"0","rack_locks":"1","bike_numbers":null,"bike_types":[]},{"uid":"2585321","lat":"52.2514708","lng":"20.9857053","name":"al. Jana Paw\u0142a II - Stawki","spot":"1","number":"9435","bikes":"3","bike_racks":"23","free_racks":"19","terminal_type":"7inch","bike_numbers":"24958,25317,29188","bike_types":{"4":3},"place_type":"0","rack_locks":"1"},{"uid":"2585323","lat":"52.2535305","lng":"20.9924922","name":"Stawki - Dubois","spot":"1","number":"9436","bikes":"6","bike_racks":"13","free_racks":"7","terminal_type":"7inch","bike_numbers":"24601,28130,27696,25286,28946,96569","bike_types":{"4":6},"place_type":"0","rack_locks":"1"},{"uid":"2585326","lat":"52.2541702","lng":"20.9980649","name":"Andersa - Muranowska","spot":"1","number":"9437","bikes":"3","bike_racks":"30","free_racks":"24","terminal_type":"7inch","bike_numbers":"28496,26599,96085","bike_types":{"4":3},"place_type":"0","rack_locks":"1"},{"uid":"2585327","lat":"52.255877","lng":"21.0099819","name":"Sanguszki - Wybrze\u017ce Gda\u0144skie","spot":"1","number":"9438","bikes":"73","bike_racks":"28","free_racks":"0","terminal_type":"7inch","bike_numbers":"24984,24961,24921,24799,24795,24777,24771,24753,24662,24546,24500,24482,24012,28739,28734,28638,28602,28579,28503,28351,28278,27967,27966,27921,27861,27834,27828,27814,27794,27732,27698,27674,27451,27429,27387,27341,27260,27248,27239,27216,27187,27173,27094,26925,26686,26653,26649,26490,26486,26474,26448,26386,26270,26222,25981,25967,25825,25747,25580,25448,25278,25060,29065,28958,28938,28933,29443,29649,28812,96302,96244,96214,29186","bike_types":{"4":70,"51":2,"26":1},"place_type":"0","rack_locks":"1"},{"uid":"2585330","lat":"52.24418","lng":"20.97794","name":"Okopowa - Anielewicza","spot":"1","number":"9440","bikes":"3","bike_racks":"20","free_racks":"17","terminal_type":"7inch","bike_numbers":"24797,26596,25336","bike_types":{"4":3},"place_type":"0","rack_locks":"1"},{"uid":"2585333","lat":"52.2486","lng":"20.98352","name":"Smocza - Mi\u0142a","spot":"1","number":"9441","bikes":"1","bike_racks":"15","free_racks":"14","terminal_type":"7inch","bike_numbers":"96461","bike_types":{"4":1},"place_type":"0","rack_locks":"1"},{"uid":"2585334","lat":"52.24616","lng":"20.98538","name":"Smocza - Anielewicza","spot":"1","number":"9442","bikes":"3","bike_racks":"17","free_racks":"14","terminal_type":"7inch","bike_numbers":"28217,27900,26895","bike_types":{"4":3},"place_type":"0","rack_locks":"1"},{"uid":"2585335","lat":"52.247226","lng":"20.9893155","name":"al. Jana Paw\u0142a II - Anielewicza","spot":"1","number":"9443","bikes":"2","bike_racks":"22","free_racks":"20","terminal_type":"7inch","bike_numbers":"26585,25397","bike_types":{"4":2},"place_type":"0","rack_locks":"1"},{"uid":"2585337","lat":"52.249052","lng":"20.9948923","name":"Anielewicza - Zamenhofa","spot":"1","number":"9444","bikes":"4","bike_racks":"15","free_racks":"10","terminal_type":"7inch","bike_numbers":"24751,26677,25912,28813","bike_types":{"4":4},"place_type":"0","rack_locks":"1"},{"uid":"2585338","lat":"52.2492196","lng":"20.9971878","name":"Anielewicza - Andersa","spot":"1","number":"9445","bikes":"8","bike_racks":"20","free_racks":"8","terminal_type":"7inch","bike_numbers":"28869,28626,27718,27624,27304,25991,25607,25400","bike_types":{"4":8},"place_type":"0","rack_locks":"1"},{"uid":"2585340","lat":"52.251549","lng":"21.002749","name":"Bonifraterska - Franciszka\u0144ska","spot":"1","number":"9446","bikes":"11","bike_racks":"18","free_racks":"7","terminal_type":"7inch","bike_numbers":"24804,27942,27398,27343,27179,27128,25561,25292,29345,29123,96131","bike_types":{"4":10,"0":1},"place_type":"0","rack_locks":"1"},{"uid":"2585342","lat":"52.2541119","lng":"21.0093342","name":"Ko\u015bcielna - Piesza","spot":"1","number":"9448","bikes":"5","bike_racks":"26","free_racks":"20","terminal_type":"7inch","bike_numbers":"27029,26072,25893,25236,28835","bike_types":{"4":5},"place_type":"0","rack_locks":"1"},{"uid":"2585344","lat":"52.2392622","lng":"20.8987641","name":"P\u0119tla Os. G\u00f3rczewska","spot":"1","number":"9449","bikes":"14","bike_racks":"15","free_racks":"3","terminal_type":"7inch","bike_numbers":"28664,28640,28437,27095,26733,26348,26066,25997,25863,25661,25601,25142,25135,96577","bike_types":{"4":14},"place_type":"0","rack_locks":"1"},{"uid":"2585345","lat":"52.2389287","lng":"20.9139535","name":"Bemowo-Ratusz","spot":"1","number":"9450","bikes":"3","bike_racks":"20","free_racks":"11","terminal_type":"7inch","bike_numbers":"26918,26328,28810","bike_types":{"4":3},"place_type":"0","rack_locks":"1"},{"uid":"2585346","lat":"52.2387861","lng":"20.9424946","name":"Okocimska - Olbrachta","spot":"1","number":"9451","bikes":"8","bike_racks":"18","free_racks":"5","terminal_type":"7inch","bike_numbers":"24706,24612,28559,28345,28324,27089,26755,26436","bike_types":{"4":8},"place_type":"0","rack_locks":"1"},{"uid":"2585349","lat":"52.2506241","lng":"21.0533611","name":"Dworzec Wschodni - Lubelska","spot":"1","number":"9452","bikes":"2","bike_racks":"15","free_racks":"11","terminal_type":"7inch","bike_numbers":"25524,96373","bike_types":{"4":2},"place_type":"0","rack_locks":"1"},{"uid":"2585351","lat":"52.2369249","lng":"20.9723559","name":"Leszno - M\u0142ynarska","spot":"1","number":"9453","bikes":"2","bike_racks":"30","free_racks":"28","terminal_type":"7inch","bike_numbers":"24818,28593","bike_types":{"4":2},"place_type":"0","rack_locks":"1"},{"uid":"2585352","lat":"52.2430451","lng":"20.9803864","name":"Dzielna - Bellottiego","spot":"1","number":"9454","bikes":"8","bike_racks":"13","free_racks":"4","terminal_type":"7inch","bike_numbers":"24740,27970,27199,26780,26083,25097,28976,29251","bike_types":{"4":8},"place_type":"0","rack_locks":"1"},{"uid":"2585353","lat":"52.24108","lng":"20.98316","name":"Wolno\u015b\u0107 - Bellottiego","spot":"1","number":"9455","bikes":"7","bike_racks":"16","free_racks":"10","terminal_type":"7inch","bike_numbers":"28580,28557,28532,27704,25775,60850,96353","bike_types":{"4":7},"place_type":"0","rack_locks":"1"},{"uid":"2585354","lat":"52.2435448","lng":"20.9873507","name":"Smocza - Nowolipki","spot":"1","number":"9456","bikes":"1","bike_racks":"16","free_racks":"15","terminal_type":"7inch","bike_numbers":"29367","bike_types":{"4":1},"place_type":"0","rack_locks":"1"},{"uid":"2585356","lat":"52.2445767","lng":"20.99177","name":"al. Jana Paw\u0142a II - Nowolipki","spot":"1","number":"9457","bikes":"0","bike_racks":"16","free_racks":"12","terminal_type":"7inch","place_type":"0","rack_locks":"1","bike_numbers":null,"bike_types":[]},{"uid":"2585358","lat":"52.22868","lng":"20.91509","name":"Powsta\u0144c\u00f3w \u015al\u0105skich - Cz\u0142uchowska","spot":"1","number":"9458","bikes":"2","bike_racks":"16","free_racks":"14","terminal_type":"7inch","bike_numbers":"28598,25864","bike_types":{"4":2},"place_type":"0","rack_locks":"1"},{"uid":"2585360","lat":"52.2342032","lng":"20.934689","name":"Jana Olbrachta - Antka Rozpylacza","spot":"1","number":"9459","bikes":"0","bike_racks":"13","free_racks":"13","terminal_type":"7inch","place_type":"0","rack_locks":"1","bike_numbers":null,"bike_types":[]},{"uid":"2585364","lat":"52.2401623","lng":"20.9877277","name":"Wola-Ratusz","spot":"1","number":"9460","bikes":"9","bike_racks":"15","free_racks":"6","terminal_type":"7inch","bike_numbers":"24775,28362,28305,28156,27329,26971,26751,26309,25762","bike_types":{"4":9},"place_type":"0","rack_locks":"1"},{"uid":"2585368","lat":"52.2445326","lng":"20.99998","name":"Plac Bankowy - Kino Muran\u00f3w","spot":"1","number":"9462","bikes":"0","bike_racks":"17","free_racks":"15","terminal_type":"7inch","place_type":"0","rack_locks":"1","bike_numbers":null,"bike_types":[]},{"uid":"2585369","lat":"52.2449465","lng":"21.0012943","name":"Andersa - D\u0142uga","spot":"1","number":"9463","bikes":"15","bike_racks":"30","free_racks":"15","terminal_type":"7inch","bike_numbers":"28596,27449,27406,27405,27323,27084,26842,26085,25920,25718,25305,29446,96478,96301,96126","bike_types":{"4":15},"place_type":"0","rack_locks":"1"},{"uid":"2585370","lat":"52.2442666","lng":"21.0015893","name":"Marsza\u0142kowska - al. Solidarno\u015bci","spot":"1","number":"9464","bikes":"5","bike_racks":"30","free_racks":"24","terminal_type":"7inch","bike_numbers":"24931,28528,25690,96547,96527","bike_types":{"4":5},"place_type":"0","rack_locks":"1"},{"uid":"2585371","lat":"52.2431975","lng":"21.0016603","name":"Plac Bankowy - Ratusz","spot":"1","number":"9465","bikes":"17","bike_racks":"30","free_racks":"12","terminal_type":"7inch","bike_numbers":"24461,28726,27775,26999,26959,26131,25802,25784,25512,25495,29115,28854,28974,96386,96384,29216,96583","bike_types":{"51":1,"4":16},"place_type":"0","rack_locks":"1"},{"uid":"2585373","lat":"52.2435719","lng":"21.0066801","name":"Senatorska - Biela\u0144ska","spot":"1","number":"9466","bikes":"8","bike_racks":"17","free_racks":"5","terminal_type":"7inch","bike_numbers":"24842,28688,28207,27115,26934,25586,28986,63621","bike_types":{"4":8},"place_type":"0","rack_locks":"1"},{"uid":"2585377","lat":"52.246314509834","lng":"21.0113042593","name":"Miodowa","spot":"1","number":"9467","bikes":"19","bike_racks":"24","free_racks":"0","terminal_type":"7inch","bike_numbers":"28427,28214,28076,27575,27404,27303,27170,27012,26642,26624,26026,26022,25760,25582,25477,25311,25141,96497,96410","bike_types":{"4":19},"place_type":"0","rack_locks":"1"},{"uid":"2585378","lat":"52.2435965","lng":"21.0140803","name":"Krakowskie Przedmie\u015bcie - Tr\u0119backa","spot":"1","number":"9468","bikes":"16","bike_racks":"14","free_racks":"7","terminal_type":"7inch","bike_numbers":"24856,24541,28690,27976,27686,27229,26515,26124,26034,25576,25464,25353,28884,96484,96114,29189","bike_types":{"4":16},"place_type":"0","rack_locks":"1"},{"uid":"2585379","lat":"52.2465625","lng":"21.0174345","name":"Mariensztat","spot":"1","number":"9469","bikes":"15","bike_racks":"15","free_racks":"2","terminal_type":"7inch","bike_numbers":"24036,28133,27530,27434,27385,26099,25972,25833,29352,29114,28890,63625,96549,96322,96272","bike_types":{"54":1,"4":14},"place_type":"0","rack_locks":"1"},{"uid":"2585381","lat":"52.224934","lng":"20.945489","name":"Jana Kazimierza - Giz\u00f3w","spot":"1","number":"9471","bikes":"6","bike_racks":"13","free_racks":"7","terminal_type":"7inch","bike_numbers":"28029,27860,26056,25985,25693,29140","bike_types":{"4":5,"0":1},"place_type":"0","rack_locks":"1"},{"uid":"2585385","lat":"52.23016","lng":"20.951558","name":"Wolska - Elekcyjna","spot":"1","number":"9472","bikes":"4","bike_racks":"20","free_racks":"0","terminal_type":"7inch","bike_numbers":"24765,27676,27252,27152","bike_types":{"4":4},"place_type":"0","rack_locks":"1"},{"uid":"2585387","lat":"52.237662392829","lng":"20.955492854118","name":"al. Prymasa Tysi\u0105clecia - G\u00f3rczewska","spot":"1","number":"9473","bikes":"12","bike_racks":"20","free_racks":"8","terminal_type":"7inch","bike_numbers":"24719,28897,28615,27513,27468,27296,27006,26494,26274,25939,25782,29239","bike_types":{"4":12},"place_type":"0","rack_locks":"1"},{"uid":"2585389","lat":"52.2333374","lng":"20.9652776","name":"Wolska - P\u0142ocka","spot":"1","number":"9474","bikes":"2","bike_racks":"15","free_racks":"14","terminal_type":"7inch","bike_numbers":"27867,27168","bike_types":{"4":2},"place_type":"0","rack_locks":"1"},{"uid":"2585391","lat":"52.228522296173","lng":"20.969638824463","name":"Kasprzaka - Skierniewicka","spot":"1","number":"9475","bikes":"5","bike_racks":"21","free_racks":"15","terminal_type":"7inch","bike_numbers":"28698,25321,28849,96456,96349","bike_types":{"4":5},"place_type":"0","rack_locks":"1"},{"uid":"2585394","lat":"52.22898","lng":"20.97843","name":"Kasprzaka - Karolkowa","spot":"1","number":"9476","bikes":"1","bike_racks":"15","free_racks":"13","terminal_type":"7inch","bike_numbers":"24901","bike_types":{"4":1},"place_type":"0","rack_locks":"1"},{"uid":"2585396","lat":"52.2328752","lng":"20.9805411","name":"Muzeum Powstania Warszawskiego","spot":"1","number":"9477","bikes":"9","bike_racks":"10","free_racks":"0","terminal_type":"7inch","bike_numbers":"27259,27116,26229,26042,25847,28918,96521,29154,29153","bike_types":{"4":9},"place_type":"0","rack_locks":"1"},{"uid":"2585398","lat":"52.22983","lng":"20.983123","name":"Metro Rondo Daszy\u0144skiego","spot":"1","number":"9478","bikes":"10","bike_racks":"26","free_racks":"16","terminal_type":"7inch","bike_numbers":"26980,26674,26503,26252,26055,25873,25566,25155,29257,29231","bike_types":{"4":10},"place_type":"0","rack_locks":"1"},{"uid":"2585400","lat":"52.23145","lng":"20.98869","name":"Prosta - Wronia","spot":"1","number":"9479","bikes":"6","bike_racks":"15","free_racks":"9","terminal_type":"7inch","bike_numbers":"24698,28024,27611,27587,26847,96520","bike_types":{"4":6},"place_type":"0","rack_locks":"1"},{"uid":"2585401","lat":"52.2373141","lng":"20.9888488","name":"\u017belazna - Ch\u0142odna","spot":"1","number":"9480","bikes":"1","bike_racks":"15","free_racks":"12","terminal_type":"7inch","bike_numbers":"96300","bike_types":{"4":1},"place_type":"0","rack_locks":"1"},{"uid":"2585402","lat":"52.2344946","lng":"20.9905117","name":"\u017belazna - Grzybowska","spot":"1","number":"9481","bikes":"3","bike_racks":"20","free_racks":"17","terminal_type":"7inch","bike_numbers":"26078,25723,29172","bike_types":{"4":3},"place_type":"0","rack_locks":"1"},{"uid":"2585405","lat":"52.238666","lng":"20.9957314","name":"al. Jana Paw\u0142a II - Plac Mirowski","spot":"1","number":"9482","bikes":"3","bike_racks":"16","free_racks":"13","terminal_type":"7inch","bike_numbers":"27846,25381,25091","bike_types":{"4":3},"place_type":"0","rack_locks":"1"},{"uid":"2585406","lat":"52.2357151","lng":"20.9966071","name":"al. Jana Paw\u0142a II - Grzybowska","spot":"1","number":"9483","bikes":"12","bike_racks":"23","free_racks":"7","terminal_type":"7inch","bike_numbers":"28338,28112,26769,26705,26500,26271,25427,25258,25157,29036,96405,96132","bike_types":{"4":12},"place_type":"0","rack_locks":"1"},{"uid":"2585410","lat":"52.23958","lng":"21.00027","name":"Ptasia - Zimna","spot":"1","number":"9485","bikes":"5","bike_racks":"16","free_racks":"10","terminal_type":"7inch","bike_numbers":"24927,28548,28310,25966,25568","bike_types":{"4":5},"place_type":"0","rack_locks":"1"},{"uid":"2585412","lat":"52.2336314","lng":"21.0028795","name":"Emilii Plater - \u015awi\u0119tokrzyska","spot":"1","number":"9486","bikes":"7","bike_racks":"26","free_racks":"17","terminal_type":"7inch","bike_numbers":"28397,27947,27069,26885,26563,26290,25171","bike_types":{"4":7},"place_type":"0","rack_locks":"1"},{"uid":"2585413","lat":"52.2358704","lng":"21.0037806","name":"Plac Grzybowski","spot":"1","number":"9487","bikes":"3","bike_racks":"26","free_racks":"22","terminal_type":"7inch","bike_numbers":"28392,26789,28936","bike_types":{"4":3},"place_type":"0","rack_locks":"1"},{"uid":"2585416","lat":"52.2384853","lng":"21.0067552","name":"Marsza\u0142kowska - Kr\u00f3lewska","spot":"1","number":"9488","bikes":"7","bike_racks":"19","free_racks":"11","terminal_type":"7inch","bike_numbers":"24917,24521,28719,27629,25424,29073,96372","bike_types":{"4":7},"place_type":"0","rack_locks":"1"},{"uid":"2585417","lat":"52.2364206","lng":"21.0072407","name":"Marsza\u0142kowska - Zielna","spot":"1","number":"9489","bikes":"16","bike_racks":"30","free_racks":"14","terminal_type":"7inch","bike_numbers":"24732,24630,24513,28480,27949,27707,26970,26476,26145,26118,25513,25227,25176,28916,29142,28847","bike_types":{"4":15,"0":1},"place_type":"0","rack_locks":"1"},{"uid":"2585420","lat":"52.2397008","lng":"21.0119292","name":"Plac Ma\u0142achowskiego","spot":"1","number":"9491","bikes":"11","bike_racks":"16","free_racks":"4","terminal_type":"7inch","bike_numbers":"24792,24715,24623,28453,28012,28001,27572,27019,25413,25023,96247","bike_types":{"4":11},"place_type":"0","rack_locks":"1"},{"uid":"2585422","lat":"52.2359114","lng":"21.0135654","name":"Plac Powsta\u0144c\u00f3w Warszawy","spot":"1","number":"9492","bikes":"21","bike_racks":"20","free_racks":"0","terminal_type":"7inch","bike_numbers":"24783,28743,28385,28146,27935,27881,27034,26708,26588,26501,26379,26213,26156,25837,25671,25548,25297,25271,96010,96261,29227","bike_types":{"4":21},"place_type":"0","rack_locks":"1"},{"uid":"2585423","lat":"52.2393559","lng":"21.016603","name":"Krakowskie Przedmie\u015bcie - Traugutta","spot":"1","number":"9493","bikes":"0","bike_racks":"24","free_racks":"23","terminal_type":"7inch","place_type":"0","rack_locks":"1","bike_numbers":null,"bike_types":[]},{"uid":"2585429","lat":"52.238298","lng":"21.0184014","name":"Obo\u017ana - Kopernika","spot":"1","number":"9495","bikes":"12","bike_racks":"22","free_racks":"8","terminal_type":"7inch","bike_numbers":"24655,28773,27983,27710,27213,27045,26621,26529,26423,26400,25969,96518","bike_types":{"4":12},"place_type":"0","rack_locks":"1"},{"uid":"2585430","lat":"52.24190654256","lng":"21.024259328842","name":"Lipowa - Dobra","spot":"1","number":"9496","bikes":"20","bike_racks":"19","free_racks":"0","terminal_type":"7inch","bike_numbers":"24857,28903,28208,27877,26212,26117,25989,25942,25721,25707,25372,29090,29014,28980,28959,96058,96492,96464,96201,96082","bike_types":{"4":20},"place_type":"0","rack_locks":"1"},{"uid":"2585431","lat":"52.2413087","lng":"21.0281727","name":"Centrum Nauki Kopernik","spot":"1","number":"9497","bikes":"39","bike_racks":"30","free_racks":"0","terminal_type":"7inch","bike_numbers":"24891,24685,24658,24649,24571,24539,28899,28747,27988,27819,27807,27411,27371,27232,27165,27119,26954,26722,26505,26449,26143,26006,25950,25658,25596,25543,25529,25356,28988,28993,96002,96487,96294,96255,96230,96101,96081,29238,96578","bike_types":{"4":39},"place_type":"0","rack_locks":"1"},{"uid":"2585432","lat":"52.2264464","lng":"20.9837164","name":"Kolejowa","spot":"1","number":"9498","bikes":"14","bike_racks":"16","free_racks":"3","terminal_type":"7inch","bike_numbers":"24895,24659,28447,27941,27824,27774,26728,26643,26552,25481,25132,29130,28814,96382","bike_types":{"4":13,"0":1},"place_type":"0","rack_locks":"1"},{"uid":"2585433","lat":"52.22983","lng":"20.993996","name":"\u017belazna - Sienna","spot":"1","number":"9499","bikes":"3","bike_racks":"24","free_racks":"19","terminal_type":"7inch","bike_numbers":"27104,25669,25411","bike_types":{"4":3},"place_type":"0","rack_locks":"1"},{"uid":"2585435","lat":"52.230201297582","lng":"20.999550819397","name":"al. Jana Paw\u0142a II - Z\u0142ota","spot":"1","number":"9500","bikes":"7","bike_racks":"16","free_racks":"9","terminal_type":"7inch","bike_numbers":"28750,28493,27699,25362,25172,28915,96238","bike_types":{"4":7},"place_type":"0","rack_locks":"1"},{"uid":"2585438","lat":"52.2309778","lng":"21.0036755","name":"Emilii Plater - Z\u0142ota","spot":"1","number":"9501","bikes":"18","bike_racks":"30","free_racks":"4","terminal_type":"7inch","bike_numbers":"24531,25009,28627,27652,27184,27002,26897,26777,26518,26458,26162,26150,25663,25209,63613,63610,96387,29199","bike_types":{"4":18},"place_type":"0","rack_locks":"1"},{"uid":"2585440","lat":"52.232816601853","lng":"21.006980538368","name":"Pa\u0142ac Kultury i Nauki","spot":"1","number":"9502","bikes":"4","bike_racks":"17","free_racks":"13","terminal_type":"7inch","bike_numbers":"24676,27759,25804,25724","bike_types":{"4":4},"place_type":"0","rack_locks":"1"},{"uid":"2585442","lat":"52.232934","lng":"21.0101791","name":"Marsza\u0142kowska - Z\u0142ota","spot":"1","number":"9503","bikes":"14","bike_racks":"22","free_racks":"9","terminal_type":"7inch","bike_numbers":"24786,24745,24560,24551,28504,28501,27932,27661,27496,27086,27055,29346,29357,96570","bike_types":{"4":14},"place_type":"0","rack_locks":"1"},{"uid":"2585445","lat":"52.231987","lng":"21.016092","name":"Bracka - Krucza","spot":"1","number":"9504","bikes":"8","bike_racks":"20","free_racks":"12","terminal_type":"7inch","bike_numbers":"24736,27979,27648,25192,29427,28860,28857,96406","bike_types":{"4":8},"place_type":"0","rack_locks":"1"},{"uid":"2585446","lat":"52.2355713","lng":"21.0179642","name":"Nowy \u015awiat - Warecka","spot":"1","number":"9505","bikes":"11","bike_racks":"24","free_racks":"14","terminal_type":"7inch","bike_numbers":"24928,24621,24492,28304,27866,27597,27420,26866,25058,96046,96039","bike_types":{"4":10,"51":1},"place_type":"0","rack_locks":"1"},{"uid":"2585447","lat":"52.2337571","lng":"21.0202789","name":"Ga\u0142czy\u0144skiego - Foksal","spot":"1","number":"9506","bikes":"15","bike_racks":"24","free_racks":"9","terminal_type":"7inch","bike_numbers":"24839,28049,27765,27183,27122,26767,26747,26517,26433,26390,25469,25175,96563,96453,96576","bike_types":{"4":15},"place_type":"0","rack_locks":"1"},{"uid":"2585450","lat":"52.2375934","lng":"21.0256487","name":"Topiel - Tamka","spot":"1","number":"9507","bikes":"19","bike_racks":"20","free_racks":"0","terminal_type":"7inch","bike_numbers":"24873,24525,28885,28405,28093,27620,27171,26906,26673,26608,26051,26028,25996,25849,25165,25068,29043,63619,29155","bike_types":{"4":19},"place_type":"0","rack_locks":"1"},{"uid":"2585452","lat":"52.2358752","lng":"21.0317323","name":"Solec - Jaracza","spot":"1","number":"9508","bikes":"8","bike_racks":"15","free_racks":"8","terminal_type":"7inch","bike_numbers":"24597,28553,26366,25563,25422,25405,25241,96200","bike_types":{"4":8},"place_type":"0","rack_locks":"1"},{"uid":"2585453","lat":"52.2218874","lng":"20.9795301","name":"al. Jerozolimskie - Niemcewicza","spot":"1","number":"9509","bikes":"1","bike_racks":"19","free_racks":"16","terminal_type":"7inch","bike_numbers":"28008","bike_types":{"4":1},"place_type":"0","rack_locks":"1"},{"uid":"2585455","lat":"52.2222155","lng":"20.9866293","name":"Ochota-Ratusz","spot":"1","number":"9510","bikes":"8","bike_racks":"23","free_racks":"10","terminal_type":"7inch","bike_numbers":"24484,28707,28346,27290,26743,25758,25178,96363","bike_types":{"51":1,"4":7},"place_type":"0","rack_locks":"1"},{"uid":"2585457","lat":"52.2249718","lng":"20.9897661","name":"Plac Zawiszy","spot":"1","number":"9511","bikes":"14","bike_racks":"24","free_racks":"3","terminal_type":"7inch","bike_numbers":"24854,24652,28692,28622,28393,28333,27798,27751,26562,25860,25573,96485,96483,29205","bike_types":{"4":14},"place_type":"0","rack_locks":"1"},{"uid":"2585460","lat":"52.22626","lng":"20.9961309","name":"al. Jerozolimskie - Lindleya","spot":"1","number":"9512","bikes":"10","bike_racks":"15","free_racks":"4","terminal_type":"7inch","bike_numbers":"27610,27129,26926,26795,26017,25971,25948,25808,96554,96173","bike_types":{"4":10},"place_type":"0","rack_locks":"1"},{"uid":"2585462","lat":"52.2241455","lng":"20.9975244","name":"Lindleya - szpital","spot":"1","number":"9513","bikes":"17","bike_racks":"28","free_racks":"11","terminal_type":"7inch","bike_numbers":"24769,24627,24504,28414,28011,27836,27476,27423,27243,27123,25973,25552,25386,28939,28910,28865,29224","bike_types":{"4":17},"place_type":"0","rack_locks":"1"},{"uid":"2585464","lat":"52.227861","lng":"21.0008509","name":"Warszawa \u015ar\u00f3dmie\u015bcie WKD","spot":"1","number":"9514","bikes":"18","bike_racks":"18","free_racks":"0","terminal_type":"7inch","bike_numbers":"24793,28608,28394,28107,26967,26360,26215,26029,26027,25820,25701,25689,25528,25183,29360,29128,96041,96152","bike_types":{"4":17,"0":1},"place_type":"0","rack_locks":"1"},{"uid":"2585466","lat":"52.2249555","lng":"21.0031664","name":"Oczki - WUM","spot":"1","number":"9515","bikes":"8","bike_racks":"19","free_racks":"11","terminal_type":"7inch","bike_numbers":"27402,27355,26377,26077,25911,25538,29086,96029","bike_types":{"4":8},"place_type":"0","rack_locks":"1"},{"uid":"2585469","lat":"52.2290464","lng":"21.0054544","name":"Emilii Plater - Al. Jerozolimskie","spot":"1","number":"9517","bikes":"3","bike_racks":"30","free_racks":"27","terminal_type":"7inch","bike_numbers":"26984,25691,25134","bike_types":{"4":3},"place_type":"0","rack_locks":"1"},{"uid":"2585470","lat":"52.2259343","lng":"21.0067537","name":"Emilii Plater - Wsp\u00f3lna","spot":"1","number":"9518","bikes":"0","bike_racks":"15","free_racks":"15","terminal_type":"7inch","place_type":"0","rack_locks":"1","bike_numbers":null,"bike_types":[]},{"uid":"2585472","lat":"52.23001","lng":"21.01088","name":"Metro Centrum","spot":"1","number":"9519","bikes":"6","bike_racks":"30","free_racks":"23","terminal_type":"7inch","bike_numbers":"24780,28712,27938,27219,27210,29361","bike_types":{"4":6},"place_type":"0","rack_locks":"1"},{"uid":"2585473","lat":"52.229347019086","lng":"21.011314988136","name":"Marsza\u0142kowska - Al. Jerozolimskie","spot":"1","number":"9520","bikes":"6","bike_racks":"24","free_racks":"16","terminal_type":"7inch","bike_numbers":"24664,28321,27521,26831,25595,25174","bike_types":{"4":6},"place_type":"0","rack_locks":"1"},{"uid":"2585476","lat":"52.230418150276","lng":"21.013610959053","name":"al. Jerozolimskie - rejon Rotundy","spot":"1","number":"9521","bikes":"12","bike_racks":"24","free_racks":"13","terminal_type":"7inch","bike_numbers":"24581,28624,28450,28152,27608,27287,27160,27157,27040,26000,25484,29455","bike_types":{"4":12},"place_type":"0","rack_locks":"1"},{"uid":"2585477","lat":"52.2262882","lng":"21.0135705","name":"Marsza\u0142kowska - Ho\u017ca","spot":"1","number":"9522","bikes":"20","bike_racks":"15","free_racks":"2","terminal_type":"7inch","bike_numbers":"24909,24494,24466,24002,28644,28620,27896,27209,26701,26482,26299,26241,26106,25430,25245,96024,96023,96565,96265,29192","bike_types":{"4":17,"51":2,"26":1},"place_type":"0","rack_locks":"1"},{"uid":"2585492","lat":"52.2282923","lng":"21.0178542","name":"Krucza - Wsp\u00f3lna","spot":"1","number":"9523","bikes":"15","bike_racks":"28","free_racks":"11","terminal_type":"7inch","bike_numbers":"24615,28597,28588,28356,28355,27479,27365,26944,26065,26010,25968,25710,29555,96452,96282","bike_types":{"4":15},"place_type":"0","rack_locks":"1"},{"uid":"2585684","lat":"52.23144","lng":"21.0213036","name":"Rondo de Gaulle'a","spot":"1","number":"9524","bikes":"3","bike_racks":"22","free_racks":"19","terminal_type":"7inch","bike_numbers":"28446,26694,96290","bike_types":{"4":3},"place_type":"0","rack_locks":"1"},{"uid":"2585694","lat":"52.2278487","lng":"21.0235084","name":"Plac Trzech Krzy\u017cy","spot":"1","number":"9525","bikes":"15","bike_racks":"23","free_racks":"5","maintenance":"1","terminal_type":"7inch","bike_numbers":"24841,24626,24040,28051,27785,27777,27324,27112,26995,26524,26389,26025,25854,25293,25022","bike_types":{"4":14,"26":1},"place_type":"0","rack_locks":"1"},{"uid":"2585695","lat":"52.23324","lng":"21.0261179","name":"Smolna - PKP Powi\u015ble","spot":"1","number":"9526","bikes":"14","bike_racks":"18","free_racks":"0","terminal_type":"7inch","bike_numbers":"24577,24570,28729,28581,28459,27254,27154,27118,26060,25254,25110,96543,96223,29195","bike_types":{"4":14},"place_type":"0","rack_locks":"1"},{"uid":"2585699","lat":"52.2340191","lng":"21.0300328","name":"Herberta - PKP Powi\u015ble","spot":"1","number":"9527","bikes":"15","bike_racks":"26","free_racks":"9","terminal_type":"7inch","bike_numbers":"24974,28523,28293,28257,28140,28058,27910,27143,26839,26108,25346,25186,96385,96150,24051","bike_types":{"4":14,"26":1},"place_type":"0","rack_locks":"1"},{"uid":"2585704","lat":"52.2347879","lng":"21.0340991","name":"Solec - al. 3 Maja","spot":"1","number":"9528","bikes":"5","bike_racks":"24","free_racks":"17","terminal_type":"7inch","bike_numbers":"27579,27283,26479,28954,96533","bike_types":{"4":5},"place_type":"0","rack_locks":"1"},{"uid":"2585708","lat":"52.2301405","lng":"21.0303694","name":"Ksi\u0105\u017c\u0119ca - Rozbrat","spot":"1","number":"9529","bikes":"13","bike_racks":"15","free_racks":"2","terminal_type":"7inch","bike_numbers":"24925,27658,26811,26801,26671,26616,25719,25681,25635,25011,96017,96580,96588","bike_types":{"4":13},"place_type":"0","rack_locks":"1"},{"uid":"2585711","lat":"52.2172177","lng":"20.9713608","name":"Szcz\u0119\u015bliwicka - APS","spot":"1","number":"9530","bikes":"2","bike_racks":"22","free_racks":"19","terminal_type":"7inch","bike_numbers":"26672,25147","bike_types":{"4":2},"place_type":"0","rack_locks":"1"},{"uid":"2585712","lat":"52.2179474","lng":"20.9775567","name":"Kopi\u0144ska - Bia\u0142obrzeska","spot":"1","number":"9531","bikes":"0","bike_racks":"15","free_racks":"14","terminal_type":"7inch","place_type":"0","rack_locks":"1","bike_numbers":null,"bike_types":[]},{"uid":"2585714","lat":"52.2178554","lng":"20.9828138","name":"Plac Narutowicza","spot":"1","number":"9532","bikes":"7","bike_racks":"30","free_racks":"17","terminal_type":"7inch","bike_numbers":"28676,27987,27894,26062,25527,96421,96370","bike_types":{"4":7},"place_type":"0","rack_locks":"1"},{"uid":"2585716","lat":"52.216641","lng":"20.9879476","name":"Raszy\u0144ska - Wawelska","spot":"1","number":"9533","bikes":"11","bike_racks":"20","free_racks":"7","terminal_type":"7inch","bike_numbers":"27992,27508,27471,27166,27057,26137,25468,25457,25433,25092,96303","bike_types":{"4":11},"place_type":"0","rack_locks":"1"},{"uid":"2585717","lat":"52.2191029","lng":"20.9890149","name":"Raszy\u0144ska - Filtrowa","spot":"1","number":"9534","bikes":"5","bike_racks":"22","free_racks":"14","terminal_type":"7inch","bike_numbers":"28400,26820,26283,96004,96571","bike_types":{"4":5},"place_type":"0","rack_locks":"1"},{"uid":"2585720","lat":"52.220676","lng":"21.0045554","name":"al. Niepodleg\u0142o\u015bci - Nowowiejska","spot":"1","number":"9535","bikes":"6","bike_racks":"30","free_racks":"25","terminal_type":"7inch","bike_numbers":"27780,27659,27564,27483,27374,26522","bike_types":{"4":6},"place_type":"0","rack_locks":"1"},{"uid":"2585721","lat":"52.2174693","lng":"21.0056537","name":"Kaczy\u0144skiego - al. Niepodleg\u0142o\u015bci","spot":"1","number":"9536","bikes":"10","bike_racks":"16","free_racks":"5","terminal_type":"7inch","bike_numbers":"28752,28033,27878,26845,26713,26365,25151,28961,96550,96210","bike_types":{"4":10},"place_type":"0","rack_locks":"1"},{"uid":"2585722","lat":"52.2226831","lng":"21.0081097","name":"Noakowskiego - Koszykowa","spot":"1","number":"9537","bikes":"21","bike_racks":"24","free_racks":"3","terminal_type":"7inch","bike_numbers":"28898,28882,28876,28445,28442,27968,27714,27390,26540,26496,26216,26092,25714,25239,25211,28921,29131,28967,96262,96084,96582","bike_types":{"4":20,"0":1},"place_type":"0","rack_locks":"1"},{"uid":"2585724","lat":"52.219916","lng":"21.0116824","name":"Plac Politechniki","spot":"1","number":"9538","bikes":"4","bike_racks":"27","free_racks":"23","terminal_type":"7inch","bike_numbers":"28754,27892,27436,26141","bike_types":{"4":4},"place_type":"0","rack_locks":"1"},{"uid":"2585727","lat":"52.223503","lng":"21.0128519","name":"Pozna\u0144ska - Zesp\u00f3\u0142 Szk\u00f3\u0142 Gastronomicznych","spot":"1","number":"9539","bikes":"11","bike_racks":"18","free_racks":"7","terminal_type":"7inch","bike_numbers":"24690,28562,28384,28374,27673,27577,27190,26223,26164,25838,25830","bike_types":{"4":11},"place_type":"0","rack_locks":"1"},{"uid":"2585728","lat":"52.2174857","lng":"21.0142949","name":"Rondo Jazdy Polskiej","spot":"1","number":"9540","bikes":"2","bike_racks":"24","free_racks":"22","terminal_type":"7inch","bike_numbers":"27493,26509","bike_types":{"4":2},"place_type":"0","rack_locks":"1"},{"uid":"2585729","lat":"52.2197435","lng":"21.0157353","name":"ul. Wary\u0144skiego-ul. Nowowiejska-Metro Politechnika ","spot":"1","number":"9541","bikes":"2","bike_racks":"20","free_racks":"17","terminal_type":"7inch","bike_numbers":"28425,26470","bike_types":{"4":2},"place_type":"0","rack_locks":"1"},{"uid":"2585731","lat":"52.2197681","lng":"21.0172775","name":"Plac Zbawiciela","spot":"1","number":"9542","bikes":"1","bike_racks":"12","free_racks":"11","terminal_type":"7inch","bike_numbers":"29280","bike_types":{"4":1},"place_type":"0","rack_locks":"1"},{"uid":"2585735","lat":"52.2229427","lng":"21.0158211","name":"Plac Konstytucji","spot":"1","number":"9543","bikes":"17","bike_racks":"30","free_racks":"12","terminal_type":"7inch","bike_numbers":"24976,24707,24595,28416,28153,27700,27681,27646,27569,27386,27180,26480,25189,96034,96364,29176,29264","bike_types":{"4":17},"place_type":"0","rack_locks":"1"},{"uid":"2585737","lat":"52.2238152","lng":"21.0207859","name":"Mokotowska - Pi\u0119kna","spot":"1","number":"9544","bikes":"12","bike_racks":"22","free_racks":"10","terminal_type":"7inch","bike_numbers":"24637,24590,28637,28275,26864,26793,25542,25452,25371,25127,60854,29279","bike_types":{"4":12},"place_type":"0","rack_locks":"1"},{"uid":"2585738","lat":"52.2200212","lng":"21.0256299","name":"Plac na Rozdro\u017cu","spot":"1","number":"9545","bikes":"38","bike_racks":"26","free_racks":"0","terminal_type":"7inch","bike_numbers":"24741,24680,24512,28775,28724,28354,28276,28087,27940,27911,27856,27849,27637,27615,27452,27197,27156,26739,26466,26375,26289,26279,26158,26067,25924,25923,25441,25230,25184,25129,25084,29057,29047,63630,96100,96095,29173,29236","bike_types":{"4":38},"place_type":"0","rack_locks":"1"},{"uid":"2585742","lat":"52.2249504","lng":"21.0268155","name":"Matejki - Wiejska","spot":"1","number":"9546","bikes":"5","bike_racks":"20","free_racks":"15","terminal_type":"7inch","bike_numbers":"24951,26678,26113,25907,96500","bike_types":{"4":5},"place_type":"0","rack_locks":"1"},{"uid":"2585747","lat":"52.2221129","lng":"21.0343873","name":"My\u015bliwiecka - Rozbrat","spot":"1","number":"9547","bikes":"24","bike_racks":"21","free_racks":"4","terminal_type":"7inch","bike_numbers":"24902,28718,28568,28438,28430,28352,28262,28062,27464,27432,27413,27337,26948,26836,26090,25729,25342,25264,29213,28853,96178,96151,96078,29177","bike_types":{"4":24},"place_type":"0","rack_locks":"1"},{"uid":"2585748","lat":"52.2277124","lng":"21.0442955","name":"Port Czerniakowski","spot":"1","number":"9548","bikes":"32","bike_racks":"30","free_racks":"0","terminal_type":"7inch","bike_numbers":"24855,24849,24758,24643,28623,28119,28103,27838,27772,27418,27236,27073,27016,26711,26676,26096,25732,25613,25126,25083,29647,29137,28836,96522,96390,96371,96357,96352,96351,96162,96122,29201","bike_types":{"4":31,"0":1},"place_type":"0","rack_locks":"1"},{"uid":"2585749","lat":"52.2109711","lng":"20.9759125","name":"Gr\u00f3jecka - Bitwy Warszawskiej 1920 roku","spot":"1","number":"9549","bikes":"4","bike_racks":"20","free_racks":"16","terminal_type":"7inch","bike_numbers":"27501,27127,26219,60831","bike_types":{"4":4},"place_type":"0","rack_locks":"1"},{"uid":"2585750","lat":"52.2130296","lng":"20.9819985","name":"Pasteura - Winnicka - UW","spot":"1","number":"9550","bikes":"10","bike_racks":"24","free_racks":"14","terminal_type":"7inch","bike_numbers":"24995,24845,24776,24656,28410,28003,27466,26988,25965,25685","bike_types":{"4":10},"place_type":"0","rack_locks":"1"},{"uid":"2585762","lat":"52.2107722","lng":"20.9847557","name":"Stefana Banacha - UW","spot":"1","number":"9551","bikes":"8","bike_racks":"29","free_racks":"24","terminal_type":"7inch","bike_numbers":"24613,28329,27889,27813,26837,25625,28879,96517","bike_types":{"4":8},"place_type":"0","rack_locks":"1"},{"uid":"2585764","lat":"52.212671","lng":"21.003437","name":"Biblioteka Narodowa","spot":"1","number":"9552","bikes":"19","bike_racks":"24","free_racks":"0","terminal_type":"7inch","bike_numbers":"24518,28695,28461,28435,28367,28196,27782,27267,27202,27004,26878,26144,25876,25801,25726,25365,96177,96102,29212","bike_types":{"4":19},"place_type":"0","rack_locks":"1"},{"uid":"2585766","lat":"52.21691","lng":"21.01997","name":"Marsza\u0142kowska - Litewska","spot":"1","number":"9553","bikes":"6","bike_racks":"15","free_racks":"8","terminal_type":"7inch","bike_numbers":"28874,27316,26352,26220,26059,25284","bike_types":{"4":6},"place_type":"0","rack_locks":"1"},{"uid":"2585770","lat":"52.2083858","lng":"20.9631103","name":"P\u0119tla Szcz\u0119\u015bliwice ","spot":"1","number":"9554","bikes":"13","bike_racks":"19","free_racks":"0","terminal_type":"7inch","bike_numbers":"28408,28055,27545,27214,27106,26880,26813,26684,25462,25379,25304,96442,96274","bike_types":{"4":13},"place_type":"0","rack_locks":"1"},{"uid":"2585771","lat":"52.206153650625","lng":"20.970287919044","name":"Dickensa - Geodet\u00f3w","spot":"1","number":"9555","bikes":"4","bike_racks":"16","free_racks":"11","terminal_type":"7inch","bike_numbers":"24624,28635,28350,28843","bike_types":{"4":4},"place_type":"0","rack_locks":"1"},{"uid":"2585772","lat":"52.205361371875","lng":"20.984664559364","name":"\u017bwirki i Wigury - Ksi\u0119cia Trojdena","spot":"1","number":"9556","bikes":"4","bike_racks":"17","free_racks":"11","terminal_type":"7inch","bike_numbers":"24668,28576,25437,96050","bike_types":{"4":4},"place_type":"0","rack_locks":"1"},{"uid":"2585774","lat":"52.205801893754","lng":"20.998928546906","name":"Rakowiecka - \u015aw. A. Boboli","spot":"1","number":"9557","bikes":"3","bike_racks":"17","free_racks":"14","terminal_type":"7inch","bike_numbers":"26302,26095,96055","bike_types":{"4":3},"place_type":"0","rack_locks":"1"},{"uid":"2585776","lat":"52.209916","lng":"21.0067794","name":"al. Niepodleg\u0142o\u015bci - Batorego","spot":"1","number":"9558","bikes":"4","bike_racks":"26","free_racks":"22","terminal_type":"7inch","bike_numbers":"24455,26192,28778,96416","bike_types":{"51":1,"4":3},"place_type":"0","rack_locks":"1"},{"uid":"2585779","lat":"52.2132375","lng":"21.0210568","name":"Plac Unii Lubelskiej","spot":"1","number":"9559","bikes":"8","bike_racks":"24","free_racks":"15","terminal_type":"7inch","bike_numbers":"28391,26810,26100,26048,25476,28815,96534,29198","bike_types":{"4":8},"place_type":"0","rack_locks":"1"},{"uid":"2585781","lat":"52.2027557","lng":"20.9508951","name":"W\u0142odarzewska - Maszynowa","spot":"1","number":"9560","bikes":"3","bike_racks":"18","free_racks":"15","terminal_type":"7inch","bike_numbers":"28486,26493,96441","bike_types":{"4":3},"place_type":"0","rack_locks":"1"},{"uid":"2585782","lat":"52.2017647","lng":"20.9820897","name":"Sanocka - Pruszkowska","spot":"1","number":"9561","bikes":"3","bike_racks":"15","free_racks":"4","terminal_type":"7inch","bike_numbers":"26972,25031,96427","bike_types":{"4":3},"place_type":"0","rack_locks":"1"},{"uid":"2585785","lat":"52.1981365","lng":"20.9833717","name":"\u017bwirki i Wigury - Rac\u0142awicka","spot":"1","number":"9562","bikes":"4","bike_racks":"18","free_racks":"13","terminal_type":"7inch","bike_numbers":"24474,28409,27851,27531","bike_types":{"51":1,"4":3},"place_type":"0","rack_locks":"1"},{"uid":"2585787","lat":"52.20177","lng":"20.99969","name":"Wo\u0142oska - Kulskiego","spot":"1","number":"9563","bikes":"2","bike_racks":"15","free_racks":"12","terminal_type":"7inch","bike_numbers":"24848,27399","bike_types":{"4":2},"place_type":"0","rack_locks":"1"},{"uid":"2585788","lat":"52.2042638","lng":"21.014428","name":"Madali\u0144skiego - Kazimierzowska","spot":"1","number":"9564","bikes":"7","bike_racks":"24","free_racks":"17","terminal_type":"7inch","bike_numbers":"27734,27261,26639,25889,25848,25575,96433","bike_types":{"4":7},"place_type":"0","rack_locks":"1"},{"uid":"2585789","lat":"52.2055175","lng":"21.0231033","name":"Pu\u0142awska - Dworkowa","spot":"1","number":"9565","bikes":"11","bike_racks":"19","free_racks":"2","terminal_type":"7inch","bike_numbers":"24629,24628,26744,26126,25610,25516,25390,25081,60862,28964,96488","bike_types":{"4":11},"place_type":"0","rack_locks":"1"},{"uid":"2585790","lat":"52.2071756","lng":"21.0312643","name":"Belwederska - Gagarina","spot":"1","number":"9566","bikes":"23","bike_racks":"30","free_racks":"8","terminal_type":"7inch","bike_numbers":"24479,28727,28544,28312,28271,28095,27375,26982,26710,26706,26704,26463,26205,26184,26116,25727,25010,28895,28996,96460,96341,96207,29164","bike_types":{"51":1,"4":22},"place_type":"0","rack_locks":"1"},{"uid":"2585791","lat":"52.2074193","lng":"21.0479621","name":"Czerniakowska - Gagarina","spot":"1","number":"9567","bikes":"19","bike_racks":"25","free_racks":"10","terminal_type":"7inch","bike_numbers":"24905,24502,28631,28550,28135,28077,27859,27853,27305,27009,26660,26617,26179,25540,25021,29020,29432,96157,29148","bike_types":{"4":19},"place_type":"0","rack_locks":"1"},{"uid":"2585794","lat":"52.1938131","lng":"20.9914431","name":"Etiudy Rewolucyjnej - Mi\u0105czy\u0144ska","spot":"1","number":"9568","bikes":"2","bike_racks":"18","free_racks":"17","terminal_type":"7inch","bike_numbers":"27269,26776","bike_types":{"4":2},"place_type":"0","rack_locks":"1"},{"uid":"2585799","lat":"52.1994156","lng":"21.0121384","name":"Metro Rac\u0142awicka","spot":"1","number":"9570","bikes":"4","bike_racks":"30","free_racks":"20","terminal_type":"7inch","bike_numbers":"28081,26784,25380,25240","bike_types":{"4":4},"place_type":"0","rack_locks":"1"},{"uid":"2585800","lat":"52.199505","lng":"21.0240975","name":"Pu\u0142awska - Dolna","spot":"1","number":"9571","bikes":"1","bike_racks":"18","free_racks":"16","terminal_type":"7inch","bike_numbers":"96299","bike_types":{"4":1},"place_type":"0","rack_locks":"1"},{"uid":"2585802","lat":"52.2014754","lng":"21.0360047","name":"Sobieskiego - Che\u0142mska","spot":"1","number":"9572","bikes":"10","bike_racks":"15","free_racks":"1","terminal_type":"7inch","bike_numbers":"27041,26720,26606,26543,26076,25619,25319,28956,96415,96142","bike_types":{"4":10},"place_type":"0","rack_locks":"1"},{"uid":"2585804","lat":"52.1998446","lng":"21.05095","name":"Czerniakowska - ZUS","spot":"1","number":"9573","bikes":"17","bike_racks":"15","free_racks":"0","terminal_type":"7inch","bike_numbers":"24844,24609,24497,28472,28155,27978,27677,27381,26555,26392,26244,25906,25347,25027,28839,63623,96404","bike_types":{"4":16,"51":1},"place_type":"0","rack_locks":"1"},{"uid":"2585807","lat":"52.1916776","lng":"20.8689688","name":"PKP Ursus-Nied\u017awiadek","spot":"1","number":"9574","bikes":"0","bike_racks":"15","free_racks":"14","terminal_type":"7inch","place_type":"0","rack_locks":"1","bike_numbers":null,"bike_types":[]},{"uid":"2585808","lat":"52.1960469","lng":"20.8849347","name":"PKP Ursus","spot":"1","number":"9575","bikes":"10","bike_racks":"16","free_racks":"6","terminal_type":"7inch","bike_numbers":"24744,28460,28287,28083,27837,27438,26602,25888,25826,28944","bike_types":{"4":10},"place_type":"0","rack_locks":"1"},{"uid":"2585809","lat":"52.1869936","lng":"20.8906478","name":"Sosnkowskiego - OSiR Ursus","spot":"1","number":"9576","bikes":"8","bike_racks":"15","free_racks":"7","terminal_type":"7inch","bike_numbers":"28349,27614,27388,26974,26168,25768,25078,28952","bike_types":{"4":8},"place_type":"0","rack_locks":"1"},{"uid":"2585811","lat":"52.2005548","lng":"20.8937538","name":"Ursus-Ratusz","spot":"1","number":"9577","bikes":"7","bike_racks":"15","free_racks":"7","terminal_type":"7inch","bike_numbers":"24968,28905,28444,28261,25709,25161,96512","bike_types":{"4":7},"place_type":"0","rack_locks":"1"},{"uid":"2585814","lat":"52.1906376","lng":"20.8999443","name":"Skoroszewska - Prystora","spot":"1","number":"9578","bikes":"7","bike_racks":"17","free_racks":"9","terminal_type":"7inch","bike_numbers":"24462,28039,26876,25340,96007,96345,96090","bike_types":{"51":1,"4":6},"place_type":"0","rack_locks":"1"},{"uid":"2585817","lat":"52.1882609","lng":"20.9603771","name":"G\u0142adka - OSiR W\u0142ochy","spot":"1","number":"9579","bikes":"7","bike_racks":"16","free_racks":"4","terminal_type":"7inch","bike_numbers":"27463,25664,25581,96060,96323,96135,96579","bike_types":{"4":7},"place_type":"0","rack_locks":"1"},{"uid":"2585820","lat":"52.2056441","lng":"20.9159142","name":"PKP W\u0142ochy","spot":"1","number":"9580","bikes":"15","bike_racks":"17","free_racks":"2","terminal_type":"7inch","bike_numbers":"28402,27855,27720,27697,27625,27598,27447,26977,26916,25895,25881,25781,25517,25626,28893","bike_types":{"4":15},"place_type":"0","rack_locks":"1"},{"uid":"2585821","lat":"52.2012157","lng":"20.9353145","name":"al. Jerozolimskie - Popularna","spot":"1","number":"9581","bikes":"16","bike_racks":"19","free_racks":"5","terminal_type":"7inch","bike_numbers":"24924,28654,28535,28092,27934,27497,27376,27223,26595,26455,26127,25886,25640,96553,96439,29278","bike_types":{"4":16},"place_type":"0","rack_locks":"1"},{"uid":"2585824","lat":"52.1924709","lng":"20.9596664","name":"W\u0142ochy-Ratusz","spot":"1","number":"9582","bikes":"3","bike_racks":"15","free_racks":"5","terminal_type":"7inch","bike_numbers":"24887,24813,25853","bike_types":{"4":3},"place_type":"0","rack_locks":"1"},{"uid":"2585825","lat":"52.1946888","lng":"20.9667823","name":"1 Sierpnia - DK W\u0142ochy","spot":"1","number":"9583","bikes":"7","bike_racks":"15","free_racks":"8","terminal_type":"7inch","bike_numbers":"24801,24730,28531,27383,26558,25404,25067","bike_types":{"4":7},"place_type":"0","rack_locks":"1"},{"uid":"2585827","lat":"52.1888962","lng":"21.0175887","name":"Metro Wierzbno","spot":"1","number":"9584","bikes":"1","bike_racks":"20","free_racks":"19","terminal_type":"7inch","bike_numbers":"26973","bike_types":{"4":1},"place_type":"0","rack_locks":"1"},{"uid":"2585830","lat":"52.18648","lng":"21.02538","name":"Pu\u0142awska - Idzikowskiego","spot":"1","number":"9585","bikes":"2","bike_racks":"17","free_racks":"15","terminal_type":"7inch","bike_numbers":"26821,25583","bike_types":{"4":2},"place_type":"0","rack_locks":"1"},{"uid":"2585835","lat":"52.1882861","lng":"21.0498825","name":"Sobieskiego - Mangalia","spot":"1","number":"9586","bikes":"5","bike_racks":"15","free_racks":"9","terminal_type":"7inch","bike_numbers":"24876,28315,28131,26883,25416","bike_types":{"4":5},"place_type":"0","rack_locks":"1"},{"uid":"2585837","lat":"52.178777","lng":"21.0016387","name":"Wo\u0142oska - Marynarska","spot":"1","number":"9588","bikes":"7","bike_racks":"26","free_racks":"18","terminal_type":"7inch","bike_numbers":"27622,27555,27453,27111,26998,25185,96568","bike_types":{"4":7},"place_type":"0","rack_locks":"1"},{"uid":"2585838","lat":"52.1800882","lng":"21.0207403","name":"al. Niepodleg\u0142o\u015bci - al. Wilanowska","spot":"1","number":"9589","bikes":"1","bike_racks":"22","free_racks":"20","terminal_type":"7inch","bike_numbers":"63606","bike_types":{"4":1},"place_type":"0","rack_locks":"1"},{"uid":"2585839","lat":"52.1779163","lng":"21.049562","name":"P\u0119tla Stegny","spot":"1","number":"9590","bikes":"12","bike_racks":"23","free_racks":"11","terminal_type":"7inch","bike_numbers":"27056,26802,26613,25844,25695,25556,25315,25153,28877,96465,96413,29260","bike_types":{"4":12},"place_type":"0","rack_locks":"1"},{"uid":"2585843","lat":"52.1818472","lng":"21.0562822","name":"Sobieskiego - \u015bw. Bonifacego","spot":"1","number":"9591","bikes":"5","bike_racks":"22","free_racks":"15","terminal_type":"7inch","bike_numbers":"24929,28770,26431,26031,29182","bike_types":{"4":5},"place_type":"0","rack_locks":"1"},{"uid":"2585844","lat":"52.1702836","lng":"20.9959132","name":"P\u0119tla Bokserska","spot":"1","number":"9592","bikes":"5","bike_racks":"15","free_racks":"10","terminal_type":"7inch","bike_numbers":"24705,28497,28268,26257,28982","bike_types":{"4":5},"place_type":"0","rack_locks":"1"},{"uid":"2585846","lat":"52.1710498","lng":"21.0059144","name":"Gintrowskiego - Gotarda","spot":"1","number":"9593","bikes":"6","bike_racks":"15","free_racks":"5","terminal_type":"7inch","bike_numbers":"28149,28104,25725,96501,96377,29266","bike_types":{"4":6},"place_type":"0","rack_locks":"1"},{"uid":"2585848","lat":"52.174435","lng":"21.0128814","name":"al. Lotnik\u00f3w - Kaczmarskiego","spot":"1","number":"9594","bikes":"2","bike_racks":"30","free_racks":"21","terminal_type":"7inch","bike_numbers":"24033,28703","bike_types":{"26":1,"4":1},"place_type":"0","rack_locks":"1"},{"uid":"2585850","lat":"52.1733132","lng":"21.0257305","name":"Metro S\u0142u\u017cew","spot":"1","number":"9595","bikes":"1","bike_racks":"24","free_racks":"23","terminal_type":"7inch","bike_numbers":"25423","bike_types":{"4":1},"place_type":"0","rack_locks":"1"},{"uid":"2585853","lat":"52.17343","lng":"21.03179","name":"Wa\u0142brzyska - Wr\u00f3bla","spot":"1","number":"9596","bikes":"18","bike_racks":"30","free_racks":"7","terminal_type":"7inch","bike_numbers":"28360,28322,28002,27915,27831,27695,27036,26748,26351,25597,25550,25330,25242,25117,25076,29035,60863,96052","bike_types":{"4":18},"place_type":"0","rack_locks":"1"},{"uid":"2585856","lat":"52.170135","lng":"21.0685748","name":"Jana III Sobieskiego - al. Wilanowska","spot":"1","number":"9597","bikes":"12","bike_racks":"15","free_racks":"5","terminal_type":"7inch","bike_numbers":"28316,28078,27583,26896,26888,26057,25728,25592,25391,25194,25024,96045","bike_types":{"4":12},"place_type":"0","rack_locks":"1"},{"uid":"2585860","lat":"52.1655879","lng":"21.0839331","name":"al. Wilanowska - Przycz\u00f3\u0142kowa","spot":"1","number":"9598","bikes":"27","bike_racks":"16","free_racks":"0","terminal_type":"7inch","bike_numbers":"24972,24960,24610,24522,24001,28732,28582,28136,28106,26702,26679,26561,26245,26070,26061,26020,26011,26001,25772,25667,25373,25111,29136,28979,96495,96330,96280","bike_types":{"4":25,"26":1,"0":1},"place_type":"0","rack_locks":"1"},{"uid":"2585863","lat":"52.16479","lng":"21.10925","name":"Vogla - Syta","spot":"1","number":"9599","bikes":"13","bike_racks":"16","free_racks":"1","terminal_type":"7inch","bike_numbers":"28448,28256,27909,26637,26589,26434,25910,25500,25412,25287,96507,96325,96195","bike_types":{"4":13},"place_type":"0","rack_locks":"1"},{"uid":"2585868","lat":"52.1606257","lng":"21.0723245","name":"al. Rzeczypospolitej - Klimczaka","spot":"1","number":"9600","bikes":"13","bike_racks":"16","free_racks":"0","terminal_type":"7inch","bike_numbers":"24888,24459,28048,27599,27096,27071,25908,25456,29062,29060,29144,96216,96107","bike_types":{"4":11,"51":1,"0":1},"place_type":"0","rack_locks":"1"},{"uid":"2585871","lat":"52.1569168","lng":"21.0760903","name":"al. Rzeczypospolitej - Branickiego","spot":"1","number":"9601","bikes":"10","bike_racks":"16","free_racks":"7","terminal_type":"7inch","bike_numbers":"28818,28759,28530,27842,27781,25816,25812,25704,28800,28906","bike_types":{"4":10},"place_type":"0","rack_locks":"1"},{"uid":"2585872","lat":"52.1593735","lng":"21.086449","name":"Przycz\u00f3\u0142kowa - Branickiego","spot":"1","number":"9602","bikes":"4","bike_racks":"16","free_racks":"12","terminal_type":"7inch","bike_numbers":"27416,26450,63605,96585","bike_types":{"4":4},"place_type":"0","rack_locks":"1"},{"uid":"2585873","lat":"52.1618136","lng":"21.0277355","name":"Metro Ursyn\u00f3w II","spot":"1","number":"9603","bikes":"24","bike_racks":"30","free_racks":"1","terminal_type":"7inch","bike_numbers":"24617,24605,28765,28326,28289,28157,27631,27524,27519,27027,26507,26459,26454,25978,25814,25490,25133,96558,96542,96211,96205,96184,96121,96096","bike_types":{"4":24},"place_type":"0","rack_locks":"1"},{"uid":"2585875","lat":"52.1622579","lng":"21.0280761","name":"Metro Ursyn\u00f3w I","spot":"1","number":"9604","bikes":"14","bike_racks":"30","free_racks":"15","terminal_type":"7inch","bike_numbers":"28689,28490,27786,27672,27240,27153,26612,25932,25602,28870,96006,96476,96231,29170","bike_types":{"4":14},"place_type":"0","rack_locks":"1"},{"uid":"2585876","lat":"52.162401","lng":"21.0383811","name":"Jastrz\u0119bowskiego - SGGW","spot":"1","number":"9605","bikes":"19","bike_racks":"28","free_racks":"9","terminal_type":"7inch","bike_numbers":"24950,24737,28803,28700,28551,28215,28046,27431,26928,26904,25874,25682,25557,60834,29646,28881,96218,96164,96587","bike_types":{"4":19},"place_type":"0","rack_locks":"1"},{"uid":"2585880","lat":"52.1557534","lng":"21.0232776","name":"Romera - Pieciolinii","spot":"1","number":"9606","bikes":"7","bike_racks":"16","free_racks":"10","terminal_type":"7inch","bike_numbers":"24762,24709,27159,27025,26376,25210,29096","bike_types":{"4":7},"place_type":"0","rack_locks":"1"},{"uid":"2585883","lat":"52.1568674","lng":"21.0338401","name":"Metro Stok\u0142osy","spot":"1","number":"9607","bikes":"3","bike_racks":"27","free_racks":"24","terminal_type":"7inch","bike_numbers":"29032,28943,96088","bike_types":{"4":3},"place_type":"0","rack_locks":"1"},{"uid":"2585885","lat":"52.1572887","lng":"21.0440084","name":"Roso\u0142a - Ciszewskiego - SGGW","spot":"1","number":"9608","bikes":"19","bike_racks":"30","free_racks":"10","terminal_type":"7inch","bike_numbers":"24774,28301,28299,27506,27455,27032,26965,26905,26867,26443,26359,26280,26195,25894,25054,96444,96293,96141,29272","bike_types":{"4":19},"place_type":"0","rack_locks":"1"},{"uid":"2585888","lat":"52.1521429","lng":"21.0181224","name":"Pu\u0142awska - Pileckiego","spot":"1","number":"9609","bikes":"9","bike_racks":"22","free_racks":"14","terminal_type":"7inch","bike_numbers":"24501,28056,28054,26824,26442,26405,25465,25029,63603","bike_types":{"4":9},"place_type":"0","rack_locks":"1"},{"uid":"2585893","lat":"52.1495064","lng":"21.0332527","name":"Ciszewskiego - Pileckiego","spot":"1","number":"9610","bikes":"11","bike_racks":"22","free_racks":"8","terminal_type":"7inch","bike_numbers":"27522,27227,27139,25899,25491,25425,60836,96480,96342,96319,29268","bike_types":{"4":11},"place_type":"0","rack_locks":"1"},{"uid":"2585894","lat":"52.1549453","lng":"21.0492977","name":"Roso\u0142a - Gandhi","spot":"1","number":"9611","bikes":"8","bike_racks":"22","free_racks":"15","terminal_type":"7inch","bike_numbers":"24463,24031,27793,27141,26791,26008,25409,96395","bike_types":{"51":1,"26":1,"4":6},"place_type":"0","rack_locks":"1"},{"uid":"2585897","lat":"52.1493105","lng":"21.0453361","name":"Metro Imielin","spot":"1","number":"9612","bikes":"8","bike_racks":"22","free_racks":"14","terminal_type":"7inch","bike_numbers":"24892,24543,24481,28260,26609,26246,28842,63629","bike_types":{"4":7,"51":1},"place_type":"0","rack_locks":"1"},{"uid":"2585899","lat":"52.1522333","lng":"21.0563922","name":"Roso\u0142a - Weso\u0142a","spot":"1","number":"9613","bikes":"9","bike_racks":"23","free_racks":"14","terminal_type":"7inch","bike_numbers":"24952,28045,27208,26716,26557,25964,25553,25173,96245","bike_types":{"4":9},"place_type":"0","rack_locks":"1"},{"uid":"2585901","lat":"52.1427201","lng":"21.0383624","name":"Pileckiego - Alternatywy","spot":"1","number":"9614","bikes":"15","bike_racks":"30","free_racks":"14","terminal_type":"7inch","bike_numbers":"28639,28034,28015,28005,27913,27655,27485,26553,26487,26091,26052,25953,25737,25401,60842","bike_types":{"4":15},"place_type":"0","rack_locks":"1"},{"uid":"2585902","lat":"52.142735","lng":"21.0448131","name":"Dereniowa - P\u0142askowickiej","spot":"1","number":"9615","bikes":"6","bike_racks":"22","free_racks":"14","terminal_type":"7inch","bike_numbers":"28661,27887,27293,26468,26146,25603","bike_types":{"4":6},"place_type":"0","rack_locks":"1"},{"uid":"2585904","lat":"52.1376039","lng":"21.0505531","name":"Stryje\u0144skich - Belgradzka","spot":"1","number":"9616","bikes":"9","bike_racks":"15","free_racks":"6","terminal_type":"7inch","bike_numbers":"28251,28069,27556,27207,26318,25310,25020,29444,96279","bike_types":{"4":9},"place_type":"0","rack_locks":"1"},{"uid":"2585905","lat":"52.1403909","lng":"21.0568187","name":"Metro Natolin","spot":"1","number":"9617","bikes":"10","bike_racks":"30","free_racks":"20","terminal_type":"7inch","bike_numbers":"24977,24696,24552,27760,27510,25720,96040,96304,96258,29150","bike_types":{"4":10},"place_type":"0","rack_locks":"1"},{"uid":"2585906","lat":"52.1420749","lng":"21.0659905","name":"Belgradzka - Roso\u0142a","spot":"1","number":"9618","bikes":"13","bike_racks":"23","free_racks":"9","terminal_type":"7inch","bike_numbers":"24980,24781,24556,25007,28595,28494,27419,27407,26193,25927,25226,25103,28997","bike_types":{"4":13},"place_type":"0","rack_locks":"1"},{"uid":"2585908","lat":"52.1314333","lng":"21.0561562","name":"Stryje\u0144skich - W\u0105wozowa","spot":"1","number":"9619","bikes":"15","bike_racks":"23","free_racks":"7","terminal_type":"7inch","bike_numbers":"28675,28383,28068,28027,27613,27525,27403,27308,27299,26499,26075,25646,60867,96241,29210","bike_types":{"4":15},"place_type":"0","rack_locks":"1"},{"uid":"2585911","lat":"52.3326052","lng":"20.9418404","name":"Ordon\u00f3wny - \u015awiatowida","spot":"1","number":"9620","bikes":"17","bike_racks":"22","free_racks":"9","terminal_type":"7inch","bike_numbers":"28886,28771,28314,27895,27847,27806,27721,27486,26692,26651,26018,25219,29077,28966,96257,96239,96592","bike_types":{"4":17},"place_type":"0","rack_locks":"1"},{"uid":"2585913","lat":"52.1310925","lng":"21.0654795","name":"Metro Kabaty","spot":"1","number":"9621","bikes":"15","bike_racks":"22","free_racks":"6","terminal_type":"7inch","bike_numbers":"24997,24973,24840,24591,24524,24021,24017,27830,26584,26115,25898,25434,28829,96358,96089","bike_types":{"4":13,"26":2},"place_type":"0","rack_locks":"1"},{"uid":"2585916","lat":"52.1332642","lng":"21.0747962","name":"W\u0105wozowa - Roso\u0142a","spot":"1","number":"9622","bikes":"10","bike_racks":"18","free_racks":"9","terminal_type":"7inch","bike_numbers":"27975,26341,26186,26149,25955,25370,29342,60828,96491,96338","bike_types":{"4":10},"place_type":"0","rack_locks":"1"},{"uid":"2585917","lat":"52.324116","lng":"21.05663","name":"Skarbka z G\u00f3r - Berensona","spot":"1","number":"9623","bikes":"8","bike_racks":"26","free_racks":"17","terminal_type":"7inch","bike_numbers":"24526,28657,28277,27882,26881,26413,26142,96204","bike_types":{"4":8},"place_type":"0","rack_locks":"1"},{"uid":"2585919","lat":"52.3485329","lng":"20.9418336","name":"Aluzyjna - Tr\u0105by","spot":"1","number":"9624","bikes":"8","bike_racks":"16","free_racks":"7","terminal_type":"7inch","bike_numbers":"24896,27664,26655,26623,26472,26171,29108,96401","bike_types":{"4":8},"place_type":"0","rack_locks":"1"},{"uid":"2585920","lat":"52.3226982","lng":"20.9448107","name":"\u015awiatowida - Mehoffera","spot":"1","number":"9625","bikes":"9","bike_racks":"16","free_racks":"6","terminal_type":"7inch","bike_numbers":"24882,28612,26551,26394,26038,25480,29127,28823,96486","bike_types":{"4":8,"0":1},"place_type":"0","rack_locks":"1"},{"uid":"2585921","lat":"52.3212548","lng":"20.9477347","name":"Bia\u0142o\u0142\u0119cki O\u015brodek Sportu","spot":"1","number":"9626","bikes":"12","bike_racks":"30","free_racks":"9","terminal_type":"7inch","bike_numbers":"24993,24044,28642,27176,27146,26941,26420,25859,29023,28995,96206,96137","bike_types":{"4":11,"26":1},"place_type":"0","rack_locks":"1"},{"uid":"2585922","lat":"52.3211272","lng":"20.9712964","name":"Bia\u0142o\u0142\u0119ka-Ratusz","spot":"1","number":"9627","bikes":"11","bike_racks":"19","free_racks":"8","terminal_type":"7inch","bike_numbers":"24833,27961,27919,26915,26834,26667,25900,25349,25162,96118,29181","bike_types":{"4":11},"place_type":"0","rack_locks":"1"},{"uid":"2585924","lat":"52.3132981","lng":"20.9655324","name":"My\u015bliborska - al. Kukli\u0144skiego","spot":"1","number":"9628","bikes":"15","bike_racks":"22","free_racks":"6","terminal_type":"7inch","bike_numbers":"24835,24720,28431,28404,27868,27833,26835,26735,26147,25915,25102,28934,29451,96005,29223","bike_types":{"4":15},"place_type":"0","rack_locks":"1"},{"uid":"2585925","lat":"52.3031984","lng":"20.9891666","name":"Modli\u0144ska - \u017bera\u0144ska","spot":"1","number":"9629","bikes":"20","bike_racks":"30","free_racks":"10","terminal_type":"7inch","bike_numbers":"28686,28660,28590,28127,27982,27725,27284,27172,27108,26763,26489,26269,26236,25738,25408,29133,96544,96434,96263,96259","bike_types":{"4":19,"0":1},"place_type":"0","rack_locks":"1"},{"uid":"2585926","lat":"52.3150181","lng":"21.0610807","name":"Skarbka z G\u00f3r - Magiczna","spot":"1","number":"9630","bikes":"15","bike_racks":"30","free_racks":"13","terminal_type":"7inch","bike_numbers":"24939,24562,28745,28645,28607,28583,28134,27487,27360,26757,26707,26669,25376,28994,96038","bike_types":{"4":15},"place_type":"0","rack_locks":"1"},{"uid":"2585928","lat":"52.3000268","lng":"21.0425266","name":"P\u0119tla Br\u00f3dno - Podgrodzie","spot":"1","number":"9631","bikes":"3","bike_racks":"20","free_racks":"18","terminal_type":"7inch","bike_numbers":"27354,26152,26086","bike_types":{"4":3},"place_type":"0","rack_locks":"1"},{"uid":"2585929","lat":"52.2939957","lng":"21.0272258","name":"Rembieli\u0144ska - Kondratowicza","spot":"1","number":"9632","bikes":"10","bike_racks":"23","free_racks":"13","terminal_type":"7inch","bike_numbers":"28084,27998,27512,27288,26292,26103,26047,25901,25218,96165","bike_types":{"4":10},"place_type":"0","rack_locks":"1"},{"uid":"2585931","lat":"52.2917236","lng":"21.0481189","name":"Targ\u00f3wek-Ratusz","spot":"1","number":"9633","bikes":"12","bike_racks":"28","free_racks":"16","terminal_type":"7inch","bike_numbers":"27841,27357,27300,26730,26718,26399,26356,26335,25928,25842,29174,29222","bike_types":{"4":12},"place_type":"0","rack_locks":"1"},{"uid":"2585932","lat":"52.292208","lng":"21.0419554","name":"Kondratowicza - Chodecka","spot":"1","number":"9634","bikes":"2","bike_racks":"23","free_racks":"14","terminal_type":"7inch","bike_numbers":"24672,28671","bike_types":{"4":2},"place_type":"0","rack_locks":"1"},{"uid":"2585934","lat":"52.2925145","lng":"21.0573949","name":"Kondratowicza - Przy Grodzisku","spot":"1","number":"9635","bikes":"7","bike_racks":"18","free_racks":"11","terminal_type":"7inch","bike_numbers":"25000,28651,27778,25483,29139,96020,96240","bike_types":{"4":6,"0":1},"place_type":"0","rack_locks":"1"},{"uid":"2585936","lat":"52.2878069","lng":"21.0213829","name":"Wysockiego - Poborza\u0144ska","spot":"1","number":"9636","bikes":"16","bike_racks":"23","free_racks":"5","terminal_type":"7inch","bike_numbers":"24918,28772,28702,28378,27124,26994,26979,26641,26151,25936,25406,25263,29075,96524,96430,29160","bike_types":{"4":16},"place_type":"0","rack_locks":"1"},{"uid":"2585937","lat":"52.2885915","lng":"21.0310087","name":"Rembieli\u0144ska - Wyszogrodzka","spot":"1","number":"9637","bikes":"19","bike_racks":"30","free_racks":"9","terminal_type":"7inch","bike_numbers":"24949,24739,28339,28154,28120,27969,27538,27087,26874,26859,26814,26685,25877,25827,25213,25180,25170,29004,29388","bike_types":{"4":19},"place_type":"0","rack_locks":"1"},{"uid":"2585938","lat":"52.2864841","lng":"21.0401998","name":"Chodecka - \u017buromi\u0144ska","spot":"1","number":"9638","bikes":"5","bike_racks":"15","free_racks":"9","terminal_type":"7inch","bike_numbers":"28774,28606,27051,25075,29146","bike_types":{"4":4,"0":1},"place_type":"0","rack_locks":"1"},{"uid":"2585939","lat":"52.281231017533","lng":"21.025852560997","name":"Wysockiego - Matki Teresy z Kalkuty","spot":"1","number":"9639","bikes":"10","bike_racks":"17","free_racks":"0","terminal_type":"7inch","bike_numbers":"24820,24811,24039,28758,28656,28578,28520,28041,26153,25564","bike_types":{"4":9,"26":1},"place_type":"0","rack_locks":"1"},{"uid":"2585941","lat":"52.2835693","lng":"21.0720858","name":"Blokowa - DK Zacisze","spot":"1","number":"9640","bikes":"7","bike_racks":"18","free_racks":"11","terminal_type":"7inch","bike_numbers":"24682,24574,27951,27090,25946,25780,96220","bike_types":{"4":7},"place_type":"0","rack_locks":"1"},{"uid":"2585942","lat":"52.276259","lng":"21.0530748","name":"P\u0119tla Targ\u00f3wek","spot":"1","number":"9641","bikes":"10","bike_racks":"22","free_racks":"5","terminal_type":"7inch","bike_numbers":"27660,27342,27277,26491,26104,25828,25366,29365,28907,96158","bike_types":{"4":10},"place_type":"0","rack_locks":"1"},{"uid":"2585943","lat":"52.27139","lng":"21.01566","name":"Jagiello\u0144ska - ALK","spot":"1","number":"9642","bikes":"6","bike_racks":"16","free_racks":"7","terminal_type":"7inch","bike_numbers":"28561,27359,26441,25167,29066,29373","bike_types":{"4":6},"place_type":"0","rack_locks":"1"},{"uid":"2585947","lat":"52.2694683","lng":"21.0499817","name":"Ossowskiego","spot":"1","number":"9644","bikes":"9","bike_racks":"17","free_racks":"8","terminal_type":"7inch","bike_numbers":"28082,26762,26453,26354,25445,25249,29132,96224,96182","bike_types":{"4":8,"0":1},"place_type":"0","rack_locks":"1"},{"uid":"2585951","lat":"52.272602123161","lng":"21.063210368156","name":"Radzymi\u0144ska -Trocka","spot":"1","number":"9645","bikes":"13","bike_racks":"20","free_racks":"6","terminal_type":"7inch","bike_numbers":"24967,24638,28468,27035,25925,25746,25621,25620,25107,25088,29040,96283,96083","bike_types":{"4":13},"place_type":"0","rack_locks":"1"},{"uid":"2585953","lat":"52.27347","lng":"21.07698","name":"Bukowiecka - Zamkowa","spot":"1","number":"9646","bikes":"5","bike_racks":"15","free_racks":"11","terminal_type":"7inch","bike_numbers":"24911,24764,24687,26868,26041","bike_types":{"4":5},"place_type":"0","rack_locks":"1"},{"uid":"2585954","lat":"52.2668885","lng":"21.0585675","name":"Radzymi\u0144ska - Piotra Skargi","spot":"1","number":"9647","bikes":"1","bike_racks":"20","free_racks":"18","terminal_type":"7inch","bike_numbers":"26581","bike_types":{"4":1},"place_type":"0","rack_locks":"1"},{"uid":"2585955","lat":"52.2614369","lng":"21.0155744","name":"Wybrze\u017ce Helskie - ZOO","spot":"1","number":"9648","bikes":"6","bike_racks":"22","free_racks":"15","terminal_type":"7inch","bike_numbers":"26570,25929,25499,29347,96146,29219","bike_types":{"4":6},"place_type":"0","rack_locks":"1"},{"uid":"2585956","lat":"52.2632492","lng":"21.0212231","name":"Rondo Starzy\u0144skiego","spot":"1","number":"9649","bikes":"2","bike_racks":"24","free_racks":"19","terminal_type":"7inch","bike_numbers":"26844,26571","bike_types":{"4":2},"place_type":"0","rack_locks":"1"},{"uid":"2585958","lat":"52.26421","lng":"21.02618","name":"Darwina - Nusbauma-Hilarowicza","spot":"1","number":"9650","bikes":"4","bike_racks":"21","free_racks":"18","terminal_type":"7inch","bike_numbers":"28270,26886,26848,26594","bike_types":{"4":4},"place_type":"0","rack_locks":"1"},{"uid":"2585960","lat":"52.26554","lng":"21.03122","name":"Namys\u0142owska - Darwina","spot":"1","number":"9651","bikes":"0","bike_racks":"15","free_racks":"15","terminal_type":"7inch","place_type":"0","rack_locks":"1","bike_numbers":null,"bike_types":[]},{"uid":"2585961","lat":"52.2690405","lng":"21.0379493","name":"Rondo \u017baba","spot":"1","number":"9652","bikes":"6","bike_racks":"22","free_racks":"15","terminal_type":"7inch","bike_numbers":"24603,27835,26549,25429,29039,96552","bike_types":{"4":6},"place_type":"0","rack_locks":"1"},{"uid":"2585963","lat":"52.2591682","lng":"21.0262224","name":"Jagiello\u0144ska - Plac Hallera","spot":"1","number":"9653","bikes":"10","bike_racks":"20","free_racks":"11","terminal_type":"7inch","bike_numbers":"24616,24022,28616,27356,27314,26939,96167,96154,96153,29228","bike_types":{"4":9,"26":1},"place_type":"0","rack_locks":"1"},{"uid":"2585964","lat":"52.2613811","lng":"21.0305437","name":"Plac Hallera - Sawinkowa","spot":"1","number":"9654","bikes":"7","bike_racks":"28","free_racks":"18","terminal_type":"7inch","bike_numbers":"28647,27131,26327,25792,25614,25368,96414","bike_types":{"4":7},"place_type":"0","rack_locks":"1"},{"uid":"2585967","lat":"52.263","lng":"21.03418","name":"Namys\u0142owska - Szymanowskiego","spot":"1","number":"9655","bikes":"2","bike_racks":"16","free_racks":"14","terminal_type":"7inch","bike_numbers":"28379,27800","bike_types":{"4":2},"place_type":"0","rack_locks":"1"},{"uid":"2585968","lat":"52.2538188","lng":"21.0231542","name":"Ratuszowa - ZOO","spot":"1","number":"9656","bikes":"19","bike_racks":"23","free_racks":"3","terminal_type":"7inch","bike_numbers":"24800,24708,24589,28614,28524,28382,27974,27927,27908,27727,27595,27580,27445,27278,25788,25378,96409,96171,96125","bike_types":{"4":19},"place_type":"0","rack_locks":"1"},{"uid":"2585971","lat":"52.256355","lng":"21.029538","name":"Jagiello\u0144ska - Ratuszowa","spot":"1","number":"9657","bikes":"5","bike_racks":"16","free_racks":"11","terminal_type":"7inch","bike_numbers":"27134,26188,25739,25588,96267","bike_types":{"4":5},"place_type":"0","rack_locks":"1"},{"uid":"2585972","lat":"52.261449","lng":"21.037614","name":"11 Listopada - Ratuszowa","spot":"1","number":"9658","bikes":"12","bike_racks":"30","free_racks":"18","terminal_type":"7inch","bike_numbers":"24979,24978,28295,28026,27971,27761,27744,27612,26846,26204,26166,26009","bike_types":{"4":12},"place_type":"0","rack_locks":"1"},{"uid":"2585974","lat":"52.263109","lng":"21.0381895","name":"11 listopada - \u015arodkowa","spot":"1","number":"9659","bikes":"7","bike_racks":"18","free_racks":"10","terminal_type":"7inch","bike_numbers":"28801,28085,27031,26766,26732,26464,25128","bike_types":{"4":7},"place_type":"0","rack_locks":"1"},{"uid":"2585975","lat":"52.25839","lng":"21.03537","name":"Stalowa - 11 Listopada","spot":"1","number":"9660","bikes":"11","bike_racks":"24","free_racks":"12","terminal_type":"7inch","bike_numbers":"27870,27444,27080,27046,26756,25779,25567,25334,28969,96429,96315","bike_types":{"4":11},"place_type":"0","rack_locks":"1"},{"uid":"2585978","lat":"52.234791","lng":"21.07905","name":"al. Stan\u00f3w Zjednoczonych - Ostrobramska","spot":"1","number":"9661","bikes":"5","bike_racks":"20","free_racks":"16","terminal_type":"7inch","bike_numbers":"28302,27505,25885,25525,29166","bike_types":{"4":5},"place_type":"0","rack_locks":"1"},{"uid":"2585981","lat":"52.2524758","lng":"21.0303479","name":"Floria\u0144ska - Park Praski","spot":"1","number":"9662","bikes":"23","bike_racks":"23","free_racks":"1","terminal_type":"7inch","bike_numbers":"24975,28641,28110,28014,28010,27959,27803,27705,27145,26908,26817,26587,26404,26315,26276,25933,25918,25439,29436,28987,96503,96123,29190","bike_types":{"4":23},"place_type":"0","rack_locks":"1"},{"uid":"2585982","lat":"52.2549757","lng":"21.0339005","name":"Plac Wile\u0144ski","spot":"1","number":"9663","bikes":"28","bike_racks":"30","free_racks":"0","terminal_type":"7inch","bike_numbers":"24992,24983,28802,28682,28681,28373,28148,27990,27550,27313,27058,26827,26206,26157,26125,26097,25890,25843,25805,25773,25642,25510,25182,25163,29143,96143,96124,29214","bike_types":{"4":27,"0":1},"place_type":"0","rack_locks":"1"},{"uid":"2585983","lat":"52.2579576","lng":"21.0399804","name":"Wile\u0144ska - Rzeszotarskiej","spot":"1","number":"9664","bikes":"19","bike_racks":"16","free_racks":"0","terminal_type":"7inch","bike_numbers":"24528,28736,27792,27574,27397,27331,27028,26991,26629,26610,26167,26161,26002,25934,25882,25629,96502,96443,96336","bike_types":{"4":19},"place_type":"0","rack_locks":"1"},{"uid":"2585984","lat":"52.2475848","lng":"20.9568001","name":"al. Prymasa Tysi\u0105clecia - Obozowa","spot":"1","number":"9665","bikes":"1","bike_racks":"13","free_racks":"12","terminal_type":"7inch","bike_numbers":"29254","bike_types":{"4":1},"place_type":"0","rack_locks":"1"},{"uid":"2585985","lat":"52.248607","lng":"21.029647","name":"Okrzei - Panie\u0144ska","spot":"1","number":"9666","bikes":"3","bike_racks":"16","free_racks":"14","terminal_type":"7inch","bike_numbers":"27330,96133,24055","bike_types":{"4":2,"26":1},"place_type":"0","rack_locks":"1"},{"uid":"2585987","lat":"52.2506334","lng":"21.0311174","name":"Sierakowskiego - K\u0142opotowskiego","spot":"1","number":"9667","bikes":"12","bike_racks":"25","free_racks":"13","terminal_type":"7inch","bike_numbers":"28659,28072,27275,26657,26247,25871,25815,25696,25453,29659,96281,29277","bike_types":{"4":12},"place_type":"0","rack_locks":"1"},{"uid":"2585990","lat":"52.2520876","lng":"21.0381368","name":"Targowa - Z\u0105bkowska","spot":"1","number":"9668","bikes":"9","bike_racks":"18","free_racks":"12","terminal_type":"7inch","bike_numbers":"27477,27312,27276,25591,25069,96455,96147,96127,24053","bike_types":{"4":8,"26":1},"place_type":"0","rack_locks":"1"},{"uid":"2585992","lat":"52.2544855","lng":"21.0433458","name":"Fabryka W\u00f3dek Koneser","spot":"1","number":"9669","bikes":"12","bike_racks":"25","free_racks":"13","terminal_type":"7inch","bike_numbers":"24956,24893,24814,28090,28074,27848,27162,25455,25101,96510,29193,29168","bike_types":{"4":12},"place_type":"0","rack_locks":"1"},{"uid":"2585994","lat":"52.2559027","lng":"21.0495613","name":"Radzymi\u0144ska - Wiosenna","spot":"1","number":"9670","bikes":"19","bike_racks":"26","free_racks":"6","terminal_type":"7inch","bike_numbers":"24728,24725,24496,28646,28436,28193,27796,27246,27064,26693,26322,26320,26282,25776,25577,25407,28945,28834,29203","bike_types":{"4":18,"51":1},"place_type":"0","rack_locks":"1"},{"uid":"2585995","lat":"52.25965","lng":"21.0529","name":"Radzymi\u0144ska - \u0141om\u017cy\u0144ska","spot":"1","number":"9671","bikes":"8","bike_racks":"24","free_racks":"16","terminal_type":"7inch","bike_numbers":"24861,27802,27586,27212,26717,25855,29091,96392","bike_types":{"4":8},"place_type":"0","rack_locks":"1"},{"uid":"2585996","lat":"52.2583512","lng":"21.0585337","name":"P\u0119tla Kaw\u0119czy\u0144ska-Bazylika","spot":"1","number":"9672","bikes":"16","bike_racks":"26","free_racks":"9","terminal_type":"7inch","bike_numbers":"24890,24788,24550,27779,27657,26753,26265,25998,25926,25496,29082,28809,96498,96332,29194,29202","bike_types":{"4":16},"place_type":"0","rack_locks":"1"},{"uid":"2585997","lat":"52.249864871462","lng":"21.042911410332","name":"Targowa - Kijowska","spot":"1","number":"9673","bikes":"8","bike_racks":"18","free_racks":"10","terminal_type":"7inch","bike_numbers":"28589,27703,26243,25447,29024,29124,96361,29149","bike_types":{"4":7,"0":1},"place_type":"0","rack_locks":"1"},{"uid":"2586000","lat":"52.252745","lng":"21.0510331","name":"Dworzec Wschodni - Kijowska","spot":"1","number":"9674","bikes":"21","bike_racks":"27","free_racks":"4","terminal_type":"7inch","bike_numbers":"24614,24602,25008,28603,28569,28269,28080,27902,27817,27755,27731,27163,27068,26919,26902,26109,26058,25634,25290,25274,29245","bike_types":{"4":21},"place_type":"0","rack_locks":"1"},{"uid":"2586001","lat":"52.247314","lng":"21.042731","name":"Metro Stadion Narodowy","spot":"1","number":"9675","bikes":"15","bike_racks":"15","free_racks":"2","terminal_type":"7inch","bike_numbers":"24903,24838,24717,28297,27945,27559,27253,27155,26385,26043,25736,25579,25277,29554,96463","bike_types":{"4":15},"place_type":"0","rack_locks":"1"},{"uid":"2586003","lat":"52.2472308","lng":"21.0476456","name":"al. Zieleniecka - Teatr Powszechny","spot":"1","number":"9676","bikes":"11","bike_racks":"14","free_racks":"0","terminal_type":"7inch","bike_numbers":"24761,28693,28347,28108,27626,27297,27017,26424,25532,25106,29015","bike_types":{"4":11},"place_type":"0","rack_locks":"1"},{"uid":"2586005","lat":"52.247136","lng":"21.056658","name":"Grochowska - Mi\u0144ska","spot":"1","number":"9677","bikes":"18","bike_racks":"30","free_racks":"9","terminal_type":"7inch","bike_numbers":"24964,24880,24529,28044,27338,26387,26210,26139,25980,25345,25244,25039,29097,29129,96477,96343,96284,96187","bike_types":{"4":17,"0":1},"place_type":"0","rack_locks":"1"},{"uid":"2586009","lat":"52.2464","lng":"21.06868","name":"Praga-Po\u0142udnie-Ratusz","spot":"1","number":"9678","bikes":"3","bike_racks":"15","free_racks":"11","terminal_type":"7inch","bike_numbers":"27100,26698,25748","bike_types":{"4":3},"place_type":"0","rack_locks":"1"},{"uid":"2586011","lat":"52.2501129","lng":"21.0772011","name":"Dwernickiego - Siennicka","spot":"1","number":"9679","bikes":"9","bike_racks":"25","free_racks":"14","terminal_type":"7inch","bike_numbers":"24729,27026,26383,26196,25836,25338,25299,25200,29419","bike_types":{"4":9},"place_type":"0","rack_locks":"1"},{"uid":"2586012","lat":"52.260428882956","lng":"21.041538119316","name":"Stalowa - Czynszowa","spot":"1","number":"9680","bikes":"10","bike_racks":"15","free_racks":"5","terminal_type":"7inch","bike_numbers":"24831,24583,28264,27421,26714,26343,25268,96271,29281,29247","bike_types":{"4":10},"place_type":"0","rack_locks":"1"},{"uid":"2586014","lat":"52.2372419","lng":"21.0437644","name":"Wybrze\u017ce Szczeci\u0144skie - Stadion Narodowy","spot":"1","number":"9681","bikes":"43","bike_racks":"23","free_racks":"0","terminal_type":"7inch","bike_numbers":"24940,24796,24747,24472,28628,28592,28565,28488,28088,28071,27893,27810,27641,27480,27437,27427,27417,27181,27000,26863,26682,26546,26297,26211,26154,26112,25938,25755,25355,25309,25233,25138,25062,25047,29340,29078,29013,28942,28912,28880,96475,96356,96108","bike_types":{"4":42,"51":1},"place_type":"0","rack_locks":"1"},{"uid":"2586018","lat":"52.2387103","lng":"21.0507515","name":"Rondo Waszyngtona - Stadion Narodowy","spot":"1","number":"9682","bikes":"61","bike_racks":"27","free_racks":"0","terminal_type":"7inch","bike_numbers":"24985,24798,24722,24599,24505,24491,28687,28529,28477,28432,28286,28252,28023,27869,27669,27635,27563,27462,27395,27393,27315,27188,27130,27076,27018,26936,26790,26764,26691,26635,26564,26473,26414,26307,26284,25988,25962,25824,25787,25753,25688,25655,25652,25618,25604,25530,25458,25451,25364,25025,29088,29034,29372,29657,96042,96018,96013,96105,96099,96092,29151","bike_types":{"4":60,"51":1},"place_type":"0","rack_locks":"1"},{"uid":"2586019","lat":"52.242281006874","lng":"21.071160435677","name":"Waszyngtona - Kinowa","spot":"1","number":"9683","bikes":"4","bike_racks":"15","free_racks":"11","terminal_type":"7inch","bike_numbers":"27533,26963,26554,25112","bike_types":{"4":4},"place_type":"0","rack_locks":"1"},{"uid":"2586021","lat":"52.2445639","lng":"21.0838057","name":"Rondo Wiatraczna","spot":"1","number":"9684","bikes":"1","bike_racks":"30","free_racks":"30","terminal_type":"7inch","bike_numbers":"24938","bike_types":{"4":1},"place_type":"0","rack_locks":"1"},{"uid":"2586022","lat":"52.2347451","lng":"21.053651","name":"Francuska - Walecznych","spot":"1","number":"9685","bikes":"8","bike_racks":"15","free_racks":"9","terminal_type":"7inch","bike_numbers":"24606,24596,27716,27562,27484,25697,96163,29243","bike_types":{"4":8},"place_type":"0","rack_locks":"1"},{"uid":"2586024","lat":"52.236598","lng":"21.064774","name":"Mi\u0119dzynarodowa - Walecznych","spot":"1","number":"9686","bikes":"7","bike_racks":"15","free_racks":"6","terminal_type":"7inch","bike_numbers":"28717,28549,25124,25119,25118,28914,96428","bike_types":{"4":7},"place_type":"0","rack_locks":"1"},{"uid":"2586026","lat":"52.243020071904","lng":"21.102375984192","name":"Plac Szembeka","spot":"1","number":"9687","bikes":"0","bike_racks":"15","free_racks":"14","terminal_type":"7inch","place_type":"0","rack_locks":"1","bike_numbers":null,"bike_types":[]},{"uid":"2586028","lat":"52.237559","lng":"21.120087","name":"P\u0119tla Goc\u0142awek","spot":"1","number":"9688","bikes":"1","bike_racks":"16","free_racks":"15","terminal_type":"7inch","bike_numbers":"28632","bike_types":{"4":1},"place_type":"0","rack_locks":"1"},{"uid":"2586030","lat":"52.2258359","lng":"21.0600907","name":"Brukselska - PROM","spot":"1","number":"9689","bikes":"0","bike_racks":"15","free_racks":"14","terminal_type":"7inch","place_type":"0","rack_locks":"1","bike_numbers":null,"bike_types":[]},{"uid":"2586031","lat":"52.260205610017","lng":"21.046854257584","name":"al. Solidarno\u015bci - Szwedzka","spot":"1","number":"9690","bikes":"10","bike_racks":"18","free_racks":"7","terminal_type":"7inch","bike_numbers":"28629,28369,27560,27440,26956,26938,26754,26224,26214,25125","bike_types":{"4":10},"place_type":"0","rack_locks":"1"},{"uid":"2586032","lat":"52.230088","lng":"21.067948","name":"al. Stan\u00f3w Zjednoczonych - Mi\u0119dzynarodowa","spot":"1","number":"9691","bikes":"13","bike_racks":"26","free_racks":"14","terminal_type":"7inch","bike_numbers":"24665,24620,24457,28741,28100,27650,27262,25744,25419,29045,96555,96471,96376","bike_types":{"4":12,"51":1},"place_type":"0","rack_locks":"1"},{"uid":"2586034","lat":"52.23483","lng":"21.09975","name":"Ostrobramska - Zamieniecka","spot":"1","number":"9692","bikes":"13","bike_racks":"23","free_racks":"8","terminal_type":"7inch","bike_numbers":"24576,28465,28441,28105,27692,27422,26638,26277,26068,25296,25275,29003,29441","bike_types":{"4":13},"place_type":"0","rack_locks":"1"},{"uid":"2586037","lat":"52.2251969","lng":"21.0712892","name":"Afryka\u0144ska - Egipska","spot":"1","number":"9693","bikes":"11","bike_racks":"16","free_racks":"0","terminal_type":"7inch","bike_numbers":"24969,27640,27366,26740,26336,26187,26119,25639,96559,96479,29237","bike_types":{"4":11},"place_type":"0","rack_locks":"1"},{"uid":"2586039","lat":"52.22837","lng":"21.08581","name":"Abrahama - Kapelan\u00f3w AK","spot":"1","number":"9694","bikes":"4","bike_racks":"15","free_racks":"11","terminal_type":"7inch","bike_numbers":"24970,26654,29083,96496","bike_types":{"4":4},"place_type":"0","rack_locks":"1"},{"uid":"2586042","lat":"52.2296088","lng":"21.0945572","name":"Fieldorfa - Bukowskiego","spot":"1","number":"9695","bikes":"6","bike_racks":"20","free_racks":"16","terminal_type":"7inch","bike_numbers":"28290,26709,26605,25095,28838,96375","bike_types":{"4":6},"place_type":"0","rack_locks":"1"},{"uid":"2586044","lat":"52.22974","lng":"21.10624","name":"Rechniewskiego - Nowaka-Jeziora\u0144skiego","spot":"1","number":"9696","bikes":"14","bike_racks":"30","free_racks":"15","terminal_type":"7inch","bike_numbers":"24669,28418,28032,27815,27693,27249,27193,26852,26759,26440,26203,25217,25156,96155","bike_types":{"4":14},"place_type":"0","rack_locks":"1"},{"uid":"2586045","lat":"52.2223071","lng":"21.0907259","name":"Meissnera - Fieldorfa","spot":"1","number":"9697","bikes":"7","bike_racks":"15","free_racks":"7","terminal_type":"7inch","bike_numbers":"24633,24517,28517,28094,27394,26508,29206","bike_types":{"4":7},"place_type":"0","rack_locks":"1"},{"uid":"2586268","lat":"52.23938046828","lng":"21.016716957092","name":"Krakowskie Przedmie\u015bcie - Traugutta 2","spot":"1","number":"94931","bikes":"2","bike_racks":"24","free_racks":"21","terminal_type":"7inch","bike_numbers":"29421,29656","bike_types":{"4":2},"place_type":"0","rack_locks":"1"},{"uid":"2586270","lat":"52.241814568386","lng":"21.024039387703","name":"Lipowa - Dobra 2","spot":"1","number":"94961","bikes":"17","bike_racks":"19","free_racks":"1","terminal_type":"7inch","bike_numbers":"24746,28662,28611,28458,28132,27584,27547,26993,26749,26745,26630,25474,25056,29338,96033,96417,29276","bike_types":{"4":17},"place_type":"0","rack_locks":"1"},{"uid":"2586272","lat":"52.219916006513","lng":"21.011733412743","name":"Plac Politechniki 2","spot":"1","number":"95381","bikes":"13","bike_racks":"27","free_racks":"13","terminal_type":"7inch","bike_numbers":"24542,28658,28253,27488,27460,27241,27082,26981,26627,26597,26560,26451,96509","bike_types":{"4":13},"place_type":"0","rack_locks":"1"},{"uid":"2675985","lat":"52.21759","lng":"21.0096855","name":"Kaczy\u0144skiego - Rektorska","spot":"1","number":"9587","bikes":"13","bike_racks":"19","free_racks":"5","terminal_type":"7inch","bike_numbers":"24553,28757,28621,26853,26528,25960,25945,25771,25674,25493,25044,96458,29204","bike_types":{"4":13},"place_type":"0","rack_locks":"1"},{"uid":"2676298","lat":"52.255871","lng":"21.010043","name":"Veturilko - Sanguszki - Wybrze\u017ce Gda\u0144skie","spot":"1","number":"9716","bikes":"9","bike_racks":"14","free_racks":"5","terminal_type":"7inch","bike_numbers":"24377,24372,24367,24358,24351,24264,24395,24292,24282","bike_types":{"35":6,"34":3},"place_type":"11","rack_locks":"1"},{"uid":"2685255","lat":"52.278754","lng":"20.991692","name":"Veturilko - K\u0119pa Potocka","spot":"1","number":"9711","bikes":"4","bike_racks":"14","free_racks":"11","terminal_type":"7inch","bike_numbers":"24354,24280,24253,24290","bike_types":{"35":1,"34":3},"place_type":"11","rack_locks":"1"},{"uid":"2685262","lat":"52.2918548","lng":"21.0354469","name":"Veturilko - Park Br\u00f3dnowski","spot":"1","number":"9712","bikes":"10","bike_racks":"14","free_racks":"5","terminal_type":"7inch","bike_numbers":"24359,24355,24275,24268,24257,24389,24388,24386,24382,24283","bike_types":{"35":6,"34":4},"place_type":"11","rack_locks":"1"},{"uid":"2685263","lat":"52.252572","lng":"21.02896","name":"Veturilko - Park Praski","spot":"1","number":"9713","bikes":"9","bike_racks":"14","free_racks":"4","terminal_type":"7inch","bike_numbers":"24378,24369,24258,24390,24381,24396,24296,24295,24285","bike_types":{"35":5,"34":4},"place_type":"11","rack_locks":"1"},{"uid":"2685269","lat":"52.210565168555","lng":"20.998365283012","name":"Veturilko - Pole Mokotowskie","spot":"1","number":"9714","bikes":"5","bike_racks":"14","free_racks":"8","terminal_type":"7inch","bike_numbers":"24371,24281,24400,24391,24293","bike_types":{"35":3,"34":2},"place_type":"11","rack_locks":"1"},{"uid":"2685274","lat":"52.238451","lng":"21.05085","name":"Veturilko - Rondo Waszyngtona - Stadion Narodowy","spot":"1","number":"9715","bikes":"6","bike_racks":"14","free_racks":"6","terminal_type":"7inch","bike_numbers":"24272,24252,24392,24299,24298,24286","bike_types":{"34":5,"35":1},"place_type":"11","rack_locks":"1"},{"uid":"3110680","lat":"52.250032","lng":"21.089511","name":"Szaser\u00f3w - Park J. Poli\u0144skiego","spot":"1","number":"9698","bikes":"10","bike_racks":"23","free_racks":"13","terminal_type":"7inch","bike_numbers":"28738,28697,28521,27224,27194,27005,26478,26361,26178,96166","bike_types":{"4":10},"place_type":"0","rack_locks":"1"},{"uid":"3318614","lat":"52.237633","lng":"21.025561","name":"E-bike - Topiel \u2013 Tamka","spot":"1","number":"9701","bikes":"2","bike_racks":"15","free_racks":"12","terminal_type":"7inch","bike_numbers":"24149,24134","bike_types":{"37":2},"place_type":"14","rack_locks":"1"},{"uid":"3318682","lat":"52.245675","lng":"21.01749","name":"E-bike - Sowia","spot":"1","number":"9702","bikes":"16","bike_racks":"15","free_racks":"14","terminal_type":"7inch","bike_numbers":"24192,24178,24175,24174,24172,24171,24161,24155,24145,24141,24132,24129,24124,24104,24207,24206","bike_types":{"37":16},"place_type":"14","rack_locks":"1"},{"uid":"3318688","lat":"52.242285","lng":"21.027105","name":"E-bike - Centrum Nauki Kopernik","spot":"1","number":"9703","bikes":"5","bike_racks":"15","free_racks":"0","terminal_type":"7inch","bike_numbers":"24135,24128,24125,24111,24202","bike_types":{"37":5},"place_type":"14","rack_locks":"1"},{"uid":"3318697","lat":"52.234516","lng":"21.038723","name":"E-bike - Wio\u015blarska - Ludna","spot":"1","number":"9704","bikes":"0","bike_racks":"15","free_racks":"15","terminal_type":"7inch","place_type":"14","rack_locks":"1","bike_numbers":null,"bike_types":[]},{"uid":"3318701","lat":"52.227975","lng":"21.023372","name":"E-bike - Plac Trzech Krzy\u017cy","spot":"1","number":"9705","bikes":"6","bike_racks":"15","free_racks":"8","terminal_type":"7inch","bike_numbers":"24180,24164,24163,24157,24142,24121","bike_types":{"37":6},"place_type":"14","rack_locks":"1"},{"uid":"3318711","lat":"52.239358","lng":"21.0166946","name":"E-bike - Krakowskie Przedmie\u015bcie \u2013 Traugutta","spot":"1","number":"9706","bikes":"11","bike_racks":"15","free_racks":"2","terminal_type":"7inch","bike_numbers":"24193,24189,24187,24183,24181,24168,24167,24166,24147,24143,24112","bike_types":{"37":11},"place_type":"14","rack_locks":"1"},{"uid":"3318717","lat":"52.236743","lng":"21.016936","name":"E-bike - Metro Nowy \u015awiat-Uniwersytet","spot":"1","number":"9707","bikes":"2","bike_racks":"15","free_racks":"9","terminal_type":"7inch","bike_numbers":"24169,24159","bike_types":{"37":2},"place_type":"14","rack_locks":"1"},{"uid":"3318732","lat":"52.244943","lng":"21.022863","name":"E-bike - Karowa \u2013 Wybrze\u017ce Ko\u015bciuszkowskie","spot":"1","number":"9709","bikes":"2","bike_racks":"15","free_racks":"11","terminal_type":"7inch","bike_numbers":"24113,24201","bike_types":{"37":2},"place_type":"14","rack_locks":"1"},{"uid":"3318744","lat":"52.2419867","lng":"21.0159713","name":"E-bike - Karowa \u2013 Krakowskie Przedmie\u015bcie","spot":"1","number":"9710","bikes":"14","bike_racks":"15","free_racks":"1","terminal_type":"7inch","bike_numbers":"24198,24196,24190,24186,24185,24152,24150,24133,24130,24122,24119,24115,24114,24102","bike_types":{"37":14},"place_type":"14","rack_locks":"1"},{"uid":"3454384","lat":"52.238746463476","lng":"21.050845384598","name":"Rondo Waszyngtona - Stadion Narodowy 1","spot":"1","number":"96821","bikes":"40","bike_racks":"18","free_racks":"0","terminal_type":"7inch","bike_numbers":"24937,24779,24735,24671,24640,24636,24622,24495,25005,28902,28764,28720,28502,28195,27764,27481,27367,26930,26910,26519,26446,26435,26132,25862,25796,25611,25539,25438,25159,28900,96021,96564,96426,96383,96334,96320,96269,96117,29263,96581","bike_types":{"4":39,"51":1},"place_type":"0","rack_locks":"1"},{"uid":"3470029","lat":"52.279928","lng":"20.973395","name":"Klaudyny - Rudzka","spot":"1","number":"9699","bikes":"3","bike_racks":"16","free_racks":"14","terminal_type":"7inch","bike_numbers":"24469,28308,27771","bike_types":{"51":1,"4":2},"place_type":"0","rack_locks":"1"},{"uid":"3559966","lat":"52.162382933222","lng":"21.038410663605","name":"Jastrz\u0119bowskiego - SGGW 1","spot":"1","number":"96051","bikes":"11","bike_racks":"30","free_racks":"19","terminal_type":"7inch","bike_numbers":"28817,27713,27178,27135,27103,26180,25643,25377,25223,25160,25104","bike_types":{"4":11},