[{"region_info":{"lat":"52.2345","lng":"21.0024","zoom":"11","name":"VETURILO Poland","hotline":"+4819115","domain":"vp","language":"pl","email":"info@nextbike.pl","timezone":"Europe\/Warsaw","currency":"PLN","country_calling_code":"+48","system_operator_address":"Nextbike Polska S.A. ul. Przasnyska 6B, 01-756 Warszawa","country":"PL","country_name":"Poland","terms":"http:\/\/www.veturilo.waw.pl\/terms\/?v=201701","policy":"","website":"http:\/\/www.veturilo.waw.pl\/","show_free_racks":"1","booked_bikes":"0","set_point_bikes":"5283","available_bikes":"4779"},"places_summary":{"lngMin":20.8689688,"lngMax":21.120087,"latMin":52.117285,"latMax":52.3485329,"lngAvg":21.008115554417,"latAvg":52.230678642807},"places":[{"uid":"2585259","lat":"52.296298","lng":"20.9583575","name":"Dewajtis - UKSW","spot":"1","number":"9402","bikes":"7","bike_racks":"30","free_racks":"25","terminal_type":"7inch","bike_numbers":"28478,28401,27217,26338,26242,29026,29428","bike_types":{"4":7},"place_type":"0","rack_locks":"1"},{"uid":"2585263","lat":"52.2909738","lng":"20.9295559","name":"Metro M\u0142ociny","spot":"1","number":"9403","bikes":"12","bike_racks":"30","free_racks":"18","terminal_type":"7inch","bike_numbers":"28395,28072,27858,27612,27401,27098,26786,26225,25400,28934,28871,28966","bike_types":{"4":12},"place_type":"0","rack_locks":"1"},{"uid":"2585265","lat":"52.2901732","lng":"20.9503698","name":"Marymoncka - Dewajtis","spot":"1","number":"9404","bikes":"43","bike_racks":"30","free_racks":"0","terminal_type":"7inch","bike_numbers":"24907,24846,24724,24708,24513,24509,24021,24004,28707,28645,28601,28568,28473,28370,28065,27537,27445,27350,27273,27110,26895,26649,26632,26598,26547,26539,26278,25987,25848,25734,25544,25460,28958,29128,28911,28976,96002,96374,96306,96181,96172,29188,29161","bike_types":{"4":40,"26":2,"0":1},"place_type":"0","rack_locks":"1"},{"uid":"2585267","lat":"52.285914","lng":"20.940561","name":"Metro Wawrzyszew","spot":"1","number":"9405","bikes":"8","bike_racks":"20","free_racks":"11","terminal_type":"7inch","bike_numbers":"24690,27771,27671,27231,26181,25864,28935,96219","bike_types":{"4":8},"place_type":"0","rack_locks":"1"},{"uid":"2585269","lat":"52.2336142","lng":"21.0146353","name":"G\u00f3rskiego - Szpitalna","spot":"1","number":"9406","bikes":"15","bike_racks":"16","free_racks":"3","terminal_type":"7inch","bike_numbers":"24482,28459,28058,27950,27144,26970,26571,26383,26128,25955,25794,25270,25060,96478,96469","bike_types":{"51":1,"4":14},"place_type":"0","rack_locks":"1"},{"uid":"2585271","lat":"52.2816265","lng":"20.9498871","name":"Metro Stare Bielany","spot":"1","number":"9407","bikes":"12","bike_racks":"30","free_racks":"17","terminal_type":"7inch","bike_numbers":"24824,28073,27769,27190,27123,27092,26828,25700,29434,96513,96412,96591","bike_types":{"4":12},"place_type":"0","rack_locks":"1"},{"uid":"2585272","lat":"52.2361217","lng":"21.0219096","name":"Ordynacka - Uniwersytet Muzyczny","spot":"1","number":"9408","bikes":"20","bike_racks":"20","free_racks":"0","terminal_type":"7inch","bike_numbers":"25006,28484,27740,27661,27459,26528,26123,25924,25691,25499,25308,25144,29063,29030,29138,28972,96543,96394,96376,96271","bike_types":{"4":19,"0":1},"place_type":"0","rack_locks":"1"},{"uid":"2585273","lat":"52.2768774","lng":"20.9481302","name":"Bielany-Ratusz","spot":"1","number":"9409","bikes":"18","bike_racks":"28","free_racks":"10","terminal_type":"7inch","bike_numbers":"24992,27990,27966,27876,27869,27801,27486,27348,27038,26968,26929,25364,25358,96047,96505,96268,96263,29154","bike_types":{"4":18},"place_type":"0","rack_locks":"1"},{"uid":"2585275","lat":"52.2761569","lng":"20.9616673","name":"Metro S\u0142odowiec","spot":"1","number":"9410","bikes":"11","bike_racks":"30","free_racks":"19","terminal_type":"7inch","bike_numbers":"28763,28680,28615,28376,28142,27509,26475,26363,96458,96448,96288","bike_types":{"4":11},"place_type":"0","rack_locks":"1"},{"uid":"2585278","lat":"52.2777751","lng":"20.9856999","name":"Potocka - OSiR \u017boliborz","spot":"1","number":"9411","bikes":"16","bike_racks":"15","free_racks":"2","terminal_type":"7inch","bike_numbers":"24660,28882,28737,27640,27223,26427,26266,26211,26177,25514,25422,25253,25109,25092,28880,28962","bike_types":{"4":16},"place_type":"0","rack_locks":"1"},{"uid":"2585280","lat":"52.273527782989","lng":"20.994186401367","name":"Gwia\u017adzista - Promyka","spot":"1","number":"9412","bikes":"6","bike_racks":"16","free_racks":"10","terminal_type":"7inch","bike_numbers":"27235,26030,25554,25309,29551,28915","bike_types":{"4":6},"place_type":"0","rack_locks":"1"},{"uid":"2585281","lat":"52.270941","lng":"20.9326269","name":"al. Reymonta - Conrada","spot":"1","number":"9413","bikes":"20","bike_racks":"30","free_racks":"11","terminal_type":"7inch","bike_numbers":"24930,28577,28138,27955,27638,27396,27132,27119,26774,26513,26294,25872,25727,25614,25271,25142,25034,96200,96153,29162","bike_types":{"4":20},"place_type":"0","rack_locks":"1"},{"uid":"2585283","lat":"52.2706441","lng":"20.9504181","name":"Broniewskiego - Perzy\u0144skiego","spot":"1","number":"9414","bikes":"18","bike_racks":"16","free_racks":"0","terminal_type":"7inch","bike_numbers":"24854,24530,28373,28013,27615,27531,27480,27191,27125,26672,26135,25897,25646,25570,29057,96026,96568,29148","bike_types":{"4":18},"place_type":"0","rack_locks":"1"},{"uid":"2585284","lat":"52.2714203","lng":"20.9727099","name":"Metro Marymont","spot":"1","number":"9415","bikes":"18","bike_racks":"30","free_racks":"13","terminal_type":"7inch","bike_numbers":"24040,28634,28155,28031,27924,27844,27685,27573,27143,26893,26466,25869,25477,25380,25036,29125,28838,96160","bike_types":{"26":1,"4":16,"0":1},"place_type":"0","rack_locks":"1"},{"uid":"2585285","lat":"52.2694081","lng":"20.9833664","name":"Metro Plac Wilsona","spot":"1","number":"9416","bikes":"16","bike_racks":"21","free_racks":"3","terminal_type":"7inch","bike_numbers":"28416,28294,28211,27768,27707,27253,27016,26565,26423,26267,25882,25605,25586,96434,96390,96383","bike_types":{"4":16},"place_type":"0","rack_locks":"1"},{"uid":"2585286","lat":"52.2668623","lng":"20.9637032","name":"Broniewskiego - W\u0142o\u015bcia\u0144ska","spot":"1","number":"9417","bikes":"16","bike_racks":"19","free_racks":"5","terminal_type":"7inch","bike_numbers":"24715,24590,25004,28676,28375,27949,27390,27059,26197,25660,25540,25439,25213,25134,96307,96262","bike_types":{"4":16},"place_type":"0","rack_locks":"1"},{"uid":"2585288","lat":"52.2643984","lng":"20.9723179","name":"Broniewskiego - Krasi\u0144skiego","spot":"1","number":"9418","bikes":"8","bike_racks":"16","free_racks":"8","maintenance":"1","terminal_type":"7inch","bike_numbers":"27998,27711,27379,26465,26457,25968,25659,29036","bike_types":{"4":8},"place_type":"0","rack_locks":"1"},{"uid":"2585289","lat":"52.267875","lng":"21.0020667","name":"Wybrze\u017ce Gdy\u0144skie - KS Sp\u00f3jnia","spot":"1","number":"9419","bikes":"14","bike_racks":"15","free_racks":"1","terminal_type":"7inch","bike_numbers":"24966,24776,28874,28573,28079,27807,27686,26912,26798,26607,26488,26285,26000,25721","bike_types":{"4":14},"place_type":"0","rack_locks":"1"},{"uid":"2585291","lat":"52.2624054","lng":"20.9802551","name":"Plac Grunwaldzki","spot":"1","number":"9420","bikes":"19","bike_racks":"30","free_racks":"11","terminal_type":"7inch","bike_numbers":"24870,24643,24019,28710,28411,26951,26946,26887,26728,25407,25239,29352,29065,29446,28852,29155,29257,29248,24050","bike_types":{"4":17,"26":2},"place_type":"0","rack_locks":"1"},{"uid":"2585296","lat":"52.2612575","lng":"20.9863191","name":"Zaj\u0105czka - Bitwy Pod Rokitn\u0105","spot":"1","number":"9421","bikes":"16","bike_racks":"15","free_racks":"1","terminal_type":"7inch","bike_numbers":"24976,24688,24015,28743,28021,27465,27069,26833,25819,25390,25341,25224,25105,29014,96340,96094","bike_types":{"4":15,"26":1},"place_type":"0","rack_locks":"1"},{"uid":"2585297","lat":"52.2645018","lng":"20.9895998","name":"Plac Inwalid\u00f3w","spot":"1","number":"9422","bikes":"10","bike_racks":"15","free_racks":"6","terminal_type":"7inch","bike_numbers":"27074,26800,26270,25106,25085,25018,28959,96042,96538,96578","bike_types":{"4":10},"place_type":"0","rack_locks":"1"},{"uid":"2585299","lat":"52.258245356688","lng":"20.898613929749","name":"P\u0119tla Stare Bemowo","spot":"1","number":"9423","bikes":"5","bike_racks":"21","free_racks":"16","terminal_type":"7inch","bike_numbers":"24926,28760,27149,25171,96035","bike_types":{"4":5},"place_type":"0","rack_locks":"1"},{"uid":"2585301","lat":"52.260895125763","lng":"20.923923254013","name":"P\u0119tla Nowe Bemowo","spot":"1","number":"9424","bikes":"20","bike_racks":"25","free_racks":"7","terminal_type":"7inch","bike_numbers":"24935,24790,24453,28820,28584,28514,28282,28194,28147,28130,27503,27250,27022,26477,26290,25220,96008,96314,96233,96110","bike_types":{"4":19,"51":1},"place_type":"0","rack_locks":"1"},{"uid":"2585304","lat":"52.2575903","lng":"20.9323374","name":"Obro\u0144c\u00f3w Tobruku - Pieni\u0105\u017cka","spot":"1","number":"9425","bikes":"14","bike_racks":"22","free_racks":"8","terminal_type":"7inch","bike_numbers":"24865,28363,28285,27361,26851,26758,26445,26210,26198,25461,25397,25135,96436,96211","bike_types":{"4":14},"place_type":"0","rack_locks":"1"},{"uid":"2585305","lat":"52.2593225","lng":"20.9605511","name":"Pow\u0105zkowska - Krasi\u0144skiego","spot":"1","number":"9426","bikes":"19","bike_racks":"23","free_racks":"4","terminal_type":"7inch","bike_numbers":"24536,28876,28660,28638,28633,28358,28350,28210,28145,27651,27639,26977,26354,26147,26083,25230,29448,96031,96142","bike_types":{"4":19},"place_type":"0","rack_locks":"1"},{"uid":"2585306","lat":"52.2563145","lng":"20.9682307","name":"Pow\u0105zkowska - Plac Niemena","spot":"1","number":"9427","bikes":"9","bike_racks":"16","free_racks":"7","terminal_type":"7inch","bike_numbers":"24043,24042,27305,26926,25668,25447,25081,96518,96175","bike_types":{"26":2,"4":7},"place_type":"0","rack_locks":"1"},{"uid":"2585307","lat":"52.258524460024","lng":"20.970931649208","name":"Przasnyska - Rydygiera","spot":"1","number":"9428","bikes":"16","bike_racks":"15","free_racks":"0","terminal_type":"7inch","bike_numbers":"24804,24026,28885,27715,27440,26940,26939,26608,26563,26148,25838,25235,29034,96535,96293,29262","bike_types":{"4":15,"26":1},"place_type":"0","rack_locks":"1"},{"uid":"2585308","lat":"52.253594","lng":"20.9798744","name":"Pow\u0105zkowska - Burakowska","spot":"1","number":"9429","bikes":"2","bike_racks":"20","free_racks":"19","terminal_type":"7inch","bike_numbers":"25000,28840","bike_types":{"4":2},"place_type":"0","rack_locks":"1"},{"uid":"2585311","lat":"52.2576018","lng":"20.9944975","name":"Metro Dworzec Gda\u0144ski","spot":"1","number":"9430","bikes":"11","bike_racks":"30","free_racks":"17","terminal_type":"7inch","bike_numbers":"24843,24036,28641,27543,27257,27175,26533,25615,96228,96166,96582","bike_types":{"4":10,"54":1},"place_type":"0","rack_locks":"1"},{"uid":"2585315","lat":"52.2465952","lng":"20.9429216","name":"Obozowa - Cio\u0142ka","spot":"1","number":"9432","bikes":"8","bike_racks":"13","free_racks":"5","terminal_type":"7inch","bike_numbers":"24777,24028,28413,27600,25414,25152,28980,24052","bike_types":{"4":6,"26":2},"place_type":"0","rack_locks":"1"},{"uid":"2585317","lat":"52.227621983552","lng":"20.956758856773","name":"al. Prymasa Tysi\u0105clecia - Kasprzaka","spot":"1","number":"9433","bikes":"17","bike_racks":"23","free_racks":"6","terminal_type":"7inch","bike_numbers":"24769,24713,24576,28261,27774,27678,27259,26611,26253,26226,25969,25372,25354,29343,96506,96423,96421","bike_types":{"4":17},"place_type":"0","rack_locks":"1"},{"uid":"2585319","lat":"52.246037","lng":"20.962463","name":"Obozowa - Radziwie","spot":"1","number":"9434","bikes":"9","bike_racks":"13","free_racks":"4","terminal_type":"7inch","bike_numbers":"24755,24716,28564,28104,25395,25214,29007,96362,96150","bike_types":{"4":9},"place_type":"0","rack_locks":"1"},{"uid":"2585321","lat":"52.2514708","lng":"20.9857053","name":"al. Jana Paw\u0142a II - Stawki","spot":"1","number":"9435","bikes":"13","bike_racks":"23","free_racks":"11","terminal_type":"7inch","bike_numbers":"24633,24600,28489,27753,27520,27518,26767,25997,25783,96497,96251,96223,29195","bike_types":{"4":13},"place_type":"0","rack_locks":"1"},{"uid":"2585323","lat":"52.2535305","lng":"20.9924922","name":"Stawki - Dubois","spot":"1","number":"9436","bikes":"5","bike_racks":"13","free_racks":"10","terminal_type":"7inch","bike_numbers":"28755,27309,26435,26158,29113","bike_types":{"4":5},"place_type":"0","rack_locks":"1"},{"uid":"2585326","lat":"52.2541702","lng":"20.9980649","name":"Andersa - Muranowska","spot":"1","number":"9437","bikes":"21","bike_racks":"30","free_racks":"9","terminal_type":"7inch","bike_numbers":"24958,24805,28507,28425,28348,27656,26889,26636,26549,26369,26362,25952,25644,25527,25518,29101,63619,63608,96380,96346,96108","bike_types":{"4":21},"place_type":"0","rack_locks":"1"},{"uid":"2585327","lat":"52.255877","lng":"21.0099819","name":"Sanguszki - Wybrze\u017ce Gda\u0144skie","spot":"1","number":"9438","bikes":"22","bike_racks":"28","free_racks":"6","terminal_type":"7inch","bike_numbers":"24486,28715,28602,28472,28387,28367,28262,27619,27239,26982,26740,26686,26492,26015,25580,25481,25388,28941,29449,96392,96084,29274","bike_types":{"51":1,"4":21},"place_type":"0","rack_locks":"1"},{"uid":"2585330","lat":"52.24418","lng":"20.97794","name":"Okopowa - Anielewicza","spot":"1","number":"9440","bikes":"8","bike_racks":"20","free_racks":"12","terminal_type":"7inch","bike_numbers":"28750,28677,28562,28046,27672,26286,25485,25178","bike_types":{"4":8},"place_type":"0","rack_locks":"1"},{"uid":"2585333","lat":"52.2486","lng":"20.98352","name":"Smocza - Mi\u0142a","spot":"1","number":"9441","bikes":"13","bike_racks":"15","free_racks":"2","terminal_type":"7inch","bike_numbers":"28674,28405,27675,26678,26279,26159,25714,25687,25676,25145,28939,96023,96129","bike_types":{"4":13},"place_type":"0","rack_locks":"1"},{"uid":"2585334","lat":"52.24616","lng":"20.98538","name":"Smocza - Anielewicza","spot":"1","number":"9442","bikes":"19","bike_racks":"17","free_racks":"0","terminal_type":"7inch","bike_numbers":"24549,28610,28504,28030,27900,27550,27529,27166,26864,26820,26502,26330,26239,26196,25601,25337,29444,96273,96165","bike_types":{"4":19},"place_type":"0","rack_locks":"1"},{"uid":"2585335","lat":"52.247226","lng":"20.9893155","name":"al. Jana Paw\u0142a II - Anielewicza","spot":"1","number":"9443","bikes":"22","bike_racks":"22","free_racks":"0","terminal_type":"7inch","bike_numbers":"24770,24700,24615,28668,28557,28278,27333,27045,26985,26901,26526,26422,26346,26308,26193,26101,25678,25494,25244,29042,96553,96482","bike_types":{"4":22},"place_type":"0","rack_locks":"1"},{"uid":"2585337","lat":"52.249052","lng":"20.9948923","name":"Anielewicza - Zamenhofa","spot":"1","number":"9444","bikes":"12","bike_racks":"15","free_racks":"3","terminal_type":"7inch","bike_numbers":"24862,24798,24044,24030,27735,26680,26220,26089,26055,25223,96242,96111","bike_types":{"4":10,"26":2,"16":1},"place_type":"0","rack_locks":"1"},{"uid":"2585338","lat":"52.2492196","lng":"20.9971878","name":"Anielewicza - Andersa","spot":"1","number":"9445","bikes":"12","bike_racks":"20","free_racks":"8","terminal_type":"7inch","bike_numbers":"24601,24523,25005,28678,27875,26108,25753,25690,25651,25330,29426,96585","bike_types":{"4":12},"place_type":"0","rack_locks":"1"},{"uid":"2585340","lat":"52.251549","lng":"21.002749","name":"Bonifraterska - Franciszka\u0144ska","spot":"1","number":"9446","bikes":"14","bike_racks":"18","free_racks":"2","terminal_type":"7inch","bike_numbers":"24855,24775,24671,24610,28575,28352,27962,27720,27046,26454,26061,25147,25040,29345","bike_types":{"4":14},"place_type":"0","rack_locks":"1"},{"uid":"2585342","lat":"52.2541119","lng":"21.0093342","name":"Ko\u015bcielna - Piesza","spot":"1","number":"9448","bikes":"21","bike_racks":"26","free_racks":"6","terminal_type":"7inch","bike_numbers":"24548,28553,28267,28080,27716,27470,27380,27216,26622,26618,26463,26421,25789,25755,25464,29103,29073,29129,96033,96456,96152","bike_types":{"4":20,"0":1},"place_type":"0","rack_locks":"1"},{"uid":"2585344","lat":"52.2392622","lng":"20.8987641","name":"P\u0119tla Os. G\u00f3rczewska","spot":"1","number":"9449","bikes":"7","bike_racks":"15","free_racks":"8","terminal_type":"7inch","bike_numbers":"28703,28640,27706,27683,25661,25420,25304","bike_types":{"4":7},"place_type":"0","rack_locks":"1"},{"uid":"2585345","lat":"52.2389287","lng":"20.9139535","name":"Bemowo-Ratusz","spot":"1","number":"9450","bikes":"29","bike_racks":"20","free_racks":"0","terminal_type":"7inch","bike_numbers":"24953,24675,24654,24586,24485,28429,28333,28329,28017,28016,27989,27988,27874,27752,27436,27189,26614,26403,25801,25736,25694,25640,25566,25520,25165,25047,29639,28810,96269","bike_types":{"4":28,"51":1},"place_type":"0","rack_locks":"1"},{"uid":"2585346","lat":"52.2387861","lng":"20.9424946","name":"Okocimska - Olbrachta","spot":"1","number":"9451","bikes":"13","bike_racks":"18","free_racks":"5","terminal_type":"7inch","bike_numbers":"24835,24813,28708,27439,27182,26906,26407,26102,25992,25858,25782,25240,29086","bike_types":{"4":13},"place_type":"0","rack_locks":"1"},{"uid":"2585349","lat":"52.2506241","lng":"21.0533611","name":"Dworzec Wschodni - Lubelska","spot":"1","number":"9452","bikes":"14","bike_racks":"15","free_racks":"1","terminal_type":"7inch","bike_numbers":"24729,28741,28390,27886,27646,27451,26913,26745,26562,26248,26132,25119,25099,28853","bike_types":{"4":14},"place_type":"0","rack_locks":"1"},{"uid":"2585351","lat":"52.2369249","lng":"20.9723559","name":"Leszno - M\u0142ynarska","spot":"1","number":"9453","bikes":"28","bike_racks":"30","free_racks":"0","terminal_type":"7inch","bike_numbers":"24998,24834,28424,28316,28300,28158,27979,27592,27511,27168,27151,27062,27047,26948,26531,26296,25802,25778,25606,25409,25306,29117,28956,28921,29456,29157,29211,29277","bike_types":{"4":29},"place_type":"0","rack_locks":"1"},{"uid":"2585352","lat":"52.2430451","lng":"20.9803864","name":"Dzielna - Bellottiego","spot":"1","number":"9454","bikes":"7","bike_racks":"13","free_racks":"5","terminal_type":"7inch","bike_numbers":"24635,24001,26679,26482,25805,25202,25627","bike_types":{"4":6,"26":1},"place_type":"0","rack_locks":"1"},{"uid":"2585353","lat":"52.24108","lng":"20.98316","name":"Wolno\u015b\u0107 - Bellottiego","spot":"1","number":"9455","bikes":"12","bike_racks":"16","free_racks":"4","terminal_type":"7inch","bike_numbers":"24706,27896,27624,27302,26183,26163,26067,25741,25305,25168,96574,96583","bike_types":{"4":12},"place_type":"0","rack_locks":"1"},{"uid":"2585354","lat":"52.2435448","lng":"20.9873507","name":"Smocza - Nowolipki","spot":"1","number":"9456","bikes":"14","bike_racks":"16","free_racks":"2","terminal_type":"7inch","bike_numbers":"24968,28076,27983,27616,26796,26750,26412,26283,26192,25035,96522,96398,96264,29256","bike_types":{"4":14},"place_type":"0","rack_locks":"1"},{"uid":"2585356","lat":"52.2445767","lng":"20.99177","name":"al. Jana Paw\u0142a II - Nowolipki","spot":"1","number":"9457","bikes":"15","bike_racks":"16","free_racks":"0","terminal_type":"7inch","bike_numbers":"24995,28511,27918,27701,27561,26544,26367,25735,29104,28811,28993,96009,96299,96113,29261","bike_types":{"4":17},"place_type":"0","rack_locks":"1"},{"uid":"2585358","lat":"52.22868","lng":"20.91509","name":"Powsta\u0144c\u00f3w \u015al\u0105skich - Cz\u0142uchowska","spot":"1","number":"9458","bikes":"15","bike_racks":"16","free_racks":"1","terminal_type":"7inch","bike_numbers":"24875,24751,28772,28447,27965,27604,26755,26451,26381,26124,25078,29095,25624,28808,96123","bike_types":{"4":15},"place_type":"0","rack_locks":"1"},{"uid":"2585360","lat":"52.2342032","lng":"20.934689","name":"Jana Olbrachta - Antka Rozpylacza","spot":"1","number":"9459","bikes":"14","bike_racks":"13","free_racks":"0","terminal_type":"7inch","bike_numbers":"24698,24567,24006,27934,27912,27855,27811,27669,26258,25747,96485,96378,96236,96090","bike_types":{"4":13,"26":1},"place_type":"0","rack_locks":"1"},{"uid":"2585364","lat":"52.2401623","lng":"20.9877277","name":"Wola-Ratusz","spot":"1","number":"9460","bikes":"11","bike_racks":"15","free_racks":"4","terminal_type":"7inch","bike_numbers":"24599,24466,28050,26865,26810,26390,25555,25360,29027,29266,29230","bike_types":{"4":10,"51":1},"place_type":"0","rack_locks":"1"},{"uid":"2585368","lat":"52.2445326","lng":"20.99998","name":"Plac Bankowy - Kino Muran\u00f3w","spot":"1","number":"9462","bikes":"16","bike_racks":"17","free_racks":"1","terminal_type":"7inch","bike_numbers":"24975,24614,24596,24570,28533,28044,27679,27634,27072,26971,26764,25890,25833,25324,96029,96551","bike_types":{"4":15},"place_type":"0","rack_locks":"1"},{"uid":"2585369","lat":"52.2449465","lng":"21.0012943","name":"Andersa - D\u0142uga","spot":"1","number":"9463","bikes":"17","bike_racks":"30","free_racks":"13","terminal_type":"7inch","bike_numbers":"28764,28729,28019,27860,27109,26959,26749,26377,26088,25038,28916,29445,28827,28883,96462,96445,96442","bike_types":{"4":17},"place_type":"0","rack_locks":"1"},{"uid":"2585370","lat":"52.2442666","lng":"21.0015893","name":"Marsza\u0142kowska - al. Solidarno\u015bci","spot":"1","number":"9464","bikes":"17","bike_racks":"30","free_racks":"13","terminal_type":"7inch","bike_numbers":"24740,28665,28635,27681,27610,27018,26281,26157,26087,26073,25508,25491,25080,28954,28867,96547,96527","bike_types":{"4":17},"place_type":"0","rack_locks":"1"},{"uid":"2585371","lat":"52.2431975","lng":"21.0016603","name":"Plac Bankowy - Ratusz","spot":"1","number":"9465","bikes":"19","bike_racks":"30","free_racks":"11","terminal_type":"7inch","bike_numbers":"24741,24585,24490,28726,28589,28132,27903,27263,27152,27137,26486,25723,25444,25319,25294,25128,25124,96332,96143","bike_types":{"4":18,"51":1},"place_type":"0","rack_locks":"1"},{"uid":"2585373","lat":"52.2435719","lng":"21.0066801","name":"Senatorska - Biela\u0144ska","spot":"1","number":"9466","bikes":"13","bike_racks":"17","free_racks":"7","terminal_type":"7inch","bike_numbers":"28714,28135,28116,27499,27155,26888,26063,25291,29649,63615,96367,96300,29241","bike_types":{"4":13},"place_type":"0","rack_locks":"1"},{"uid":"2585377","lat":"52.246314509834","lng":"21.0113042593","name":"Miodowa","spot":"1","number":"9467","bikes":"16","bike_racks":"24","free_racks":"8","terminal_type":"7inch","bike_numbers":"24832,24623,28627,28576,27887,27780,25983,25189,25133,29031,29013,29432,28846,28835,96203,29264","bike_types":{"4":16},"place_type":"0","rack_locks":"1"},{"uid":"2585378","lat":"52.2435965","lng":"21.0140803","name":"Krakowskie Przedmie\u015bcie - Tr\u0119backa","spot":"1","number":"9468","bikes":"2","bike_racks":"14","free_racks":"13","terminal_type":"7inch","bike_numbers":"24795,27095","bike_types":{"4":2},"place_type":"0","rack_locks":"1"},{"uid":"2585379","lat":"52.2465625","lng":"21.0174345","name":"Mariensztat","spot":"1","number":"9469","bikes":"16","bike_racks":"15","free_racks":"0","terminal_type":"7inch","bike_numbers":"24514,24012,28694,27359,27260,27173,26616,25730,25698,25419,25320,25317,29033,28856,96060,96502","bike_types":{"4":15,"26":1},"place_type":"0","rack_locks":"1"},{"uid":"2585381","lat":"52.224934","lng":"20.945489","name":"Jana Kazimierza - Giz\u00f3w","spot":"1","number":"9471","bikes":"16","bike_racks":"13","free_racks":"0","terminal_type":"7inch","bike_numbers":"24971,24970,24820,28698,28060,27792,27723,26955,26586,26326,26043,25363,25195,25061,96128,29221","bike_types":{"4":16},"place_type":"0","rack_locks":"1"},{"uid":"2585385","lat":"52.23016","lng":"20.951558","name":"Wolska - Elekcyjna","spot":"1","number":"9472","bikes":"18","bike_racks":"20","free_racks":"2","terminal_type":"7inch","bike_numbers":"24999,24673,27433,27299,27262,26493,26246,26028,25947,25854,25775,25761,25597,25434,96319,96212,29207,29254","bike_types":{"4":18},"place_type":"0","rack_locks":"1"},{"uid":"2585387","lat":"52.237662392829","lng":"20.955492854118","name":"al. Prymasa Tysi\u0105clecia - G\u00f3rczewska","spot":"1","number":"9473","bikes":"14","bike_racks":"20","free_racks":"7","terminal_type":"7inch","bike_numbers":"24646,28360,27840,27789,27419,26762,26494,26449,25935,25671,25663,29028,25626,29239","bike_types":{"4":14},"place_type":"0","rack_locks":"1"},{"uid":"2585389","lat":"52.2333374","lng":"20.9652776","name":"Wolska - P\u0142ocka","spot":"1","number":"9474","bikes":"15","bike_racks":"15","free_racks":"3","terminal_type":"7inch","bike_numbers":"24986,24916,24458,27645,27539,27213,27211,27199,27170,26639,26588,25927,25456,25102,25077","bike_types":{"4":14,"51":1},"place_type":"0","rack_locks":"1"},{"uid":"2585391","lat":"52.228522296173","lng":"20.969638824463","name":"Kasprzaka - Skierniewicka","spot":"1","number":"9475","bikes":"17","bike_racks":"21","free_racks":"5","terminal_type":"7inch","bike_numbers":"24944,28479,28305,27784,27609,27296,27195,26826,26264,25934,25323,25303,29348,29048,28952,96004,96163","bike_types":{"4":17},"place_type":"0","rack_locks":"1"},{"uid":"2585394","lat":"52.22898","lng":"20.97843","name":"Kasprzaka - Karolkowa","spot":"1","number":"9476","bikes":"3","bike_racks":"15","free_racks":"12","terminal_type":"7inch","bike_numbers":"28259,26091,28894","bike_types":{"4":3},"place_type":"0","rack_locks":"1"},{"uid":"2585396","lat":"52.2328752","lng":"20.9805411","name":"Muzeum Powstania Warszawskiego","spot":"1","number":"9477","bikes":"2","bike_racks":"10","free_racks":"8","terminal_type":"7inch","bike_numbers":"27705,29180","bike_types":{"4":2},"place_type":"0","rack_locks":"1"},{"uid":"2585398","lat":"52.22983","lng":"20.983123","name":"Metro Rondo Daszy\u0144skiego","spot":"1","number":"9478","bikes":"12","bike_racks":"26","free_racks":"14","terminal_type":"7inch","bike_numbers":"24908,24877,24543,27676,27479,27055,27050,26633,26093,25023,29387,28875","bike_types":{"4":12},"place_type":"0","rack_locks":"1"},{"uid":"2585400","lat":"52.23145","lng":"20.98869","name":"Prosta - Wronia","spot":"1","number":"9479","bikes":"1","bike_racks":"15","free_racks":"14","terminal_type":"7inch","bike_numbers":"27183","bike_types":{"4":1},"place_type":"0","rack_locks":"1"},{"uid":"2585401","lat":"52.2373141","lng":"20.9888488","name":"\u017belazna - Ch\u0142odna","spot":"1","number":"9480","bikes":"7","bike_racks":"15","free_racks":"8","terminal_type":"7inch","bike_numbers":"24502,28374,27910,27883,25125,25021,96439","bike_types":{"4":7},"place_type":"0","rack_locks":"1"},{"uid":"2585402","lat":"52.2344946","lng":"20.9905117","name":"\u017belazna - Grzybowska","spot":"1","number":"9481","bikes":"11","bike_racks":"20","free_racks":"15","terminal_type":"7inch","bike_numbers":"28719,28288,27944,27802,27594,27099,25290,29023,29652,96171,96576","bike_types":{"4":11},"place_type":"0","rack_locks":"1"},{"uid":"2585405","lat":"52.238666","lng":"20.9957314","name":"al. Jana Paw\u0142a II - Plac Mirowski","spot":"1","number":"9482","bikes":"3","bike_racks":"16","free_racks":"13","terminal_type":"7inch","bike_numbers":"26840,26402,25792","bike_types":{"4":3},"place_type":"0","rack_locks":"1"},{"uid":"2585406","lat":"52.2357151","lng":"20.9966071","name":"al. Jana Paw\u0142a II - Grzybowska","spot":"1","number":"9483","bikes":"3","bike_racks":"23","free_racks":"21","terminal_type":"7inch","bike_numbers":"28636,28595,25019","bike_types":{"4":3},"place_type":"0","rack_locks":"1"},{"uid":"2585410","lat":"52.23958","lng":"21.00027","name":"Ptasia - Zimna","spot":"1","number":"9485","bikes":"5","bike_racks":"16","free_racks":"12","terminal_type":"7inch","bike_numbers":"28422,27922,27426,27376,96534","bike_types":{"4":5},"place_type":"0","rack_locks":"1"},{"uid":"2585412","lat":"52.2336314","lng":"21.0028795","name":"Emilii Plater - \u015awi\u0119tokrzyska","spot":"1","number":"9486","bikes":"6","bike_racks":"26","free_racks":"20","terminal_type":"7inch","bike_numbers":"28354,27383,27267,27097,25770,29213","bike_types":{"4":6},"place_type":"0","rack_locks":"1"},{"uid":"2585413","lat":"52.2358704","lng":"21.0037806","name":"Plac Grzybowski","spot":"1","number":"9487","bikes":"14","bike_racks":"26","free_racks":"13","terminal_type":"7inch","bike_numbers":"24951,24582,25002,28904,28146,28091,27331,27024,26789,26514,26240,29102,96490,96276","bike_types":{"4":14},"place_type":"0","rack_locks":"1"},{"uid":"2585416","lat":"52.2384853","lng":"21.0067552","name":"Marsza\u0142kowska - Kr\u00f3lewska","spot":"1","number":"9488","bikes":"16","bike_racks":"19","free_racks":"3","terminal_type":"7inch","bike_numbers":"28455,28310,28035,27782,27242,27188,27079,26933,26719,26698,26348,26012,25608,29367,29359,29132","bike_types":{"4":15,"0":1},"place_type":"0","rack_locks":"1"},{"uid":"2585417","lat":"52.2364206","lng":"21.0072407","name":"Marsza\u0142kowska - Zielna","spot":"1","number":"9489","bikes":"23","bike_racks":"30","free_racks":"5","terminal_type":"7inch","bike_numbers":"24952,24949,24806,24560,28532,28128,28093,27980,27929,27534,27056,26742,25831,25469,25432,25351,25031,29121,28857,96053,96573,96554,96260","bike_types":{"4":22,"0":1},"place_type":"0","rack_locks":"1"},{"uid":"2585420","lat":"52.2397008","lng":"21.0119292","name":"Plac Ma\u0142achowskiego","spot":"1","number":"9491","bikes":"5","bike_racks":"16","free_racks":"11","terminal_type":"7inch","bike_numbers":"24546,28012,27580,26138,96451","bike_types":{"4":5},"place_type":"0","rack_locks":"1"},{"uid":"2585422","lat":"52.2359114","lng":"21.0135654","name":"Plac Powsta\u0144c\u00f3w Warszawy","spot":"1","number":"9492","bikes":"2","bike_racks":"20","free_racks":"18","terminal_type":"7inch","bike_numbers":"26379,25837","bike_types":{"4":2},"place_type":"0","rack_locks":"1"},{"uid":"2585423","lat":"52.2393559","lng":"21.016603","name":"Krakowskie Przedmie\u015bcie - Traugutta","spot":"1","number":"9493","bikes":"14","bike_racks":"24","free_racks":"10","terminal_type":"7inch","bike_numbers":"24788,28675,27186,26984,26664,26140,25946,25886,25478,25401,28919,29644,96515,96081","bike_types":{"4":14},"place_type":"0","rack_locks":"1"},{"uid":"2585429","lat":"52.238298","lng":"21.0184014","name":"Obo\u017ana - Kopernika","spot":"1","number":"9495","bikes":"3","bike_racks":"22","free_racks":"18","terminal_type":"7inch","bike_numbers":"24802,29656,96418","bike_types":{"4":2},"place_type":"0","rack_locks":"1"},{"uid":"2585430","lat":"52.24190654256","lng":"21.024259328842","name":"Lipowa - Dobra","spot":"1","number":"9496","bikes":"20","bike_racks":"19","free_racks":"0","terminal_type":"7inch","bike_numbers":"24492,28699,28687,28631,28626,28555,28438,28430,28103,27759,27165,26437,26315,26304,26238,25942,29455,28813,96005,96280","bike_types":{"51":1,"4":19},"place_type":"0","rack_locks":"1"},{"uid":"2585431","lat":"52.2413087","lng":"21.0281727","name":"Centrum Nauki Kopernik","spot":"1","number":"9497","bikes":"18","bike_racks":"30","free_racks":"12","terminal_type":"7inch","bike_numbers":"24918,24779,24575,27826,27796,26866,26839,26662,26582,26214,25830,25786,25560,25299,25283,28866,96294,96227","bike_types":{"4":18},"place_type":"0","rack_locks":"1"},{"uid":"2585432","lat":"52.2264464","lng":"20.9837164","name":"Kolejowa","spot":"1","number":"9498","bikes":"13","bike_racks":"16","free_racks":"3","terminal_type":"7inch","bike_numbers":"28119,27941,27901,27824,27454,27043,26359,26106,25610,25471,28798,96461,96189","bike_types":{"4":13},"place_type":"0","rack_locks":"1"},{"uid":"2585433","lat":"52.22983","lng":"20.993996","name":"\u017belazna - Sienna","spot":"1","number":"9499","bikes":"13","bike_racks":"24","free_racks":"11","terminal_type":"7inch","bike_numbers":"27584,27028,26999,26555,26144,25989,25821,25446,25252,29131,96477,96125,96082","bike_types":{"4":12,"0":1},"place_type":"0","rack_locks":"1"},{"uid":"2585435","lat":"52.230201297582","lng":"20.999550819397","name":"al. Jana Paw\u0142a II - Z\u0142ota","spot":"1","number":"9500","bikes":"11","bike_racks":"16","free_racks":"7","terminal_type":"7inch","bike_numbers":"24943,24792,27859,27696,27377,26920,26173,25228,25169,29555,96540","bike_types":{"4":11},"place_type":"0","rack_locks":"1"},{"uid":"2585438","lat":"52.2309778","lng":"21.0036755","name":"Emilii Plater - Z\u0142ota","spot":"1","number":"9501","bikes":"2","bike_racks":"30","free_racks":"27","terminal_type":"7inch","bike_numbers":"26501,96126","bike_types":{"4":2},"place_type":"0","rack_locks":"1"},{"uid":"2585440","lat":"52.232816601853","lng":"21.006980538368","name":"Pa\u0142ac Kultury i Nauki","spot":"1","number":"9502","bikes":"3","bike_racks":"17","free_racks":"14","terminal_type":"7inch","bike_numbers":"24801,28037,26923","bike_types":{"4":3},"place_type":"0","rack_locks":"1"},{"uid":"2585442","lat":"52.232934","lng":"21.0101791","name":"Marsza\u0142kowska - Z\u0142ota","spot":"1","number":"9503","bikes":"14","bike_racks":"22","free_racks":"8","terminal_type":"7inch","bike_numbers":"28897,28528,28152,27813,27246,27087,25507,25229,25209,28912,96039,96519,96106,29227","bike_types":{"4":14},"place_type":"0","rack_locks":"1"},{"uid":"2585445","lat":"52.231987","lng":"21.016092","name":"Bracka - Krucza","spot":"1","number":"9504","bikes":"8","bike_racks":"20","free_racks":"12","terminal_type":"7inch","bike_numbers":"28544,28523,28001,27295,26991,26914,26322,29135","bike_types":{"4":7,"0":1},"place_type":"0","rack_locks":"1"},{"uid":"2585446","lat":"52.2355713","lng":"21.0179642","name":"Nowy \u015awiat - Warecka","spot":"1","number":"9505","bikes":"16","bike_racks":"24","free_racks":"10","terminal_type":"7inch","bike_numbers":"24621,28901,28869,27957,27606,27590,27414,26714,26540,25895,25211,25058,28778,28858,96290,96146","bike_types":{"4":16},"place_type":"0","rack_locks":"1"},{"uid":"2585447","lat":"52.2337571","lng":"21.0202789","name":"Ga\u0142czy\u0144skiego - Foksal","spot":"1","number":"9506","bikes":"14","bike_racks":"24","free_racks":"10","terminal_type":"7inch","bike_numbers":"24745,24625,28747,28334,27690,27411,27049,26993,25939,25696,25197,25175,28988,96102","bike_types":{"4":14},"place_type":"0","rack_locks":"1"},{"uid":"2585450","lat":"52.2375934","lng":"21.0256487","name":"Topiel - Tamka","spot":"1","number":"9507","bikes":"18","bike_racks":"20","free_racks":"2","terminal_type":"7inch","bike_numbers":"24915,24652,28761,28722,28045,27611,27221,27154,26965,26831,26496,26378,25584,29115,29110,29372,96154,29185","bike_types":{"4":18},"place_type":"0","rack_locks":"1"},{"uid":"2585452","lat":"52.2358752","lng":"21.0317323","name":"Solec - Jaracza","spot":"1","number":"9508","bikes":"12","bike_racks":"15","free_racks":"3","terminal_type":"7inch","bike_numbers":"24878,24750,28593,26925,26676,26069,25972,25744,25112,29422,29202,29258","bike_types":{"4":12},"place_type":"0","rack_locks":"1"},{"uid":"2585453","lat":"52.2218874","lng":"20.9795301","name":"al. Jerozolimskie - Niemcewicza","spot":"1","number":"9509","bikes":"6","bike_racks":"19","free_racks":"13","terminal_type":"7inch","bike_numbers":"28024,27314,26137,29087,29427,63610","bike_types":{"4":6},"place_type":"0","rack_locks":"1"},{"uid":"2585455","lat":"52.2222155","lng":"20.9866293","name":"Ochota-Ratusz","spot":"1","number":"9510","bikes":"12","bike_racks":"23","free_racks":"10","terminal_type":"7inch","bike_numbers":"28540,27738,26610,26459,26343,25523,25392,29012,96109,96095,29172,29226","bike_types":{"4":12},"place_type":"0","rack_locks":"1"},{"uid":"2585457","lat":"52.2249718","lng":"20.9897661","name":"Plac Zawiszy","spot":"1","number":"9511","bikes":"27","bike_racks":"24","free_racks":"1","terminal_type":"7inch","bike_numbers":"24861,24718,28691,28599,28268,27635,27318,27174,26935,26503,26219,26098,26078,25960,25827,25771,25669,25506,25339,25284,25155,25049,29041,96387,96363,96243,96114","bike_types":{"4":27},"place_type":"0","rack_locks":"1"},{"uid":"2585460","lat":"52.22626","lng":"20.9961309","name":"al. Jerozolimskie - Lindleya","spot":"1","number":"9512","bikes":"4","bike_racks":"15","free_racks":"12","terminal_type":"7inch","bike_numbers":"24961,28902,26973,26371","bike_types":{"4":4},"place_type":"0","rack_locks":"1"},{"uid":"2585462","lat":"52.2241455","lng":"20.9975244","name":"Lindleya - szpital","spot":"1","number":"9513","bikes":"14","bike_racks":"28","free_racks":"14","terminal_type":"7inch","bike_numbers":"24734,24518,28898,27192,26634,26585,26392,25899,25670,25565,28863,28828,96562,96119","bike_types":{"4":14},"place_type":"0","rack_locks":"1"},{"uid":"2585464","lat":"52.227861","lng":"21.0008509","name":"Warszawa \u015ar\u00f3dmie\u015bcie WKD","spot":"1","number":"9514","bikes":"13","bike_racks":"18","free_racks":"4","terminal_type":"7inch","bike_numbers":"24726,28561,28022,27853,27670,27205,27127,25718,25327,25093,96017,96450,96131","bike_types":{"4":13},"place_type":"0","rack_locks":"1"},{"uid":"2585466","lat":"52.2249555","lng":"21.0031664","name":"Oczki - WUM","spot":"1","number":"9515","bikes":"0","bike_racks":"19","free_racks":"19","terminal_type":"7inch","place_type":"0","rack_locks":"1","bike_numbers":null,"bike_types":[]},{"uid":"2585469","lat":"52.2290464","lng":"21.0054544","name":"Emilii Plater - Al. Jerozolimskie","spot":"1","number":"9517","bikes":"11","bike_racks":"30","free_racks":"19","terminal_type":"7inch","bike_numbers":"24648,24626,28435,28121,27547,27065,26162,26006,25411,25384,29123","bike_types":{"4":10,"0":1},"place_type":"0","rack_locks":"1"},{"uid":"2585470","lat":"52.2259343","lng":"21.0067537","name":"Emilii Plater - Wsp\u00f3lna","spot":"1","number":"9518","bikes":"1","bike_racks":"15","free_racks":"15","terminal_type":"7inch","bike_numbers":"25457","bike_types":{"4":1},"place_type":"0","rack_locks":"1"},{"uid":"2585472","lat":"52.23001","lng":"21.01088","name":"Metro Centrum","spot":"1","number":"9519","bikes":"19","bike_racks":"30","free_racks":"11","terminal_type":"7inch","bike_numbers":"24914,24584,28620,28389,28342,27921,27748,27741,27289,27000,26885,26642,26558,26265,25991,25773,25371,25274,25039","bike_types":{"4":19},"place_type":"0","rack_locks":"1"},{"uid":"2585473","lat":"52.229347019086","lng":"21.011314988136","name":"Marsza\u0142kowska - Al. Jerozolimskie","spot":"1","number":"9520","bikes":"17","bike_racks":"24","free_racks":"6","terminal_type":"7inch","bike_numbers":"24924,28766,28765,28464,27964,27953,27555,26867,26760,26739,26574,26431,26127,25996,25575,25547,96191","bike_types":{"4":17},"place_type":"0","rack_locks":"1"},{"uid":"2585476","lat":"52.230418150276","lng":"21.013610959053","name":"al. Jerozolimskie - rejon Rotundy","spot":"1","number":"9521","bikes":"15","bike_racks":"24","free_racks":"9","terminal_type":"7inch","bike_numbers":"24883,24762,24491,24474,25009,27892,27526,25963,25824,25704,25594,25473,25098,29022,96474","bike_types":{"4":13,"51":2},"place_type":"0","rack_locks":"1"},{"uid":"2585477","lat":"52.2262882","lng":"21.0135705","name":"Marsza\u0142kowska - Ho\u017ca","spot":"1","number":"9522","bikes":"12","bike_racks":"15","free_racks":"3","terminal_type":"7inch","bike_numbers":"28291,27633,26016,25799,25578,25413,25191,25100,96048,96427,96284,96586","bike_types":{"4":12},"place_type":"0","rack_locks":"1"},{"uid":"2585492","lat":"52.2282923","lng":"21.0178542","name":"Krucza - Wsp\u00f3lna","spot":"1","number":"9523","bikes":"11","bike_racks":"28","free_racks":"17","terminal_type":"7inch","bike_numbers":"24684,28574,27652,27066,26773,26530,26118,25804,25511,25286,28963","bike_types":{"4":11},"place_type":"0","rack_locks":"1"},{"uid":"2585684","lat":"52.23144","lng":"21.0213036","name":"Rondo de Gaulle'a","spot":"1","number":"9524","bikes":"13","bike_racks":"22","free_racks":"9","terminal_type":"7inch","bike_numbers":"24847,24736,27700,27577,26658,26010,25984,25962,25633,25114,25032,28970,96441","bike_types":{"4":13},"place_type":"0","rack_locks":"1"},{"uid":"2585694","lat":"52.2278487","lng":"21.0235084","name":"Plac Trzech Krzy\u017cy","spot":"1","number":"9525","bikes":"19","bike_racks":"23","free_racks":"4","maintenance":"1","terminal_type":"7inch","bike_numbers":"24696,24659,24010,28757,28739,28040,27795,27249,26086,26053,26022,25598,25561,25122,29076,29037,29021,96431,96122","bike_types":{"4":18,"26":1},"place_type":"0","rack_locks":"1"},{"uid":"2585695","lat":"52.23324","lng":"21.0261179","name":"Smolna - PKP Powi\u015ble","spot":"1","number":"9526","bikes":"11","bike_racks":"18","free_racks":"6","terminal_type":"7inch","bike_numbers":"24818,24537,28819,28690,28486,28469,27581,27564,26861,26368,25436","bike_types":{"4":11},"place_type":"0","rack_locks":"1"},{"uid":"2585699","lat":"52.2340191","lng":"21.0300328","name":"Herberta - PKP Powi\u015ble","spot":"1","number":"9527","bikes":"23","bike_racks":"26","free_racks":"3","terminal_type":"7inch","bike_numbers":"24925,24605,28549,28406,28149,27971,27907,27556,27301,27080,26907,26382,26212,26145,26005,25843,25529,25440,25350,28971,96281,96134,29151","bike_types":{"4":23},"place_type":"0","rack_locks":"1"},{"uid":"2585704","lat":"52.2347879","lng":"21.0340991","name":"Solec - al. 3 Maja","spot":"1","number":"9528","bikes":"20","bike_racks":"24","free_racks":"6","terminal_type":"7inch","bike_numbers":"24911,24874,24604,24565,24032,28588,28078,28036,27617,27371,27329,27034,26780,25619,25451,60845,29461,28961,96364,96320","bike_types":{"4":19,"26":1},"place_type":"0","rack_locks":"1"},{"uid":"2585708","lat":"52.2301405","lng":"21.0303694","name":"Ksi\u0105\u017c\u0119ca - Rozbrat","spot":"1","number":"9529","bikes":"17","bike_racks":"15","free_racks":"2","terminal_type":"7inch","bike_numbers":"24920,24903,24680,28477,27997,27930,27496,27248,27203,26817,25862,25562,25449,25365,25342,96501,96149","bike_types":{"4":17},"place_type":"0","rack_locks":"1"},{"uid":"2585711","lat":"52.2172177","lng":"20.9713608","name":"Szcz\u0119\u015bliwicka - APS","spot":"1","number":"9530","bikes":"32","bike_racks":"22","free_racks":"0","terminal_type":"7inch","bike_numbers":"24871,24637,24622,24613,24554,28732,28596,28535,28534,28400,28356,28055,28009,27992,27501,27237,26801,26282,26250,26141,25945,25391,25347,25237,29078,28945,28936,28844,28879,96483,96385,96076","bike_types":{"4":32},"place_type":"0","rack_locks":"1"},{"uid":"2585712","lat":"52.2179474","lng":"20.9775567","name":"Kopi\u0144ska - Bia\u0142obrzeska","spot":"1","number":"9531","bikes":"12","bike_racks":"15","free_racks":"3","terminal_type":"7inch","bike_numbers":"24778,28643,28133,27788,27730,27219,27012,26751,26741,25576,29130,29270","bike_types":{"4":11,"0":1},"place_type":"0","rack_locks":"1"},{"uid":"2585714","lat":"52.2178554","lng":"20.9828138","name":"Plac Narutowicza","spot":"1","number":"9532","bikes":"20","bike_racks":"30","free_racks":"10","terminal_type":"7inch","bike_numbers":"24931,24881,24780,28303,27977,27911,27828,27714,27627,27608,26947,26857,26532,26342,25921,25416,29657,25631,28996,29186","bike_types":{"4":20},"place_type":"0","rack_locks":"1"},{"uid":"2585716","lat":"52.216641","lng":"20.9879476","name":"Raszy\u0144ska - Wawelska","spot":"1","number":"9533","bikes":"7","bike_racks":"20","free_racks":"13","terminal_type":"7inch","bike_numbers":"28529,27523,26961,26890,25550,25130,96343","bike_types":{"4":7},"place_type":"0","rack_locks":"1"},{"uid":"2585717","lat":"52.2191029","lng":"20.9890149","name":"Raszy\u0144ska - Filtrowa","spot":"1","number":"9534","bikes":"22","bike_racks":"22","free_racks":"0","terminal_type":"7inch","bike_numbers":"28563,28275,28008,27843,27820,27698,27687,27306,27277,26988,26878,26543,26261,26256,26072,26054,25907,25866,25612,25338,29458,28851","bike_types":{"4":22},"place_type":"0","rack_locks":"1"},{"uid":"2585720","lat":"52.220676","lng":"21.0045554","name":"al. Niepodleg\u0142o\u015bci - Nowowiejska","spot":"1","number":"9535","bikes":"11","bike_racks":"30","free_racks":"20","terminal_type":"7inch","bike_numbers":"28731,27743,27483,26983,26795,25174,96405,96349,96348,96305,96089","bike_types":{"4":11},"place_type":"0","rack_locks":"1"},{"uid":"2585721","lat":"52.2174693","lng":"21.0056537","name":"Kaczy\u0144skiego - al. Niepodleg\u0142o\u015bci","spot":"1","number":"9536","bikes":"2","bike_racks":"16","free_racks":"14","terminal_type":"7inch","bike_numbers":"25820,96416","bike_types":{"4":2},"place_type":"0","rack_locks":"1"},{"uid":"2585722","lat":"52.2226831","lng":"21.0081097","name":"Noakowskiego - Koszykowa","spot":"1","number":"9537","bikes":"24","bike_racks":"24","free_racks":"2","terminal_type":"7inch","bike_numbers":"24895,24857,24856,24666,28476,28296,28023,27963,27765,27365,27187,27148,26918,26830,26701,26545,26216,25846,25403,29200,29368,96003,96520,96254","bike_types":{"4":24},"place_type":"0","rack_locks":"1"},{"uid":"2585724","lat":"52.219916","lng":"21.0116824","name":"Plac Politechniki","spot":"1","number":"9538","bikes":"15","bike_racks":"27","free_racks":"12","terminal_type":"7inch","bike_numbers":"24634,24510,28585,28392,27434,27261,26079,25860,25853,25641,25287,25261,25234,96556,96173","bike_types":{"4":15},"place_type":"0","rack_locks":"1"},{"uid":"2585727","lat":"52.223503","lng":"21.0128519","name":"Pozna\u0144ska - Zesp\u00f3\u0142 Szk\u00f3\u0142 Gastronomicznych","spot":"1","number":"9539","bikes":"14","bike_racks":"18","free_racks":"4","terminal_type":"7inch","bike_numbers":"28293,28115,27783,27417,27254,26886,26734,25900,25441,25076,25022,28951,29357,28850","bike_types":{"4":14},"place_type":"0","rack_locks":"1"},{"uid":"2585728","lat":"52.2174857","lng":"21.0142949","name":"Rondo Jazdy Polskiej","spot":"1","number":"9540","bikes":"15","bike_racks":"24","free_racks":"7","terminal_type":"7inch","bike_numbers":"24481,28672,28450,27794,27677,27452,27395,27298,26811,26725,26596,25726,25423,29454,29164","bike_types":{"51":1,"4":14},"place_type":"0","rack_locks":"1"},{"uid":"2585729","lat":"52.2197435","lng":"21.0157353","name":"ul. Wary\u0144skiego-ul. Nowowiejska-Metro Politechnika ","spot":"1","number":"9541","bikes":"10","bike_racks":"20","free_racks":"12","terminal_type":"7inch","bike_numbers":"27382,26822,26790,26587,26438,26415,26232,25183,29362,29435","bike_types":{"4":10},"place_type":"0","rack_locks":"1"},{"uid":"2585731","lat":"52.2197681","lng":"21.0172775","name":"Plac Zbawiciela","spot":"1","number":"9542","bikes":"10","bike_racks":"12","free_racks":"2","terminal_type":"7inch","bike_numbers":"27507,27386,27082,26031,26017,25504,96468,96230,29280,29231","bike_types":{"4":10},"place_type":"0","rack_locks":"1"},{"uid":"2585735","lat":"52.2229427","lng":"21.0158211","name":"Plac Konstytucji","spot":"1","number":"9543","bikes":"10","bike_racks":"30","free_racks":"18","terminal_type":"7inch","bike_numbers":"28410,27970,26034,25542,25254,25232,25188,29107,29137,96028","bike_types":{"4":9,"0":1},"place_type":"0","rack_locks":"1"},{"uid":"2585737","lat":"52.2238152","lng":"21.0207859","name":"Mokotowska - Pi\u0119kna","spot":"1","number":"9544","bikes":"5","bike_racks":"22","free_racks":"17","terminal_type":"7inch","bike_numbers":"24917,27443,27126,26630,26095","bike_types":{"4":5},"place_type":"0","rack_locks":"1"},{"uid":"2585738","lat":"52.2200212","lng":"21.0256299","name":"Plac na Rozdro\u017cu","spot":"1","number":"9545","bikes":"24","bike_racks":"26","free_racks":"2","terminal_type":"7inch","bike_numbers":"24566,24470,28029,27899,27848,27775,27657,27269,27244,27240,27081,27005,26787,26736,26456,25873,25729,25427,25379,29061,29142,28839,96393,96323","bike_types":{"4":22,"51":1,"0":1},"place_type":"0","rack_locks":"1"},{"uid":"2585742","lat":"52.2249504","lng":"21.0268155","name":"Matejki - Wiejska","spot":"1","number":"9546","bikes":"4","bike_racks":"20","free_racks":"16","terminal_type":"7inch","bike_numbers":"24461,28622,27374,96500","bike_types":{"51":1,"4":3},"place_type":"0","rack_locks":"1"},{"uid":"2585747","lat":"52.2221129","lng":"21.0343873","name":"My\u015bliwiecka - Rozbrat","spot":"1","number":"9547","bikes":"16","bike_racks":"21","free_racks":"5","terminal_type":"7inch","bike_numbers":"24814,28586,28272,27420,27004,26989,26765,26710,25825,25803,25716,25072,96022,96216,29224,96589","bike_types":{"4":16},"place_type":"0","rack_locks":"1"},{"uid":"2585748","lat":"52.2277124","lng":"21.0442955","name":"Port Czerniakowski","spot":"1","number":"9548","bikes":"18","bike_racks":"30","free_racks":"13","terminal_type":"7inch","bike_numbers":"24765,24005,28307,27462,26696,26595,26519,26352,26092,25785,25654,25265,25126,29647,96570,96565,96564,96454","bike_types":{"4":17,"26":1},"place_type":"0","rack_locks":"1"},{"uid":"2585749","lat":"52.2109711","lng":"20.9759125","name":"Gr\u00f3jecka - Bitwy Warszawskiej 1920 roku","spot":"1","number":"9549","bikes":"16","bike_racks":"20","free_racks":"3","terminal_type":"7inch","bike_numbers":"24828,24719,28688,28347,28345,28341,27317,27266,27228,26597,26432,26394,25902,25082,29344,96215","bike_types":{"4":16},"place_type":"0","rack_locks":"1"},{"uid":"2585750","lat":"52.2130296","lng":"20.9819985","name":"Pasteura - Winnicka - UW","spot":"1","number":"9550","bikes":"4","bike_racks":"24","free_racks":"19","terminal_type":"7inch","bike_numbers":"28753,26687,26559,26215","bike_types":{"4":4},"place_type":"0","rack_locks":"1"},{"uid":"2585762","lat":"52.2107722","lng":"20.9847557","name":"Stefana Banacha - UW","spot":"1","number":"9551","bikes":"2","bike_racks":"29","free_racks":"26","terminal_type":"7inch","bike_numbers":"26823,25431","bike_types":{"4":2},"place_type":"0","rack_locks":"1"},{"uid":"2585764","lat":"52.212671","lng":"21.003437","name":"Biblioteka Narodowa","spot":"1","number":"9552","bikes":"12","bike_racks":"24","free_racks":"14","terminal_type":"7inch","bike_numbers":"24906,24519,28136,27940,27232,27202,27161,26170,25437,25044,28983,29218","bike_types":{"4":12},"place_type":"0","rack_locks":"1"},{"uid":"2585766","lat":"52.21691","lng":"21.01997","name":"Marsza\u0142kowska - Litewska","spot":"1","number":"9553","bikes":"9","bike_racks":"15","free_racks":"6","terminal_type":"7inch","bike_numbers":"24469,28398,27724,27659,25579,29641,25629,63625,96136","bike_types":{"51":1,"4":8},"place_type":"0","rack_locks":"1"},{"uid":"2585770","lat":"52.2083858","lng":"20.9631103","name":"P\u0119tla Szcz\u0119\u015bliwice","spot":"1","number":"9554","bikes":"14","bike_racks":"19","free_racks":"5","terminal_type":"7inch","bike_numbers":"24996,28587,28516,27077,26744,26511,26026,26003,25920,25582,25222,29140,96007,96077","bike_types":{"4":13,"0":1},"place_type":"0","rack_locks":"1"},{"uid":"2585771","lat":"52.206153650625","lng":"20.970287919044","name":"Dickensa - Geodet\u00f3w","spot":"1","number":"9555","bikes":"16","bike_racks":"16","free_racks":"4","terminal_type":"7inch","bike_numbers":"24553,28143,27629,27139,27027,26863,26783,26638,26133,25877,25522,29067,60855,96530,96455,96428","bike_types":{"4":16},"place_type":"0","rack_locks":"1"},{"uid":"2585772","lat":"52.205361371875","lng":"20.984664559364","name":"\u017bwirki i Wigury - Ksi\u0119cia Trojdena","spot":"1","number":"9556","bikes":"15","bike_racks":"17","free_racks":"2","terminal_type":"7inch","bike_numbers":"24773,24668,28428,27935,27704,27324,27315,26981,26980,26546,25979,25343,25027,28992,96415","bike_types":{"4":15},"place_type":"0","rack_locks":"1"},{"uid":"2585774","lat":"52.205801893754","lng":"20.998928546906","name":"Rakowiecka - \u015aw. A. Boboli","spot":"1","number":"9557","bikes":"7","bike_racks":"17","free_racks":"9","terminal_type":"7inch","bike_numbers":"24640,28579,27867,25052,28985,96058,96014","bike_types":{"4":7},"place_type":"0","rack_locks":"1"},{"uid":"2585776","lat":"52.209916","lng":"21.0067794","name":"al. Niepodleg\u0142o\u015bci - Batorego","spot":"1","number":"9558","bikes":"42","bike_racks":"26","free_racks":"1","terminal_type":"7inch","bike_numbers":"24781,24619,24592,24455,28572,28418,28338,28208,28196,28007,27889,27837,27836,27809,27641,27563,27546,27545,27493,27140,26365,26060,25970,25906,25847,25603,25592,25534,25484,25361,25279,29039,29554,28815,28967,96528,96507,96377,96372,96214,96186,29233","bike_types":{"4":41,"51":1},"place_type":"0","rack_locks":"1"},{"uid":"2585779","lat":"52.2132375","lng":"21.0210568","name":"Plac Unii Lubelskiej","spot":"1","number":"9559","bikes":"27","bike_racks":"24","free_racks":"0","terminal_type":"7inch","bike_numbers":"24670,24487,28604,28355,28340,27849,27582,27463,27415,27129,27009,26894,26615,26564,26453,26436,26364,26287,26187,26074,25311,25113,28938,29144,28969,96440,29198","bike_types":{"4":25,"51":1,"0":1},"place_type":"0","rack_locks":"1"},{"uid":"2585781","lat":"52.2027557","lng":"20.9508951","name":"W\u0142odarzewska - Maszynowa","spot":"1","number":"9560","bikes":"12","bike_racks":"18","free_racks":"7","terminal_type":"7inch","bike_numbers":"24707,28551,28550,28530,27233,27104,26932,25911,25710,25385,29163,29216","bike_types":{"4":12},"place_type":"0","rack_locks":"1"},{"uid":"2585782","lat":"52.2017647","lng":"20.9820897","name":"Sanocka - Pruszkowska","spot":"1","number":"9561","bikes":"17","bike_racks":"15","free_racks":"0","terminal_type":"7inch","bike_numbers":"24593,28517,28445,27995,27372,27180,27117,26872,26325,26243,25732,25382,25282,25020,29089,29136,29273","bike_types":{"4":16,"0":1},"place_type":"0","rack_locks":"1"},{"uid":"2585785","lat":"52.1981365","lng":"20.9833717","name":"\u017bwirki i Wigury - Rac\u0142awicka","spot":"1","number":"9562","bikes":"9","bike_racks":"18","free_racks":"9","terminal_type":"7inch","bike_numbers":"28748,28409,27851,27655,27122,27118,25278,25071,96162","bike_types":{"4":9},"place_type":"0","rack_locks":"1"},{"uid":"2585787","lat":"52.20177","lng":"20.99969","name":"Wo\u0142oska - Kulskiego","spot":"1","number":"9563","bikes":"7","bike_racks":"15","free_racks":"8","terminal_type":"7inch","bike_numbers":"24767,27699,27321,26007,25589,28946,29126","bike_types":{"4":5,"0":1},"place_type":"0","rack_locks":"1"},{"uid":"2585788","lat":"52.2042638","lng":"21.014428","name":"Madali\u0144skiego - Kazimierzowska","spot":"1","number":"9564","bikes":"6","bike_racks":"24","free_racks":"18","terminal_type":"7inch","bike_numbers":"27268,25816,25528,96523,96503,29196","bike_types":{"4":6},"place_type":"0","rack_locks":"1"},{"uid":"2585789","lat":"52.2055175","lng":"21.0231033","name":"Pu\u0142awska - Dworkowa","spot":"1","number":"9565","bikes":"10","bike_racks":"19","free_racks":"9","terminal_type":"7inch","bike_numbers":"24849,28458,28106,27597,27388,26613,26603,26292,25653,28843","bike_types":{"4":10},"place_type":"0","rack_locks":"1"},{"uid":"2585790","lat":"52.2071756","lng":"21.0312643","name":"Belwederska - Gagarina","spot":"1","number":"9566","bikes":"23","bike_racks":"30","free_racks":"7","terminal_type":"7inch","bike_numbers":"24956,24580,27812,27626,27460,27375,27247,27084,26573,25867,25764,25683,25604,25465,25405,25280,25117,25046,29072,96472,96463,96337,96178","bike_types":{"4":23},"place_type":"0","rack_locks":"1"},{"uid":"2585791","lat":"52.2074193","lng":"21.0479621","name":"Czerniakowska - Gagarina","spot":"1","number":"9567","bikes":"29","bike_racks":"25","free_racks":"14","terminal_type":"7inch","bike_numbers":"24954,24649,24632,24628,24541,28706,28505,28156,28074,28049,27819,27362,27222,26481,26452,26129,25986,25530,25375,25233,25206,25011,25010,29092,29055,96034,96001,96511,96406","bike_types":{"4":29},"place_type":"0","rack_locks":"1"},{"uid":"2585794","lat":"52.1938131","lng":"20.9914431","name":"Etiudy Rewolucyjnej - Mi\u0105czy\u0144ska","spot":"1","number":"9568","bikes":"9","bike_racks":"18","free_racks":"9","terminal_type":"7inch","bike_numbers":"24515,28449,27968,27338,25981,25463,96277,96217,29269","bike_types":{"4":9},"place_type":"0","rack_locks":"1"},{"uid":"2585799","lat":"52.1994156","lng":"21.0121384","name":"Metro Rac\u0142awicka","spot":"1","number":"9570","bikes":"26","bike_racks":"30","free_racks":"1","terminal_type":"7inch","bike_numbers":"24960,24845,24678,28700,28527,28474,28420,27884,27587,27468,27106,27054,27029,26850,26836,26684,26209,26179,26150,25999,25875,25865,25132,25083,96303,96193","bike_types":{"4":25},"place_type":"0","rack_locks":"1"},{"uid":"2585800","lat":"52.199505","lng":"21.0240975","name":"Pu\u0142awska - Dolna","spot":"1","number":"9571","bikes":"14","bike_racks":"18","free_racks":"4","terminal_type":"7inch","bike_numbers":"24655,24534,28264,28193,28092,27978,27915,26802,26560,26361,25811,28826,96404,96188","bike_types":{"4":14},"place_type":"0","rack_locks":"1"},{"uid":"2585802","lat":"52.2014754","lng":"21.0360047","name":"Sobieskiego - Che\u0142mska","spot":"1","number":"9572","bikes":"34","bike_racks":"15","free_racks":"0","terminal_type":"7inch","bike_numbers":"24950,24616,28503,28488,28393,28212,28151,27976,27936,27667,27198,26868,26694,26690,26591,26185,26155,25871,25856,25829,25822,25793,25315,25185,25120,28776,28865,28832,28900,28979,96310,96168,96088,29189","bike_types":{"4":34},"place_type":"0","rack_locks":"1"},{"uid":"2585804","lat":"52.1998446","lng":"21.05095","name":"Czerniakowska - ZUS","spot":"1","number":"9573","bikes":"10","bike_racks":"15","free_racks":"5","terminal_type":"7inch","bike_numbers":"24844,24627,27385,25356,25029,29047,96041,96010,96426,29206","bike_types":{"4":10},"place_type":"0","rack_locks":"1"},{"uid":"2585807","lat":"52.1916776","lng":"20.8689688","name":"PKP Ursus-Nied\u017awiadek","spot":"1","number":"9574","bikes":"12","bike_racks":"15","free_racks":"3","terminal_type":"7inch","bike_numbers":"24853,24744,24656,28905,28039,27598,25888,25840,25835,25733,96512,96345","bike_types":{"4":12},"place_type":"0","rack_locks":"1"},{"uid":"2585808","lat":"52.1960469","lng":"20.8849347","name":"PKP Ursus","spot":"1","number":"9575","bikes":"10","bike_racks":"16","free_racks":"6","terminal_type":"7inch","bike_numbers":"28460,28117,28083,27797,27614,26659,26602,26328,25826,25221","bike_types":{"4":10},"place_type":"0","rack_locks":"1"},{"uid":"2585809","lat":"52.1869936","lng":"20.8906478","name":"Sosnkowskiego - OSiR Ursus","spot":"1","number":"9576","bikes":"13","bike_racks":"15","free_racks":"3","terminal_type":"7inch","bike_numbers":"28313,28287,28122,27942,27569,27508,26397,26393,26339,25667,25262,28893,96091","bike_types":{"4":13},"place_type":"0","rack_locks":"1"},{"uid":"2585811","lat":"52.2005548","lng":"20.8937538","name":"Ursus-Ratusz","spot":"1","number":"9577","bikes":"9","bike_racks":"15","free_racks":"6","terminal_type":"7inch","bike_numbers":"24471,28591,27497,27438,26974,26184,25768,28854,96331","bike_types":{"51":1,"4":8},"place_type":"0","rack_locks":"1"},{"uid":"2585814","lat":"52.1906376","lng":"20.8999443","name":"Skoroszewska - Prystora","spot":"1","number":"9578","bikes":"17","bike_racks":"17","free_racks":"1","terminal_type":"7inch","bike_numbers":"24462,28510,28336,28089,27565,27131,26510,26500,26090,26024,25948,25655,25260,25256,96400,96382,96301","bike_types":{"51":1,"4":16},"place_type":"0","rack_locks":"1"},{"uid":"2585817","lat":"52.1882609","lng":"20.9603771","name":"G\u0142adka - OSiR W\u0142ochy","spot":"1","number":"9579","bikes":"14","bike_racks":"16","free_racks":"2","terminal_type":"7inch","bike_numbers":"28570,28538,27938,27416,26426,25664,25581,25199,29005,29374,96036,96177,96164,96115","bike_types":{"4":14},"place_type":"0","rack_locks":"1"},{"uid":"2585820","lat":"52.2056441","lng":"20.9159142","name":"PKP W\u0142ochy","spot":"1","number":"9580","bikes":"17","bike_racks":"17","free_racks":"1","terminal_type":"7inch","bike_numbers":"24674,28752,28654,28325,28304,28260,27625,26112,25781,25717,25517,25326,29071,25961,96545,96182,96159","bike_types":{"4":17},"place_type":"0","rack_locks":"1"},{"uid":"2585821","lat":"52.2012157","lng":"20.9353145","name":"al. Jerozolimskie - Popularna","spot":"1","number":"9581","bikes":"8","bike_racks":"19","free_racks":"11","terminal_type":"7inch","bike_numbers":"24837,28531,27947,27455,26843,25073,29106,96435","bike_types":{"4":8},"place_type":"0","rack_locks":"1"},{"uid":"2585824","lat":"52.1924709","lng":"20.9596664","name":"W\u0142ochy-Ratusz","spot":"1","number":"9582","bikes":"6","bike_racks":"15","free_racks":"9","terminal_type":"7inch","bike_numbers":"28754,28018,27542,26743,26013,96025","bike_types":{"4":6},"place_type":"0","rack_locks":"1"},{"uid":"2585825","lat":"52.1946888","lng":"20.9667823","name":"1 Sierpnia - DK W\u0142ochy","spot":"1","number":"9583","bikes":"15","bike_racks":"15","free_racks":"0","terminal_type":"7inch","bike_numbers":"27948,27846,26996,26682,26518,26476,26029,25798,25245,25012,29060,96572,96296,96187,96130","bike_types":{"4":15},"place_type":"0","rack_locks":"1"},{"uid":"2585827","lat":"52.1888962","lng":"21.0175887","name":"Metro Wierzbno","spot":"1","number":"9584","bikes":"18","bike_racks":"20","free_racks":"2","terminal_type":"7inch","bike_numbers":"28775,28713,28695,28565,28309,28220,27763,27063,26709,26302,26019,25850,25590,25535,28949,63623,96358,96099","bike_types":{"4":18},"place_type":"0","rack_locks":"1"},{"uid":"2585830","lat":"52.18648","lng":"21.02538","name":"Pu\u0142awska - Idzikowskiego","spot":"1","number":"9585","bikes":"7","bike_racks":"17","free_racks":"9","terminal_type":"7inch","bike_numbers":"24748,24617,28497,27473,26306,25583,28847","bike_types":{"4":7},"place_type":"0","rack_locks":"1"},{"uid":"2585835","lat":"52.1882861","lng":"21.0498825","name":"Sobieskiego - Mangalia","spot":"1","number":"9586","bikes":"16","bike_racks":"15","free_racks":"0","terminal_type":"7inch","bike_numbers":"24723,24552,24527,28756,28454,28062,27770,27471,27006,26125,25658,28964,96386,96275,96176,96080","bike_types":{"4":16},"place_type":"0","rack_locks":"1"},{"uid":"2585837","lat":"52.178777","lng":"21.0016387","name":"Wo\u0142oska - Marynarska","spot":"1","number":"9588","bikes":"14","bike_racks":"26","free_racks":"14","terminal_type":"7inch","bike_numbers":"28769,28666,28299,28003,27164,26612,26443,26257,25402,25026,29431,96192,96135,29283","bike_types":{"4":14},"place_type":"0","rack_locks":"1"},{"uid":"2585838","lat":"52.1800882","lng":"21.0207403","name":"al. Niepodleg\u0142o\u015bci - al. Wilanowska","spot":"1","number":"9589","bikes":"7","bike_racks":"22","free_racks":"16","terminal_type":"7inch","bike_numbers":"28439,26722,26046,25378,25116,96352,29278","bike_types":{"4":7},"place_type":"0","rack_locks":"1"},{"uid":"2585839","lat":"52.1779163","lng":"21.049562","name":"P\u0119tla Stegny","spot":"1","number":"9590","bikes":"27","bike_racks":"23","free_racks":"0","terminal_type":"7inch","bike_numbers":"24569,24013,28556,28490,28326,28271,28157,28027,27510,27015,26669,26097,26020,25720,25645,25482,25111,25062,28977,96536,96459,96433,96210,29268,29267,29242,29217","bike_types":{"4":26,"26":1},"place_type":"0","rack_locks":"1"},{"uid":"2585843","lat":"52.1818472","lng":"21.0562822","name":"Sobieskiego - \u015bw. Bonifacego","spot":"1","number":"9591","bikes":"21","bike_racks":"22","free_racks":"1","terminal_type":"7inch","bike_numbers":"24786,24631,24557,24517,28696,28108,28015,27695,27103,27093,26898,26643,26206,26070,26039,25937,25887,25642,29017,96235,96226","bike_types":{"4":21},"place_type":"0","rack_locks":"1"},{"uid":"2585844","lat":"52.1702836","lng":"20.9959132","name":"P\u0119tla Bokserska","spot":"1","number":"9592","bikes":"19","bike_racks":"15","free_racks":"0","terminal_type":"7inch","bike_numbers":"24705,24556,28433,27407,27039,26967,26922,26784,26702,26584,26507,26334,25880,25067,29062,28968,96542,96225,29260","bike_types":{"4":19},"place_type":"0","rack_locks":"1"},{"uid":"2585846","lat":"52.1710498","lng":"21.0059144","name":"Gintrowskiego - Gotarda","spot":"1","number":"9593","bikes":"11","bike_racks":"15","free_racks":"4","terminal_type":"7inch","bike_numbers":"24542,27710,27135,27086,26854,25725,25227,96550,96424,29236,96579","bike_types":{"4":11},"place_type":"0","rack_locks":"1"},{"uid":"2585848","lat":"52.174435","lng":"21.0128814","name":"al. Lotnik\u00f3w - Kaczmarskiego","spot":"1","number":"9594","bikes":"20","bike_racks":"30","free_racks":"10","terminal_type":"7inch","bike_numbers":"24885,24793,28482,28437,27993,27719,26928,26880,26720,26663,26498,26358,25932,25874,25724,25548,25186,29433,96473,96413","bike_types":{"4":20},"place_type":"0","rack_locks":"1"},{"uid":"2585850","lat":"52.1733132","lng":"21.0257305","name":"Metro S\u0142u\u017cew","spot":"1","number":"9595","bikes":"5","bike_racks":"24","free_racks":"19","terminal_type":"7inch","bike_numbers":"26469,26356,25611,63621,96479","bike_types":{"4":5},"place_type":"0","rack_locks":"1"},{"uid":"2585853","lat":"52.17343","lng":"21.03179","name":"Wa\u0142brzyska - Wr\u00f3bla","spot":"1","number":"9596","bikes":"21","bike_racks":"30","free_racks":"9","terminal_type":"7inch","bike_numbers":"24497,28611,28481,28311,28002,27831,27622,27399,27297,27036,26351,25410,25373,25255,25242,25172,25153,29443,28845,96052,29192","bike_types":{"51":1,"4":20},"place_type":"0","rack_locks":"1"},{"uid":"2585856","lat":"52.170135","lng":"21.0685748","name":"Jana III Sobieskiego - al. Wilanowska","spot":"1","number":"9597","bikes":"12","bike_racks":"15","free_racks":"3","terminal_type":"7inch","bike_numbers":"24946,24887,28744,27583,27091,26998,26640,26081,26057,25870,25251,25068","bike_types":{"4":12},"place_type":"0","rack_locks":"1"},{"uid":"2585860","lat":"52.1655879","lng":"21.0839331","name":"al. Wilanowska - Przycz\u00f3\u0142kowa","spot":"1","number":"9598","bikes":"18","bike_racks":"16","free_racks":"1","terminal_type":"7inch","bike_numbers":"24522,28257,27890,27599,27549,27504,27410,27373,27290,26484,26372,25941,25910,25500,96541,96495,96285,96279","bike_types":{"4":18},"place_type":"0","rack_locks":"1"},{"uid":"2585863","lat":"52.16479","lng":"21.10925","name":"Vogla - Syta","spot":"1","number":"9599","bikes":"13","bike_racks":"16","free_racks":"2","terminal_type":"7inch","bike_numbers":"28448,28256,28081,27897,27834,27474,26557,26434,26333,25808,29011,28829,96425","bike_types":{"4":13},"place_type":"0","rack_locks":"1"},{"uid":"2585868","lat":"52.1606257","lng":"21.0723245","name":"al. Rzeczypospolitej - Klimczaka","spot":"1","number":"9600","bikes":"12","bike_racks":"16","free_racks":"4","terminal_type":"7inch","bike_numbers":"24476,28361,28048,27466,27461,26512,26471,25966,25084,60863,96342,96107","bike_types":{"51":1,"4":11},"place_type":"0","rack_locks":"1"},{"uid":"2585871","lat":"52.1569168","lng":"21.0760903","name":"al. Rzeczypospolitej - Branickiego","spot":"1","number":"9601","bikes":"13","bike_racks":"16","free_racks":"3","terminal_type":"7inch","bike_numbers":"28331,28057,27913,27745,27702,26797,26589,26114,25812,25643,28855,96270,96580","bike_types":{"4":13},"place_type":"0","rack_locks":"1"},{"uid":"2585872","lat":"52.1593735","lng":"21.086449","name":"Przycz\u00f3\u0142kowa - Branickiego","spot":"1","number":"9602","bikes":"7","bike_racks":"16","free_racks":"9","terminal_type":"7inch","bike_numbers":"28335,26288,25953,25788,96040,96399,96329","bike_types":{"4":7},"place_type":"0","rack_locks":"1"},{"uid":"2585873","lat":"52.1618136","lng":"21.0277355","name":"Metro Ursyn\u00f3w II","spot":"1","number":"9603","bikes":"10","bike_racks":"30","free_racks":"20","terminal_type":"7inch","bike_numbers":"24031,28817,28215,26975,25383,25015,29002,28870,96184,29178","bike_types":{"26":1,"4":9},"place_type":"0","rack_locks":"1"},{"uid":"2585875","lat":"52.1622579","lng":"21.0280761","name":"Metro Ursyn\u00f3w I","spot":"1","number":"9604","bikes":"16","bike_racks":"30","free_racks":"14","terminal_type":"7inch","bike_numbers":"24489,28770,28689,28321,28289,27713,27032,26450,26411,26376,26180,25908,25682,25129,60831,29170","bike_types":{"51":1,"4":15},"place_type":"0","rack_locks":"1"},{"uid":"2585876","lat":"52.162401","lng":"21.0383811","name":"Jastrz\u0119bowskiego - SGGW","spot":"1","number":"9605","bikes":"27","bike_racks":"28","free_racks":"1","terminal_type":"7inch","bike_numbers":"24823,24611,24484,27981,27694,27431,27147,26904,26458,26357,26321,26245,26096,26094,25965,25839,25817,25776,25557,25513,29346,29024,25628,28800,28974,96258,29251","bike_types":{"4":26,"51":1},"place_type":"0","rack_locks":"1"},{"uid":"2585880","lat":"52.1557534","lng":"21.0232776","name":"Romera - Pieciolinii","spot":"1","number":"9606","bikes":"15","bike_racks":"16","free_racks":"1","terminal_type":"7inch","bike_numbers":"28803,28661,27975,27519,27215,27025,26860,26324,26149,25758,25210,29096,29032,96437,96420","bike_types":{"4":15},"place_type":"0","rack_locks":"1"},{"uid":"2585883","lat":"52.1568674","lng":"21.0338401","name":"Metro Stok\u0142osy","spot":"1","number":"9607","bikes":"25","bike_racks":"27","free_racks":"3","terminal_type":"7inch","bike_numbers":"24965,24712,28822,28349,28144,27453,27197,27153,26716,26191,26189,26146,25665,25536,25493,25490,25454,25430,25184,28868,96045,96024,96525,29177,29237","bike_types":{"4":25},"place_type":"0","rack_locks":"1"},{"uid":"2585885","lat":"52.1572887","lng":"21.0440084","name":"Roso\u0142a - Ciszewskiego - SGGW","spot":"1","number":"9608","bikes":"22","bike_racks":"30","free_racks":"9","terminal_type":"7inch","bike_numbers":"24737,28419,28365,28054,28051,27506,27159,27115,26905,26900,26515,26341,26280,26011,25571,25533,25512,25377,29119,29066,28881,63628","bike_types":{"4":22},"place_type":"0","rack_locks":"1"},{"uid":"2585888","lat":"52.1521429","lng":"21.0181224","name":"Pu\u0142awska - Pileckiego","spot":"1","number":"9609","bikes":"18","bike_racks":"22","free_racks":"4","terminal_type":"7inch","bike_numbers":"24463,28650,28480,28441,28301,28056,27857,27793,27786,26824,26637,26516,26205,26195,60836,28824,96488,96447","bike_types":{"51":1,"4":17},"place_type":"0","rack_locks":"1"},{"uid":"2585893","lat":"52.1495064","lng":"21.0332527","name":"Ciszewskiego - Pileckiego","spot":"1","number":"9610","bikes":"14","bike_racks":"22","free_racks":"8","terminal_type":"7inch","bike_numbers":"24850,24038,28446,28372,28279,28216,27878,27209,26056,25346,96491,96198,96097,29158","bike_types":{"4":13,"26":1},"place_type":"0","rack_locks":"1"},{"uid":"2585894","lat":"52.1549453","lng":"21.0492977","name":"Roso\u0142a - Gandhi","spot":"1","number":"9611","bikes":"11","bike_racks":"22","free_racks":"11","terminal_type":"7inch","bike_numbers":"27570,27141,26525,26186,25814,25559,29654,28799,96395,96365,96234","bike_types":{"4":11},"place_type":"0","rack_locks":"1"},{"uid":"2585897","lat":"52.1493105","lng":"21.0453361","name":"Metro Imielin","spot":"1","number":"9612","bikes":"6","bike_racks":"22","free_racks":"17","terminal_type":"7inch","bike_numbers":"28221,27994,26621,25818,28861,96330","bike_types":{"4":6},"place_type":"0","rack_locks":"1"},{"uid":"2585899","lat":"52.1522333","lng":"21.0563922","name":"Roso\u0142a - Weso\u0142a","spot":"1","number":"9613","bikes":"17","bike_racks":"23","free_racks":"6","terminal_type":"7inch","bike_numbers":"24803,28621,27909,27781,26858,25701,25602,25412,25310,25173,60862,63614,63605,96476,96246,96195,29150","bike_types":{"4":17},"place_type":"0","rack_locks":"1"},{"uid":"2585901","lat":"52.1427201","lng":"21.0383624","name":"Pileckiego - Alternatywy","spot":"1","number":"9614","bikes":"22","bike_racks":"30","free_racks":"8","terminal_type":"7inch","bike_numbers":"24934,24868,24629,28330,28087,27987,27758,27053,26818,26556,26553,25881,25519,25196,25104,29340,29050,60842,60834,29660,96561,96117","bike_types":{"4":22},"place_type":"0","rack_locks":"1"},{"uid":"2585902","lat":"52.142735","lng":"21.0448131","name":"Dereniowa - P\u0142askowickiej","spot":"1","number":"9615","bikes":"13","bike_racks":"22","free_racks":"9","terminal_type":"7inch","bike_numbers":"24991,24851,28818,28251,28099,28034,26748,26660,26052,25269,29053,29452,96218","bike_types":{"4":13},"place_type":"0","rack_locks":"1"},{"uid":"2585904","lat":"52.1376039","lng":"21.0505531","name":"Stryje\u0144skich - Belgradzka","spot":"1","number":"9616","bikes":"0","bike_racks":"15","free_racks":"15","terminal_type":"7inch","place_type":"0","rack_locks":"1","bike_numbers":null,"bike_types":[]},{"uid":"2585905","lat":"52.1403909","lng":"21.0568187","name":"Metro Natolin","spot":"1","number":"9617","bikes":"26","bike_racks":"30","free_racks":"5","terminal_type":"7inch","bike_numbers":"24997,24977,24858,24624,24598,24459,28461,28421,28377,28005,27825,27403,27352,26966,26329,26105,25553,25453,25225,28837,63629,96333,96295,96289,96141,24047","bike_types":{"4":24,"51":1,"26":1},"place_type":"0","rack_locks":"1"},{"uid":"2585906","lat":"52.1420749","lng":"21.0659905","name":"Belgradzka - Roso\u0142a","spot":"1","number":"9618","bikes":"10","bike_racks":"23","free_racks":"13","terminal_type":"7inch","bike_numbers":"24892,24797,25007,27739,26115,28906,28982,96304,96231,29204","bike_types":{"4":10},"place_type":"0","rack_locks":"1"},{"uid":"2585908","lat":"52.1314333","lng":"21.0561562","name":"Stryje\u0144skich - W\u0105wozowa","spot":"1","number":"9619","bikes":"17","bike_racks":"23","free_racks":"6","terminal_type":"7inch","bike_numbers":"24867,24709,28383,27829,27790,27568,27525,27522,26688,25978,25894,25370,25226,29064,60867,96194,96587","bike_types":{"4":17},"place_type":"0","rack_locks":"1"},{"uid":"2585911","lat":"52.3326052","lng":"20.9418404","name":"Ordon\u00f3wny - \u015awiatowida","spot":"1","number":"9620","bikes":"17","bike_racks":"22","free_racks":"5","terminal_type":"7inch","bike_numbers":"24882,24743,28314,27996,27986,27664,27548,26954,26699,26038,26018,25577,25489,28878,96401,96257,96174","bike_types":{"4":17},"place_type":"0","rack_locks":"1"},{"uid":"2585913","lat":"52.1310925","lng":"21.0654795","name":"Metro Kabaty","spot":"1","number":"9621","bikes":"21","bike_racks":"22","free_racks":"1","terminal_type":"7inch","bike_numbers":"24981,24695,24501,28773,28582,28580,28298,27804,26609,26580,26075,25898,25772,25673,25433,25103,25050,28943,63606,96241,29259","bike_types":{"4":21},"place_type":"0","rack_locks":"1"},{"uid":"2585916","lat":"52.1332642","lng":"21.0747962","name":"W\u0105wozowa - Roso\u0142a","spot":"1","number":"9622","bikes":"14","bike_racks":"18","free_racks":"4","terminal_type":"7inch","bike_numbers":"28068,27799,26499,26008,26004,25964,25703,25045,29342,28842,63627,96355,96338,29208","bike_types":{"4":14},"place_type":"0","rack_locks":"1"},{"uid":"2585917","lat":"52.324116","lng":"21.05663","name":"Skarbka z G\u00f3r - Berensona","spot":"1","number":"9623","bikes":"21","bike_racks":"26","free_racks":"5","terminal_type":"7inch","bike_numbers":"24939,28657,28607,28526,28440,28277,27954,27360,26881,26768,26707,26644,26430,26413,26152,26142,25916,25679,96020,96204,96120","bike_types":{"4":21},"place_type":"0","rack_locks":"1"},{"uid":"2585919","lat":"52.3485329","lng":"20.9418336","name":"Aluzyjna - Tr\u0105by","spot":"1","number":"9624","bikes":"13","bike_racks":"16","free_racks":"4","terminal_type":"7inch","bike_numbers":"24896,28612,27779,27721,26655,26623,25936,25841,25300,29045,96317,96265,96199","bike_types":{"4":13},"place_type":"0","rack_locks":"1"},{"uid":"2585920","lat":"52.3226982","lng":"20.9448107","name":"\u015awiatowida - Mehoffera","spot":"1","number":"9625","bikes":"12","bike_racks":"16","free_racks":"4","terminal_type":"7inch","bike_numbers":"24016,26986,26651,26624,26620,29077,28823,96239,96190,96185,29203,96592","bike_types":{"26":1,"4":11},"place_type":"0","rack_locks":"1"},{"uid":"2585921","lat":"52.3212548","lng":"20.9477347","name":"Bia\u0142o\u0142\u0119cki O\u015brodek Sportu","spot":"1","number":"9626","bikes":"26","bike_racks":"30","free_racks":"4","terminal_type":"7inch","bike_numbers":"24993,24859,28671,28652,28642,28431,28426,27847,27335,26941,26692,26575,26551,26489,26420,26172,29044,28995,96044,96486,96481,96391,96206,96137,29181,29223","bike_types":{"4":26},"place_type":"0","rack_locks":"1"},{"uid":"2585922","lat":"52.3211272","lng":"20.9712964","name":"Bia\u0142o\u0142\u0119ka-Ratusz","spot":"1","number":"9627","bikes":"11","bike_racks":"19","free_racks":"8","terminal_type":"7inch","bike_numbers":"24900,24833,24677,28771,27514,27284,26915,26472,25607,29108,96396","bike_types":{"4":11},"place_type":"0","rack_locks":"1"},{"uid":"2585924","lat":"52.3132981","lng":"20.9655324","name":"My\u015bliborska - al. Kukli\u0144skiego","spot":"1","number":"9628","bikes":"19","bike_racks":"22","free_racks":"3","terminal_type":"7inch","bike_numbers":"24608,28191,27952,27871,27868,27303,26835,26834,26237,25915,25599,25472,25470,25139,29127,96531,96335,96248,29197","bike_types":{"4":18,"0":1},"place_type":"0","rack_locks":"1"},{"uid":"2585925","lat":"52.3031984","lng":"20.9891666","name":"Modli\u0144ska - \u017bera\u0144ska","spot":"1","number":"9629","bikes":"21","bike_racks":"30","free_racks":"9","terminal_type":"7inch","bike_numbers":"28886,28308,28127,27982,27961,27895,27725,27108,26873,26769,26763,26667,26592,26269,25990,25738,25349,25162,29133,96544,96138","bike_types":{"4":20,"0":1},"place_type":"0","rack_locks":"1"},{"uid":"2585926","lat":"52.3150181","lng":"21.0610807","name":"Skarbka z G\u00f3r - Magiczna","spot":"1","number":"9630","bikes":"13","bike_racks":"30","free_racks":"17","terminal_type":"7inch","bike_numbers":"28583,28456,28067,27882,27632,27487,27354,26827,26815,26757,26460,25376,25146","bike_types":{"4":13},"place_type":"0","rack_locks":"1"},{"uid":"2585928","lat":"52.3000268","lng":"21.0425266","name":"P\u0119tla Br\u00f3dno - Podgrodzie","spot":"1","number":"9631","bikes":"22","bike_racks":"16","free_racks":"0","terminal_type":"7inch","bike_numbers":"28619,28566,28404,28190,28120,28098,28084,27742,27282,27008,26756,26259,26194,26110,25591,25159,29350,29082,28990,96575,96282,29174","bike_types":{"4":22},"place_type":"0","rack_locks":"1"},{"uid":"2585929","lat":"52.2939957","lng":"21.0272258","name":"Rembieli\u0144ska - Kondratowicza","spot":"1","number":"9632","bikes":"11","bike_racks":"23","free_racks":"12","terminal_type":"7inch","bike_numbers":"28705,28270,27288,27037,26990,26859,26103,25398,25218,28908,28806","bike_types":{"4":11},"place_type":"0","rack_locks":"1"},{"uid":"2585931","lat":"52.2917236","lng":"21.0481189","name":"Targ\u00f3wek-Ratusz","spot":"1","number":"9633","bikes":"15","bike_racks":"22","free_racks":"7","terminal_type":"7inch","bike_numbers":"24864,27300,26730,26335,26058,25943,25842,25510,25334,25246,29075,25958,96240,96103,29222","bike_types":{"4":15},"place_type":"0","rack_locks":"1"},{"uid":"2585932","lat":"52.292208","lng":"21.0419554","name":"Kondratowicza - Chodecka","spot":"1","number":"9634","bikes":"14","bike_racks":"23","free_racks":"9","terminal_type":"7inch","bike_numbers":"24816,24672,28702,28628,28100,28082,27902,27538,27357,26657,26221,26122,28960,29209","bike_types":{"4":14},"place_type":"0","rack_locks":"1"},{"uid":"2585934","lat":"52.2925145","lng":"21.0573949","name":"Kondratowicza - Przy Grodzisku","spot":"1","number":"9635","bikes":"14","bike_racks":"18","free_racks":"3","terminal_type":"7inch","bike_numbers":"28651,27778,27750,27601,26994,26396,26305,26275,26204,25526,25150,29139,96526,96326","bike_types":{"4":13,"0":1},"place_type":"0","rack_locks":"1"},{"uid":"2585936","lat":"52.2878069","lng":"21.0213829","name":"Wysockiego - Poborza\u0144ska","spot":"1","number":"9636","bikes":"20","bike_racks":"23","free_racks":"3","terminal_type":"7inch","bike_numbers":"24987,24657,28758,28357,28066,27484,27172,26979,26599,26313,26153,26151,25784,25564,25406,28950,28849,96524,96430,29160","bike_types":{"4":20},"place_type":"0","rack_locks":"1"},{"uid":"2585937","lat":"52.2885915","lng":"21.0310087","name":"Rembieli\u0144ska - Wyszogrodzka","spot":"1","number":"9637","bikes":"22","bike_racks":"30","free_racks":"8","terminal_type":"7inch","bike_numbers":"24811,24692,28150,28137,28126,27814,27502,27498,27448,27342,26963,26537,26331,26273,26059,25901,25170,29388,28830,96046,96336,29247","bike_types":{"4":22},"place_type":"0","rack_locks":"1"},{"uid":"2585938","lat":"52.2864841","lng":"21.0401998","name":"Chodecka - \u017buromi\u0144ska","spot":"1","number":"9638","bikes":"12","bike_racks":"15","free_racks":"0","terminal_type":"7inch","bike_numbers":"24921,24014,28414,28378,28134,27512,25988,25929,25075,29004,29146,96452","bike_types":{"4":10,"26":1,"0":1},"place_type":"0","rack_locks":"1"},{"uid":"2585939","lat":"52.281231017533","lng":"21.025852560997","name":"Wysockiego - Matki Teresy z Kalkuty","spot":"1","number":"9639","bikes":"16","bike_racks":"17","free_racks":"1","terminal_type":"7inch","bike_numbers":"24682,24573,28718,28578,27663,27327,27312,27035,26938,26871,26814,26076,25815,25573,25063,96196","bike_types":{"4":16},"place_type":"0","rack_locks":"1"},{"uid":"2585941","lat":"52.2835693","lng":"21.0720858","name":"Blokowa - DK Zacisze","spot":"1","number":"9640","bikes":"15","bike_racks":"18","free_racks":"3","terminal_type":"7inch","bike_numbers":"24913,24574,28265,27925,27827,27777,27124,26671,26617,26606,25780,25429,25357,25180,96466","bike_types":{"4":15},"place_type":"0","rack_locks":"1"},{"uid":"2585942","lat":"52.276259","lng":"21.0530748","name":"P\u0119tla Targ\u00f3wek","spot":"1","number":"9641","bikes":"17","bike_racks":"22","free_racks":"5","terminal_type":"7inch","bike_numbers":"24687,28368,28088,28075,27916,27776,26491,26048,25479,25359,25263,25161,25074,28907,96516,96158,29214","bike_types":{"4":17},"place_type":"0","rack_locks":"1"},{"uid":"2585943","lat":"52.27139","lng":"21.01566","name":"Jagiello\u0144ska - ALK","spot":"1","number":"9642","bikes":"14","bike_racks":"16","free_racks":"2","terminal_type":"7inch","bike_numbers":"28041,27644,27427,26677,26674,26051,25762,25757,25572,25176,25167,96327,96112,29165","bike_types":{"4":14},"place_type":"0","rack_locks":"1"},{"uid":"2585947","lat":"52.2694683","lng":"21.0499817","name":"Ossowskiego","spot":"1","number":"9644","bikes":"10","bike_racks":"17","free_racks":"7","terminal_type":"7inch","bike_numbers":"24636,28525,28408,27680,27088,27031,25448,25216,29080,29152","bike_types":{"4":10},"place_type":"0","rack_locks":"1"},{"uid":"2585951","lat":"52.272602123161","lng":"21.063210368156","name":"Radzymi\u0144ska -Trocka","spot":"1","number":"9645","bikes":"14","bike_racks":"20","free_racks":"7","terminal_type":"7inch","bike_numbers":"28686,28646,28362,27397,27328,26718,26130,25712,25148,29084,29020,96357,96086,29243","bike_types":{"4":14},"place_type":"0","rack_locks":"1"},{"uid":"2585953","lat":"52.27347","lng":"21.07698","name":"Bukowiecka - Zamkowa","spot":"1","number":"9646","bikes":"14","bike_racks":"15","free_racks":"1","terminal_type":"7inch","bike_numbers":"28681,28028,27658,27575,27422,27405,26648,26263,25977,25705,25543,25483,96368,29245","bike_types":{"4":14},"place_type":"0","rack_locks":"1"},{"uid":"2585954","lat":"52.2668885","lng":"21.0585675","name":"Radzymi\u0144ska - Piotra Skargi","spot":"1","number":"9647","bikes":"17","bike_racks":"20","free_racks":"3","terminal_type":"7inch","bike_numbers":"24901,24512,28717,28542,28339,27914,27877,27854,27421,27313,26104,25896,25795,29120,96517,96132,24049","bike_types":{"4":15,"0":1,"26":1},"place_type":"0","rack_locks":"1"},{"uid":"2585955","lat":"52.2614369","lng":"21.0155744","name":"Wybrze\u017ce Helskie - ZOO","spot":"1","number":"9648","bikes":"9","bike_racks":"22","free_racks":"13","terminal_type":"7inch","bike_numbers":"28616,28214,27482,26917,26713,26143,28777,96549,96221","bike_types":{"4":9},"place_type":"0","rack_locks":"1"},{"uid":"2585956","lat":"52.2632492","lng":"21.0212231","name":"Rondo Starzy\u0144skiego","spot":"1","number":"9649","bikes":"21","bike_racks":"24","free_racks":"3","terminal_type":"7inch","bike_numbers":"24938,24606,24538,28496,27637,27020,26949,26735,26505,26047,25985,25950,25928,25587,25069,29451,96555,96298,29190,29282,24046","bike_types":{"4":20,"26":1},"place_type":"0","rack_locks":"1"},{"uid":"2585958","lat":"52.26421","lng":"21.02618","name":"Darwina - Nusbauma-Hilarowicza","spot":"1","number":"9650","bikes":"12","bike_racks":"21","free_racks":"10","terminal_type":"7inch","bike_numbers":"28774,28606,27019,26777,26284,25754,25751,25635,25634,25094,29347,96021","bike_types":{"4":12},"place_type":"0","rack_locks":"1"},{"uid":"2585960","lat":"52.26554","lng":"21.03122","name":"Namys\u0142owska - Darwina","spot":"1","number":"9651","bikes":"8","bike_racks":"15","free_racks":"7","terminal_type":"7inch","bike_numbers":"28515,27821,26276,25541,25285,25053,29051,96315","bike_types":{"4":8},"place_type":"0","rack_locks":"1"},{"uid":"2585961","lat":"52.2690405","lng":"21.0379493","name":"Rondo \u017baba","spot":"1","number":"9652","bikes":"20","bike_racks":"22","free_racks":"3","terminal_type":"7inch","bike_numbers":"24603,25008,27939,27841,27734,27398,27323,26874,26809,26805,26433,25713,25675,25620,25408,25353,29124,96302,96297,29169","bike_types":{"4":19,"0":1},"place_type":"0","rack_locks":"1"},{"uid":"2585963","lat":"52.2591682","lng":"21.0262224","name":"Jagiello\u0144ska - Plac Hallera","spot":"1","number":"9653","bikes":"16","bike_racks":"20","free_racks":"4","terminal_type":"7inch","bike_numbers":"24662,24506,24465,25003,28385,28154,28096,27893,27356,26666,26033,25993,25933,25677,25636,96208","bike_types":{"4":15,"51":1},"place_type":"0","rack_locks":"1"},{"uid":"2585964","lat":"52.2613811","lng":"21.0305437","name":"Plac Hallera - Sawinkowa","spot":"1","number":"9654","bikes":"13","bike_racks":"28","free_racks":"13","terminal_type":"7inch","bike_numbers":"24893,28801,28647,27767,27530,27304,27044,26715,26490,26327,26027,25810,29035","bike_types":{"4":13},"place_type":"0","rack_locks":"1"},{"uid":"2585967","lat":"52.263","lng":"21.03418","name":"Namys\u0142owska - Szymanowskiego","spot":"1","number":"9655","bikes":"11","bike_racks":"16","free_racks":"5","terminal_type":"7inch","bike_numbers":"28379,26910,26793,26759,26717,26295,25421,29070,28987,96356,96252","bike_types":{"4":11},"place_type":"0","rack_locks":"1"},{"uid":"2585968","lat":"52.2538188","lng":"21.0231542","name":"Ratuszowa - ZOO","spot":"1","number":"9656","bikes":"16","bike_racks":"23","free_racks":"8","terminal_type":"7inch","bike_numbers":"24771,24644,24581,24017,28560,28524,28140,27959,27446,27160,26627,26229,26111,26085,25767,25415","bike_types":{"4":15,"26":1},"place_type":"0","rack_locks":"1"},{"uid":"2585971","lat":"52.256355","lng":"21.029538","name":"Jagiello\u0144ska - Ratuszowa","spot":"1","number":"9657","bikes":"14","bike_racks":"16","free_racks":"3","terminal_type":"7inch","bike_numbers":"28554,28052,27430,27158,27134,26693,26188,26160,25739,25182,29116,28989,29199,29225","bike_types":{"4":14},"place_type":"0","rack_locks":"1"},{"uid":"2585972","lat":"52.261449","lng":"21.037614","name":"11 Listopada - Ratuszowa","spot":"1","number":"9658","bikes":"26","bike_racks":"30","free_racks":"4","terminal_type":"7inch","bike_numbers":"24978,28762,28569,28547,28295,28026,27888,27761,27744,27560,27412,26987,26964,26958,26846,26404,26395,26366,26168,26166,26002,25779,25297,29134,28994,29156","bike_types":{"4":26},"place_type":"0","rack_locks":"1"},{"uid":"2585974","lat":"52.263109","lng":"21.0381895","name":"11 listopada - \u015arodkowa","spot":"1","number":"9659","bikes":"15","bike_racks":"18","free_racks":"3","terminal_type":"7inch","bike_numbers":"28724,28624,28369,28312,28085,27576,26930,26732,26464,26224,25878,25807,96552,96167,96147","bike_types":{"4":15},"place_type":"0","rack_locks":"1"},{"uid":"2585975","lat":"52.25839","lng":"21.03537","name":"Stalowa - 11 Listopada","spot":"1","number":"9660","bikes":"11","bike_racks":"24","free_racks":"13","terminal_type":"7inch","bike_numbers":"24831,28380,28286,27864,27800,27660,25588,25445,25157,96267,29171","bike_types":{"4":11},"place_type":"0","rack_locks":"1"},{"uid":"2585978","lat":"52.234791","lng":"21.07905","name":"al. Stan\u00f3w Zjednoczonych - Ostrobramska","spot":"1","number":"9661","bikes":"16","bike_racks":"20","free_racks":"4","terminal_type":"7inch","bike_numbers":"24717,24526,28465,28192,28131,27861,27404,27264,26837,26691,25719,29046,29143,28918,96049,96145","bike_types":{"4":15,"0":1},"place_type":"0","rack_locks":"1"},{"uid":"2585981","lat":"52.2524758","lng":"21.0303479","name":"Floria\u0144ska - Park Praski","spot":"1","number":"9662","bikes":"19","bike_racks":"23","free_racks":"4","terminal_type":"7inch","bike_numbers":"24890,24528,24011,28302,28209,28110,28014,27803,27224,26208,26049,26041,25918,25596,25539,25325,28981,96373,29229","bike_types":{"4":18,"26":1},"place_type":"0","rack_locks":"1"},{"uid":"2585982","lat":"52.2549757","lng":"21.0339005","name":"Plac Wile\u0144ski","spot":"1","number":"9663","bikes":"38","bike_racks":"30","free_racks":"0","terminal_type":"7inch","bike_numbers":"24815,24583,28548,28491,28468,28258,28148,28139,28071,27960,27927,27908,27727,27559,27437,27370,27167,27102,27007,26897,26847,26685,26517,26009,25787,25516,25314,25163,25096,29056,29040,28910,25625,28888,96569,96207,29175,29159","bike_types":{"4":37},"place_type":"0","rack_locks":"1"},{"uid":"2585983","lat":"52.2579576","lng":"21.0399804","name":"Wile\u0144ska - Rzeszotarskiej","spot":"1","number":"9664","bikes":"14","bike_racks":"16","free_racks":"2","terminal_type":"7inch","bike_numbers":"24979,24642,24531,27974,27818,27444,26879,26389,25849,29091,96015,96443,96397,29194","bike_types":{"4":14},"place_type":"0","rack_locks":"1"},{"uid":"2585984","lat":"52.2475848","lng":"20.9568001","name":"al. Prymasa Tysi\u0105clecia - Obozowa","spot":"1","number":"9665","bikes":"16","bike_racks":"13","free_racks":"0","terminal_type":"7inch","bike_numbers":"24532,28682,28501,28004,27524,27146,26470,26099,26062,25760,25532,25381,29338,29112,24555,96096","bike_types":{"4":16},"place_type":"0","rack_locks":"1"},{"uid":"2585985","lat":"52.248607","lng":"21.029647","name":"Okrzei - Panie\u0144ska","spot":"1","number":"9666","bikes":"13","bike_racks":"16","free_racks":"2","terminal_type":"7inch","bike_numbers":"28673,28423,28297,27817,27749,27709,27330,26154,25740,25127,96484,96261,96133","bike_types":{"4":13},"place_type":"0","rack_locks":"1"},{"uid":"2585987","lat":"52.2506334","lng":"21.0311174","name":"Sierakowskiego - K\u0142opotowskiego","spot":"1","number":"9667","bikes":"23","bike_racks":"25","free_racks":"2","terminal_type":"7inch","bike_numbers":"24800,24658,24467,28685,28394,27764,26919,26844,26408,26247,26113,26044,25971,25851,25790,25480,25298,25250,25219,28909,96422,96118,29246","bike_types":{"4":22,"51":1},"place_type":"0","rack_locks":"1"},{"uid":"2585990","lat":"52.2520876","lng":"21.0381368","name":"Targowa - Z\u0105bkowska","spot":"1","number":"9668","bikes":"13","bike_racks":"18","free_racks":"5","terminal_type":"7inch","bike_numbers":"28603,28432,27856,27621,27488,27477,26319,26161,25766,25138,25051,29105,96127","bike_types":{"4":13},"place_type":"0","rack_locks":"1"},{"uid":"2585992","lat":"52.2544855","lng":"21.0433458","name":"Fabryka W\u00f3dek Koneser","spot":"1","number":"9669","bikes":"20","bike_racks":"25","free_racks":"6","terminal_type":"7inch","bike_numbers":"24967,24504,24496,28053,27650,27316,27275,27229,27162,27014,25980,25652,25466,25455,25386,25101,29010,96510,96414,29238","bike_types":{"4":19,"51":1},"place_type":"0","rack_locks":"1"},{"uid":"2585994","lat":"52.2559027","lng":"21.0495613","name":"Radzymi\u0144ska - Wiosenna","spot":"1","number":"9670","bikes":"12","bike_racks":"26","free_racks":"14","terminal_type":"7inch","bike_numbers":"24725,24595,28090,27772,27389,27345,27212,26222,25302,29081,28812,28836","bike_types":{"4":12},"place_type":"0","rack_locks":"1"},{"uid":"2585995","lat":"52.25965","lng":"21.0529","name":"Radzymi\u0144ska - \u0141om\u017cy\u0144ska","spot":"1","number":"9671","bikes":"21","bike_racks":"24","free_racks":"3","terminal_type":"7inch","bike_numbers":"24928,28629,27586,27393,27256,27184,27171,27156,27145,27133,26908,26807,26738,26629,26495,26109,25836,25268,96105,29271,29244","bike_types":{"4":21},"place_type":"0","rack_locks":"1"},{"uid":"2585996","lat":"52.2583512","lng":"21.0585337","name":"P\u0119tla Kaw\u0119czy\u0144ska-Bazylika","spot":"1","number":"9672","bikes":"18","bike_racks":"26","free_racks":"8","terminal_type":"7inch","bike_numbers":"28745,28637,28269,27381,27319,26995,26848,26711,26705,25998,25954,25926,25919,28809,96498,96229,29215,96581","bike_types":{"4":18},"place_type":"0","rack_locks":"1"},{"uid":"2585997","lat":"52.249864871462","lng":"21.042911410332","name":"Targowa - Kijowska","spot":"1","number":"9673","bikes":"7","bike_racks":"18","free_racks":"11","terminal_type":"7inch","bike_numbers":"27755,26446,25855,25567,96559,96361,96255","bike_types":{"4":7},"place_type":"0","rack_locks":"1"},{"uid":"2586000","lat":"52.252745","lng":"21.0510331","name":"Dworzec Wschodni - Kijowska","spot":"1","number":"9674","bikes":"16","bike_racks":"27","free_racks":"9","terminal_type":"7inch","bike_numbers":"24639,24529,24525,28520,27717,27130,26902,26842,26385,26318,26293,26167,25088,28978,96350,29173","bike_types":{"4":16},"place_type":"0","rack_locks":"1"},{"uid":"2586001","lat":"52.247314","lng":"21.042731","name":"Metro Stadion Narodowy","spot":"1","number":"9675","bikes":"11","bike_racks":"15","free_racks":"3","terminal_type":"7inch","bike_numbers":"28452,28153,28010,27449,27283,25043,29365,96493,96492,96410,96313","bike_types":{"4":11},"place_type":"0","rack_locks":"1"},{"uid":"2586003","lat":"52.2472308","lng":"21.0476456","name":"al. Zieleniecka - Teatr Powszechny","spot":"1","number":"9676","bikes":"10","bike_racks":"14","free_racks":"4","terminal_type":"7inch","bike_numbers":"24940,24761,24475,28659,28623,28436,26400,26126,26023,25458","bike_types":{"4":9,"51":1},"place_type":"0","rack_locks":"1"},{"uid":"2586005","lat":"52.247346","lng":"21.055947","name":"Grochowska - Mi\u0144ska","spot":"1","number":"9677","bikes":"11","bike_racks":"22","free_racks":"11","terminal_type":"7inch","bike_numbers":"24880,24848,27489,27344,27064,26665,29339,25632,28975,96209,29276","bike_types":{"4":11},"place_type":"0","rack_locks":"1"},{"uid":"2586009","lat":"52.2464","lng":"21.06868","name":"Praga-Po\u0142udnie-Ratusz","spot":"1","number":"9678","bikes":"16","bike_racks":"15","free_racks":"0","terminal_type":"7inch","bike_numbers":"24964,24932,24873,24620,24478,28412,28254,27838,27447,27341,27068,25973,25904,25748,29364,96563","bike_types":{"4":15,"51":1},"place_type":"0","rack_locks":"1"},{"uid":"2586011","lat":"52.2501129","lng":"21.0772011","name":"Dwernickiego - Siennicka","spot":"1","number":"9679","bikes":"12","bike_racks":"25","free_racks":"8","terminal_type":"7inch","bike_numbers":"24983,24577,28899,27554,27464,27394,27225,27026,26178,25649,25065,29659","bike_types":{"4":12},"place_type":"0","rack_locks":"1"},{"uid":"2586012","lat":"52.260428882956","lng":"21.041538119316","name":"Stalowa - Czynszowa","spot":"1","number":"9680","bikes":"16","bike_racks":"15","free_racks":"1","terminal_type":"7inch","bike_numbers":"28736,28723,28667,28509,28417,26862,26776,26171,25944,25746,25593,25538,25217,28991,96419,29281","bike_types":{"4":16},"place_type":"0","rack_locks":"1"},{"uid":"2586014","lat":"52.2372419","lng":"21.0437644","name":"Wybrze\u017ce Szczeci\u0144skie - Stadion Narodowy","spot":"1","number":"9681","bikes":"12","bike_racks":"23","free_racks":"11","terminal_type":"7inch","bike_numbers":"24665,24494,28475,26875,26474,25525,25249,25079,29043,96325,96197,96151","bike_types":{"4":11,"51":1},"place_type":"0","rack_locks":"1"},{"uid":"2586018","lat":"52.2387103","lng":"21.0507515","name":"Rondo Waszyngtona - Stadion Narodowy","spot":"1","number":"9682","bikes":"18","bike_racks":"27","free_racks":"9","terminal_type":"7inch","bike_numbers":"24898,28391,27805,27731,27562,27533,27423,27413,27276,27017,26934,26527,26483,26323,26117,28862,28891,96116","bike_types":{"4":18},"place_type":"0","rack_locks":"1"},{"uid":"2586019","lat":"52.242281006874","lng":"21.071160435677","name":"Waszyngtona - Kinowa","spot":"1","number":"9683","bikes":"12","bike_racks":"15","free_racks":"5","terminal_type":"7inch","bike_numbers":"24945,24884,24787,24782,24009,28721,27648,26772,26590,24498,96381,29149","bike_types":{"4":10,"26":1,"51":1},"place_type":"0","rack_locks":"1"},{"uid":"2586021","lat":"52.2445639","lng":"21.0838057","name":"Rondo Wiatraczna","spot":"1","number":"9684","bikes":"24","bike_racks":"30","free_racks":"6","terminal_type":"7inch","bike_numbers":"24794,24676,24472,28892,28740,28738,28343,28038,27732,27536,27406,26841,26653,26581,26478,26473,26414,25893,25889,25524,25468,25264,96344,24054","bike_types":{"4":22,"51":1,"26":1},"place_type":"0","rack_locks":"1"},{"uid":"2586022","lat":"52.2347451","lng":"21.053651","name":"Francuska - Walecznych","spot":"1","number":"9685","bikes":"16","bike_racks":"15","free_racks":"1","terminal_type":"7inch","bike_numbers":"24841,28734,27920,27833,27654,27469,27387,27218,27030,26387,26065,25316,25258,29421,96449,96402","bike_types":{"4":16},"place_type":"0","rack_locks":"1"},{"uid":"2586024","lat":"52.236598","lng":"21.064774","name":"Mi\u0119dzynarodowa - Walecznych","spot":"1","number":"9686","bikes":"17","bike_racks":"15","free_racks":"0","terminal_type":"7inch","bike_numbers":"24980,24683,28502,27951,27090,26704,26542,26480,26156,25967,25912,28973,96566,96548,96244,96124,29279","bike_types":{"4":17},"place_type":"0","rack_locks":"1"},{"uid":"2586026","lat":"52.243020071904","lng":"21.102375984192","name":"Plac Szembeka","spot":"1","number":"9687","bikes":"10","bike_racks":"15","free_racks":"4","terminal_type":"7inch","bike_numbers":"24909,24505,27653,27353,27243,26441,25917,25796,25745,28942","bike_types":{"4":10},"place_type":"0","rack_locks":"1"},{"uid":"2586028","lat":"52.237559","lng":"21.120087","name":"P\u0119tla Goc\u0142awek","spot":"1","number":"9688","bikes":"14","bike_racks":"16","free_racks":"0","terminal_type":"7inch","bike_numbers":"24955,24664,24479,28697,28512,27589,26785,26448,25974,25476,29003,96054,96384,96092","bike_types":{"4":13,"51":1},"place_type":"0","rack_locks":"1"},{"uid":"2586030","lat":"52.2258359","lng":"21.0600907","name":"Brukselska - PROM","spot":"1","number":"9689","bikes":"5","bike_racks":"15","free_racks":"9","terminal_type":"7inch","bike_numbers":"24947,26468,26203,25666,96375","bike_types":{"4":5},"place_type":"0","rack_locks":"1"},{"uid":"2586031","lat":"52.260205610017","lng":"21.046854257584","name":"al. Solidarno\u015bci - Szwedzka","spot":"1","number":"9690","bikes":"11","bike_racks":"18","free_racks":"9","terminal_type":"7inch","bike_numbers":"24720,28101,26956,26766,26032,25707,25706,25368,96287,96161,24051","bike_types":{"4":10,"26":1},"place_type":"0","rack_locks":"1"},{"uid":"2586032","lat":"52.230088","lng":"21.067948","name":"al. Stan\u00f3w Zjednoczonych - Mi\u0119dzynarodowa","spot":"1","number":"9691","bikes":"12","bike_racks":"26","free_racks":"14","terminal_type":"7inch","bike_numbers":"24722,28558,27271,27070,26997,25913,25885,25618,25546,25267,96055,29234","bike_types":{"4":12},"place_type":"0","rack_locks":"1"},{"uid":"2586034","lat":"52.23483","lng":"21.09975","name":"Ostrobramska - Zamieniecka","spot":"1","number":"9692","bikes":"11","bike_racks":"23","free_racks":"5","terminal_type":"7inch","bike_numbers":"28292,28105,28077,26277,26068,25722,25424,25275,25238,96529,29191","bike_types":{"4":11},"place_type":"0","rack_locks":"1"},{"uid":"2586037","lat":"52.2251969","lng":"21.0712892","name":"Afryka\u0144ska - Egipska","spot":"1","number":"9693","bikes":"11","bike_racks":"16","free_racks":"4","terminal_type":"7inch","bike_numbers":"24969,24929,24539,27033,25639,25200,25107,25095,29083,25622,96341","bike_types":{"4":11},"place_type":"0","rack_locks":"1"},{"uid":"2586039","lat":"52.22837","lng":"21.08581","name":"Abrahama - Kapelan\u00f3w AK","spot":"1","number":"9694","bikes":"7","bike_racks":"15","free_racks":"4","terminal_type":"7inch","bike_numbers":"24589,28749,26504,26442,25321,96013,96283","bike_types":{"4":7},"place_type":"0","rack_locks":"1"},{"uid":"2586042","lat":"52.2296088","lng":"21.0945572","name":"Fieldorfa - Bukowskiego","spot":"1","number":"9695","bikes":"11","bike_racks":"20","free_racks":"1","terminal_type":"7inch","bike_numbers":"24766,24029,28032,28000,27932,27193,26344,26176,28896,96018,96202","bike_types":{"4":10,"26":1},"place_type":"0","rack_locks":"1"},