[{"region_info":{"lat":"52.2345","lng":"21.0024","zoom":"11","name":"VETURILO Poland","hotline":"+4819115","domain":"vp","country":"PL","country_name":"Poland","terms":"http:\/\/www.veturilo.waw.pl\/terms\/?v=201701","policy":"","website":"http:\/\/www.veturilo.waw.pl\/","show_free_racks":"1","booked_bikes":"0","set_point_bikes":"5279","available_bikes":"4581"},"places_summary":{"lngMin":20.8689688,"lngMax":21.120087,"latMin":52.117285,"latMax":52.3485329,"lngAvg":21.007811803367,"latAvg":52.230676667704},"places":[{"uid":"2585259","lat":"52.296298","lng":"20.9583575","name":"Dewajtis - UKSW","spot":"1","number":"9402","bikes":"11","bike_racks":"30","free_racks":"19","terminal_type":"7inch","bike_numbers":"24731,28676,27912,27097,26860,26774,25472,25358,29364,28878,96170","bike_types":{"4":11},"place_type":"0","rack_locks":"1"},{"uid":"2585263","lat":"52.2909738","lng":"20.9295559","name":"Metro M\u0142ociny","spot":"1","number":"9403","bikes":"17","bike_racks":"30","free_racks":"13","terminal_type":"7inch","bike_numbers":"24614,28523,27843,27517,27098,27047,26915,26846,26651,26645,25927,25722,25355,25292,25091,29072,29033","bike_types":{"4":17},"place_type":"0","rack_locks":"1"},{"uid":"2585265","lat":"52.2901732","lng":"20.9503698","name":"Marymoncka - Dewajtis","spot":"1","number":"9404","bikes":"27","bike_racks":"30","free_racks":"0","terminal_type":"7inch","bike_numbers":"24843,28442,27989,27701,27563,26963,26925,26632,26546,26330,26217,25956,25842,25776,25734,25407,25384,25297,25248,25080,25044,29010,29428,28913,96002,96379,96366","bike_types":{"4":27},"place_type":"0","rack_locks":"1"},{"uid":"2585267","lat":"52.285914","lng":"20.940561","name":"Metro Wawrzyszew","spot":"1","number":"9405","bikes":"1","bike_racks":"20","free_racks":"19","terminal_type":"7inch","bike_numbers":"27465","bike_types":{"4":1},"place_type":"0","rack_locks":"1"},{"uid":"2585269","lat":"52.2336142","lng":"21.0146353","name":"G\u00f3rskiego - Szpitalna","spot":"1","number":"9406","bikes":"12","bike_racks":"16","free_racks":"4","terminal_type":"7inch","bike_numbers":"24560,28712,27811,27700,27070,26885,26442,26313,25820,25113,29648,29646","bike_types":{"4":12},"place_type":"0","rack_locks":"1"},{"uid":"2585271","lat":"52.2816265","lng":"20.9498871","name":"Metro Stare Bielany","spot":"1","number":"9407","bikes":"16","bike_racks":"30","free_racks":"14","terminal_type":"7inch","bike_numbers":"24463,28260,27950,27859,26663,26607,26575,26477,26017,25592,28776,28911,28986,96044,96502,96425","bike_types":{"51":1,"4":15},"place_type":"0","rack_locks":"1"},{"uid":"2585272","lat":"52.2361217","lng":"21.0219096","name":"Ordynacka - Uniwersytet Muzyczny","spot":"1","number":"9408","bikes":"12","bike_racks":"20","free_racks":"6","terminal_type":"7inch","bike_numbers":"24937,28379,27812,27606,27327,26999,26787,26192,25920,29200,96389,96207","bike_types":{"4":12},"place_type":"0","rack_locks":"1"},{"uid":"2585273","lat":"52.2768774","lng":"20.9481302","name":"Bielany-Ratusz","spot":"1","number":"9409","bikes":"15","bike_racks":"28","free_racks":"13","terminal_type":"7inch","bike_numbers":"24492,28610,28217,26815,26644,26100,25991,25857,25740,25544,25436,25239,29142,96350,96272","bike_types":{"51":1,"4":13,"0":1},"place_type":"0","rack_locks":"1"},{"uid":"2585275","lat":"52.2761569","lng":"20.9616673","name":"Metro S\u0142odowiec","spot":"1","number":"9410","bikes":"22","bike_racks":"30","free_racks":"7","terminal_type":"7inch","bike_numbers":"24713,24513,24032,28904,27636,26926,26562,26558,26554,26011,25970,25633,25444,25353,25147,29338,29419,29553,25632,28973,96359,96090","bike_types":{"4":21,"26":1},"place_type":"0","rack_locks":"1"},{"uid":"2585278","lat":"52.2777751","lng":"20.9856999","name":"Potocka - OSiR \u017boliborz","spot":"1","number":"9411","bikes":"15","bike_racks":"15","free_racks":"0","terminal_type":"7inch","bike_numbers":"28315,27756,27673,27670,27182,27147,27072,26608,26599,26250,25604,25338,25033,29002,28815","bike_types":{"4":15},"place_type":"0","rack_locks":"1"},{"uid":"2585280","lat":"52.273527782989","lng":"20.994186401367","name":"Gwia\u017adzista - Promyka","spot":"1","number":"9412","bikes":"18","bike_racks":"16","free_racks":"2","terminal_type":"7inch","bike_numbers":"24864,24694,24532,24491,28478,28212,28029,27861,27422,27037,26928,26443,26222,26199,25159,25083,96017,96575","bike_types":{"4":17,"51":1},"place_type":"0","rack_locks":"1"},{"uid":"2585281","lat":"52.270941","lng":"20.9326269","name":"al. Reymonta - Conrada","spot":"1","number":"9413","bikes":"37","bike_racks":"30","free_racks":"2","terminal_type":"7inch","bike_numbers":"24972,24934,24846,24707,24583,24574,24539,28822,28680,27996,27871,27841,27683,27646,26692,26679,26475,26449,26297,26286,26090,26076,25931,25511,25433,25322,25220,25115,25114,29101,29068,29011,29657,28859,28831,96190,96174","bike_types":{"4":37},"place_type":"0","rack_locks":"1"},{"uid":"2585283","lat":"52.2706441","lng":"20.9504181","name":"Broniewskiego - Perzy\u0144skiego","spot":"1","number":"9414","bikes":"20","bike_racks":"16","free_racks":"4","terminal_type":"7inch","bike_numbers":"24978,28721,28316,28041,27969,27760,26834,26326,26296,25915,25841,25767,25268,28935,96530,96511,96431,96109,29169,96582","bike_types":{"4":20},"place_type":"0","rack_locks":"1"},{"uid":"2585284","lat":"52.2714203","lng":"20.9727099","name":"Metro Marymont","spot":"1","number":"9415","bikes":"16","bike_racks":"30","free_racks":"14","terminal_type":"7inch","bike_numbers":"24750,24746,28252,27737,27161,26709,26518,26432,26319,25766,25756,25585,25162,28829,96037,96474","bike_types":{"4":16},"place_type":"0","rack_locks":"1"},{"uid":"2585285","lat":"52.2694081","lng":"20.9833664","name":"Metro Plac Wilsona","spot":"1","number":"9416","bikes":"27","bike_racks":"21","free_racks":"5","terminal_type":"7inch","bike_numbers":"24926,24897,24798,24783,24735,28772,28599,28424,28056,27939,27404,27222,26858,26501,26357,25930,25478,25461,25448,25275,25119,29034,29014,29133,96546,96411,29193","bike_types":{"4":26,"0":1},"place_type":"0","rack_locks":"1"},{"uid":"2585286","lat":"52.2668623","lng":"20.9637032","name":"Broniewskiego - W\u0142o\u015bcia\u0144ska","spot":"1","number":"9417","bikes":"15","bike_racks":"19","free_racks":"9","terminal_type":"7inch","bike_numbers":"24646,24553,28775,27505,26965,26606,26253,25840,25520,25400,25081,28852,96419,96335,29150","bike_types":{"4":15},"place_type":"0","rack_locks":"1"},{"uid":"2585288","lat":"52.2643984","lng":"20.9723179","name":"Broniewskiego - Krasi\u0144skiego","spot":"1","number":"9418","bikes":"10","bike_racks":"16","free_racks":"7","maintenance":"1","terminal_type":"7inch","bike_numbers":"24816,24740,24549,28635,28428,27236,27195,26762,96271,96237","bike_types":{"4":10},"place_type":"0","rack_locks":"1"},{"uid":"2585289","lat":"52.267875","lng":"21.0020667","name":"Wybrze\u017ce Gdy\u0144skie - KS Sp\u00f3jnia","spot":"1","number":"9419","bikes":"14","bike_racks":"15","free_racks":"0","terminal_type":"7inch","bike_numbers":"28560,28196,28191,27489,27158,26238,26131,25222,25077,29213,29441,96327,96186,96110","bike_types":{"4":14},"place_type":"0","rack_locks":"1"},{"uid":"2585291","lat":"52.2624054","lng":"20.9802551","name":"Plac Grunwaldzki","spot":"1","number":"9420","bikes":"12","bike_racks":"30","free_racks":"18","terminal_type":"7inch","bike_numbers":"24903,28600,28275,28021,27655,26946,26841,25856,25605,25176,28875,96591","bike_types":{"4":12},"place_type":"0","rack_locks":"1"},{"uid":"2585296","lat":"52.2612575","lng":"20.9863191","name":"Zaj\u0105czka - Bitwy Pod Rokitn\u0105","spot":"1","number":"9421","bikes":"11","bike_racks":"15","free_racks":"4","terminal_type":"7inch","bike_numbers":"28555,27609,27224,25802,25415,29038,29020,28842,28832,96021,96267","bike_types":{"4":11},"place_type":"0","rack_locks":"1"},{"uid":"2585297","lat":"52.2645018","lng":"20.9895998","name":"Plac Inwalid\u00f3w","spot":"1","number":"9422","bikes":"9","bike_racks":"15","free_racks":"6","terminal_type":"7inch","bike_numbers":"28566,28022,28014,27431,27308,27250,26519,25413,96417","bike_types":{"4":9},"place_type":"0","rack_locks":"1"},{"uid":"2585299","lat":"52.258245356688","lng":"20.898613929749","name":"P\u0119tla Stare Bemowo","spot":"1","number":"9423","bikes":"10","bike_racks":"21","free_racks":"10","terminal_type":"7inch","bike_numbers":"26852,26468,26213,26049,25889,25706,25216,25073,96518,96315","bike_types":{"4":10},"place_type":"0","rack_locks":"1"},{"uid":"2585301","lat":"52.260895125763","lng":"20.923923254013","name":"P\u0119tla Nowe Bemowo","spot":"1","number":"9424","bikes":"18","bike_racks":"25","free_racks":"7","terminal_type":"7inch","bike_numbers":"24930,24559,28514,27380,25519,24555,96377,96375,96374,96321,96314,96293,96233,96232,96228,96227,96206,96111","bike_types":{"4":18},"place_type":"0","rack_locks":"1"},{"uid":"2585304","lat":"52.2575903","lng":"20.9323374","name":"Obro\u0144c\u00f3w Tobruku - Pieni\u0105\u017cka","spot":"1","number":"9425","bikes":"9","bike_racks":"12","free_racks":"3","terminal_type":"7inch","bike_numbers":"27771,27438,26620,26036,25677,25612,25264,96444,96376","bike_types":{"4":9},"place_type":"0","rack_locks":"1"},{"uid":"2585305","lat":"52.2593225","lng":"20.9605511","name":"Pow\u0105zkowska - Krasi\u0144skiego","spot":"1","number":"9426","bikes":"15","bike_racks":"23","free_racks":"9","terminal_type":"7inch","bike_numbers":"24907,27860,27617,27459,27394,26667,26279,26098,25306,25207,25019,29066,29039,29654,96392","bike_types":{"4":15},"place_type":"0","rack_locks":"1"},{"uid":"2585306","lat":"52.2563145","lng":"20.9682307","name":"Pow\u0105zkowska - Plac Niemena","spot":"1","number":"9427","bikes":"13","bike_racks":"16","free_racks":"2","terminal_type":"7inch","bike_numbers":"28665,27470,26897,26463,25278,25041,29090,28816,28962,96380,96259,96140,29176","bike_types":{"4":13},"place_type":"0","rack_locks":"1"},{"uid":"2585307","lat":"52.258524460024","lng":"20.970931649208","name":"Przasnyska - Rydygiera","spot":"1","number":"9428","bikes":"10","bike_racks":"15","free_racks":"5","terminal_type":"7inch","bike_numbers":"24944,24520,28695,27638,26168,26095,25705,25698,25090,28950","bike_types":{"4":10},"place_type":"0","rack_locks":"1"},{"uid":"2585308","lat":"52.253594","lng":"20.9798744","name":"Pow\u0105zkowska - Burakowska","spot":"1","number":"9429","bikes":"14","bike_racks":"20","free_racks":"5","terminal_type":"7inch","bike_numbers":"24971,24528,28351,28120,27201,27038,27012,26592,25854,96032,63601,96489,96117,29231","bike_types":{"4":14},"place_type":"0","rack_locks":"1"},{"uid":"2585311","lat":"52.2576018","lng":"20.9944975","name":"Metro Dworzec Gda\u0144ski","spot":"1","number":"9430","bikes":"17","bike_racks":"30","free_racks":"12","terminal_type":"7inch","bike_numbers":"24804,24776,28465,27922,27720,27502,27473,27124,27100,26675,25895,25614,29054,96506,96499,96486,96212","bike_types":{"4":17},"place_type":"0","rack_locks":"1"},{"uid":"2585315","lat":"52.2465952","lng":"20.9429216","name":"Obozowa - Cio\u0142ka","spot":"1","number":"9432","bikes":"6","bike_racks":"13","free_racks":"7","terminal_type":"7inch","bike_numbers":"28098,27752,25425,96534,96147,96123","bike_types":{"4":6},"place_type":"0","rack_locks":"1"},{"uid":"2585317","lat":"52.227621983552","lng":"20.956758856773","name":"al. Prymasa Tysi\u0105clecia - Kasprzaka","spot":"1","number":"9433","bikes":"12","bike_racks":"23","free_racks":"16","terminal_type":"7inch","bike_numbers":"24790,24742,24659,24630,28687,28208,28133,26980,26705,26308,96013,96268","bike_types":{"4":12},"place_type":"0","rack_locks":"1"},{"uid":"2585319","lat":"52.246037","lng":"20.962463","name":"Obozowa - Radziwie","spot":"1","number":"9434","bikes":"6","bike_racks":"13","free_racks":"7","terminal_type":"7inch","bike_numbers":"27784,26614,26130,25621,28917,96521","bike_types":{"4":6},"place_type":"0","rack_locks":"1"},{"uid":"2585321","lat":"52.2514708","lng":"20.9857053","name":"al. Jana Paw\u0142a II - Stawki","spot":"1","number":"9435","bikes":"7","bike_racks":"23","free_racks":"17","terminal_type":"7inch","bike_numbers":"24717,28259,28150,27469,26003,25757,96540","bike_types":{"4":7},"place_type":"0","rack_locks":"1"},{"uid":"2585323","lat":"52.2535305","lng":"20.9924922","name":"Stawki - Dubois","spot":"1","number":"9436","bikes":"7","bike_racks":"13","free_racks":"6","terminal_type":"7inch","bike_numbers":"24643,25210,96477,96337,96295,96188,96182","bike_types":{"4":7},"place_type":"0","rack_locks":"1"},{"uid":"2585326","lat":"52.2541702","lng":"20.9980649","name":"Andersa - Muranowska","spot":"1","number":"9437","bikes":"29","bike_racks":"30","free_racks":"5","terminal_type":"7inch","bike_numbers":"24813,24723,28744,28738,28453,28441,28213,27994,27924,27918,27794,27664,27633,26961,26788,26658,26133,25741,25684,25579,25578,25391,25267,28846,28974,29164,29206,29257,29229","bike_types":{"4":29},"place_type":"0","rack_locks":"1"},{"uid":"2585327","lat":"52.255877","lng":"21.0099819","name":"Sanguszki - Wybrze\u017ce Gda\u0144skie","spot":"1","number":"9438","bikes":"13","bike_racks":"28","free_racks":"13","terminal_type":"7inch","bike_numbers":"24699,28897,28304,27557,27425,27351,26514,26451,25186,28951,28934,29436,96311","bike_types":{"4":13},"place_type":"0","rack_locks":"1"},{"uid":"2585328","lat":"52.252175","lng":"20.923692","name":"Wroc\u0142awska \u2013 Bailly","spot":"1","number":"9439","bikes":"24","bike_racks":"27","free_racks":"3","terminal_type":"7inch","bike_numbers":"24721,28638,27581,26508,26380,26256,25401,29111,96031,96007,96569,96519,96488,96384,96343,96332,96290,96285,96256,96245,96217,96168,96153,96108","bike_types":{"4":24},"place_type":"0","rack_locks":"1"},{"uid":"2585330","lat":"52.24418","lng":"20.97794","name":"Okopowa - Anielewicza","spot":"1","number":"9440","bikes":"5","bike_racks":"20","free_racks":"14","terminal_type":"7inch","bike_numbers":"28494,27079,25917,25695,29447","bike_types":{"4":5},"place_type":"0","rack_locks":"1"},{"uid":"2585333","lat":"52.2486","lng":"20.98352","name":"Smocza - Mi\u0142a","spot":"1","number":"9441","bikes":"8","bike_racks":"15","free_racks":"6","terminal_type":"7inch","bike_numbers":"24529,28756,28293,27099,26865,26101,25383,25167","bike_types":{"4":8},"place_type":"0","rack_locks":"1"},{"uid":"2585334","lat":"52.24616","lng":"20.98538","name":"Smocza - Anielewicza","spot":"1","number":"9442","bikes":"5","bike_racks":"17","free_racks":"11","terminal_type":"7inch","bike_numbers":"24615,28633,28153,26291,29342","bike_types":{"4":5},"place_type":"0","rack_locks":"1"},{"uid":"2585335","lat":"52.247226","lng":"20.9893155","name":"al. Jana Paw\u0142a II - Anielewicza","spot":"1","number":"9443","bikes":"14","bike_racks":"22","free_racks":"7","terminal_type":"7inch","bike_numbers":"28899,28766,28688,28608,28485,27184,27035,25984,25459,29117,28979,96428,29148,29221","bike_types":{"4":14},"place_type":"0","rack_locks":"1"},{"uid":"2585337","lat":"52.249052","lng":"20.9948923","name":"Anielewicza - Zamenhofa","spot":"1","number":"9444","bikes":"12","bike_racks":"15","free_racks":"3","terminal_type":"7inch","bike_numbers":"24684,24010,27849,27017,26902,25790,25522,25381,29340,96005,96454,96412","bike_types":{"4":11,"26":1},"place_type":"0","rack_locks":"1"},{"uid":"2585338","lat":"52.2492196","lng":"20.9971878","name":"Anielewicza - Andersa","spot":"1","number":"9445","bikes":"15","bike_racks":"18","free_racks":"2","terminal_type":"7inch","bike_numbers":"24745,28263,28103,27242,27006,26994,26974,26699,26191,26089,25987,29126,96423,96323,29156","bike_types":{"4":14,"0":1},"place_type":"0","rack_locks":"1"},{"uid":"2585340","lat":"52.251549","lng":"21.002749","name":"Bonifraterska - Franciszka\u0144ska","spot":"1","number":"9446","bikes":"12","bike_racks":"16","free_racks":"3","terminal_type":"7inch","bike_numbers":"27080,26990,26830,26643,26117,25819,25547,25324,25282,25227,25151,96406","bike_types":{"4":12},"place_type":"0","rack_locks":"1"},{"uid":"2585342","lat":"52.2541119","lng":"21.0093342","name":"Ko\u015bcielna - Piesza","spot":"1","number":"9448","bikes":"3","bike_racks":"26","free_racks":"22","terminal_type":"7inch","bike_numbers":"28207,25726,25615","bike_types":{"4":3},"place_type":"0","rack_locks":"1"},{"uid":"2585344","lat":"52.2392622","lng":"20.8987641","name":"P\u0119tla Os. G\u00f3rczewska","spot":"1","number":"9449","bikes":"13","bike_racks":"15","free_racks":"3","terminal_type":"7inch","bike_numbers":"27847,27804,27423,27074,27058,26754,26565,26458,25533,25446,25259,28992,96357","bike_types":{"4":13},"place_type":"0","rack_locks":"1"},{"uid":"2585345","lat":"52.2389287","lng":"20.9139535","name":"Bemowo-Ratusz","spot":"1","number":"9450","bikes":"11","bike_racks":"20","free_racks":"9","terminal_type":"7inch","bike_numbers":"24682,28718,28643,27842,27393,26836,26401,26292,28824,96524,29199","bike_types":{"4":11},"place_type":"0","rack_locks":"1"},{"uid":"2585346","lat":"52.2387861","lng":"20.9424946","name":"Okocimska - Olbrachta","spot":"1","number":"9451","bikes":"13","bike_racks":"18","free_racks":"5","terminal_type":"7inch","bike_numbers":"27807,27710,27293,27002,26543,26064,26028,25691,25160,29339,96438,96200,96084","bike_types":{"4":13},"place_type":"0","rack_locks":"1"},{"uid":"2585349","lat":"52.2506241","lng":"21.0533611","name":"Dworzec Wschodni - Lubelska","spot":"1","number":"9452","bikes":"8","bike_racks":"15","free_racks":"6","terminal_type":"7inch","bike_numbers":"24548,28694,28603,28502,27216,25688,25429,96404","bike_types":{"4":8},"place_type":"0","rack_locks":"1"},{"uid":"2585351","lat":"52.2369249","lng":"20.9723559","name":"Leszno - M\u0142ynarska","spot":"1","number":"9453","bikes":"3","bike_racks":"30","free_racks":"27","terminal_type":"7inch","bike_numbers":"24530,24023,26136","bike_types":{"4":2,"26":1},"place_type":"0","rack_locks":"1"},{"uid":"2585352","lat":"52.2430451","lng":"20.9803864","name":"Dzielna - Bellottiego","spot":"1","number":"9454","bikes":"6","bike_racks":"13","free_racks":"7","terminal_type":"7inch","bike_numbers":"28322,27318,26688,25687,25562,25196","bike_types":{"4":6},"place_type":"0","rack_locks":"1"},{"uid":"2585353","lat":"52.24108","lng":"20.98316","name":"Wolno\u015b\u0107 - Bellottiego","spot":"1","number":"9455","bikes":"13","bike_racks":"16","free_racks":"2","terminal_type":"7inch","bike_numbers":"28579,27946,27695,27580,27460,26684,26231,26033,25746,25728,25525,96001,96436","bike_types":{"4":13},"place_type":"0","rack_locks":"1"},{"uid":"2585354","lat":"52.2435448","lng":"20.9873507","name":"Smocza - Nowolipki","spot":"1","number":"9456","bikes":"7","bike_racks":"16","free_racks":"9","terminal_type":"7inch","bike_numbers":"24949,24462,28481,28152,27735,26920,26083","bike_types":{"4":6,"51":1},"place_type":"0","rack_locks":"1"},{"uid":"2585356","lat":"52.2445767","lng":"20.99177","name":"al. Jana Paw\u0142a II - Nowolipki","spot":"1","number":"9457","bikes":"3","bike_racks":"16","free_racks":"13","terminal_type":"7inch","bike_numbers":"27979,26958,96456","bike_types":{"4":3},"place_type":"0","rack_locks":"1"},{"uid":"2585358","lat":"52.22868","lng":"20.91509","name":"Powsta\u0144c\u00f3w \u015al\u0105skich - Cz\u0142uchowska","spot":"1","number":"9458","bikes":"12","bike_racks":"16","free_racks":"3","terminal_type":"7inch","bike_numbers":"28397,28392,27417,26636,26467,25976,25694,25184,29123,96273,96253,96101","bike_types":{"4":11,"0":1},"place_type":"0","rack_locks":"1"},{"uid":"2585360","lat":"52.2342032","lng":"20.934689","name":"Jana Olbrachta - Antka Rozpylacza","spot":"1","number":"9459","bikes":"11","bike_racks":"13","free_racks":"3","terminal_type":"7inch","bike_numbers":"28620,27534,27371,26698,26483,25320,25206,25036,96398,96077,29149","bike_types":{"4":11},"place_type":"0","rack_locks":"1"},{"uid":"2585364","lat":"52.2401623","lng":"20.9877277","name":"Wola-Ratusz","spot":"1","number":"9460","bikes":"1","bike_racks":"15","free_racks":"13","terminal_type":"7inch","bike_numbers":"96408","bike_types":{"4":1},"place_type":"0","rack_locks":"1"},{"uid":"2585368","lat":"52.2445326","lng":"20.99998","name":"Plac Bankowy - Kino Muran\u00f3w","spot":"1","number":"9462","bikes":"9","bike_racks":"17","free_racks":"8","terminal_type":"7inch","bike_numbers":"28596,27566,27106,26041,25399,96497,96385,96358,96281","bike_types":{"4":9},"place_type":"0","rack_locks":"1"},{"uid":"2585369","lat":"52.2449465","lng":"21.0012943","name":"Andersa - D\u0142uga","spot":"1","number":"9463","bikes":"8","bike_racks":"30","free_racks":"22","terminal_type":"7inch","bike_numbers":"24997,24602,28544,28039,26194,26065,25689,28970","bike_types":{"4":8},"place_type":"0","rack_locks":"1"},{"uid":"2585370","lat":"52.2442666","lng":"21.0015893","name":"Marsza\u0142kowska - al. Solidarno\u015bci","spot":"1","number":"9464","bikes":"6","bike_racks":"30","free_racks":"24","terminal_type":"7inch","bike_numbers":"24611,28409,26971,26343,25707,96496","bike_types":{"4":6},"place_type":"0","rack_locks":"1"},{"uid":"2585371","lat":"52.2431975","lng":"21.0016603","name":"Plac Bankowy - Ratusz","spot":"1","number":"9465","bikes":"14","bike_racks":"30","free_racks":"15","terminal_type":"7inch","bike_numbers":"24773,24014,27729,27444,27370,27171,26743,26328,26015,26014,25309,25203,96318,29190","bike_types":{"4":13,"26":1},"place_type":"0","rack_locks":"1"},{"uid":"2585373","lat":"52.2435719","lng":"21.0066801","name":"Senatorska - Biela\u0144ska","spot":"1","number":"9466","bikes":"8","bike_racks":"17","free_racks":"9","terminal_type":"7inch","bike_numbers":"24929,27504,26930,26842,25972,25458,25449,25105","bike_types":{"4":8},"place_type":"0","rack_locks":"1"},{"uid":"2585377","lat":"52.246314509834","lng":"21.0113042593","name":"Miodowa","spot":"1","number":"9467","bikes":"11","bike_racks":"24","free_racks":"10","terminal_type":"7inch","bike_numbers":"24478,28454,28357,28035,27533,26075,25606,25085,29086,29070,96238","bike_types":{"51":1,"4":10},"place_type":"0","rack_locks":"1"},{"uid":"2585378","lat":"52.2435965","lng":"21.0140803","name":"Krakowskie Przedmie\u015bcie - Tr\u0119backa","spot":"1","number":"9468","bikes":"8","bike_racks":"14","free_racks":"5","terminal_type":"7inch","bike_numbers":"24948,28697,26726,26685,25753,25240,96034,96573","bike_types":{"4":8},"place_type":"0","rack_locks":"1"},{"uid":"2585379","lat":"52.2465625","lng":"21.0174345","name":"Mariensztat","spot":"1","number":"9469","bikes":"18","bike_racks":"15","free_racks":"0","terminal_type":"7inch","bike_numbers":"24940,24482,28873,28507,27853,27844,27426,27269,25945,25905,25277,25188,29445,29647,96048,96551,96096,29265","bike_types":{"4":17,"51":1},"place_type":"0","rack_locks":"1"},{"uid":"2585381","lat":"52.224934","lng":"20.945489","name":"Jana Kazimierza - Giz\u00f3w","spot":"1","number":"9471","bikes":"11","bike_racks":"13","free_racks":"1","terminal_type":"7inch","bike_numbers":"28726,28447,27239,27026,26515,26287,25727,25693,25104,28891,96400","bike_types":{"4":11},"place_type":"0","rack_locks":"1"},{"uid":"2585385","lat":"52.2299137","lng":"20.9508179","name":"Wolska - Elekcyjna","spot":"1","number":"9472","bikes":"11","bike_racks":"20","free_racks":"9","terminal_type":"7inch","bike_numbers":"24885,24536,24036,28390,27113,26898,26545,25762,25613,96221,96127","bike_types":{"4":10,"54":1},"place_type":"0","rack_locks":"1"},{"uid":"2585387","lat":"52.237662392829","lng":"20.955492854118","name":"al. Prymasa Tysi\u0105clecia - G\u00f3rczewska","spot":"1","number":"9473","bikes":"12","bike_racks":"20","free_racks":"10","terminal_type":"7inch","bike_numbers":"28320,27948,27065,26673,25349,29049,29022,29455,96016,96491,29220,96580","bike_types":{"4":12},"place_type":"0","rack_locks":"1"},{"uid":"2585389","lat":"52.2333374","lng":"20.9652776","name":"Wolska - P\u0142ocka","spot":"1","number":"9474","bikes":"3","bike_racks":"15","free_racks":"11","terminal_type":"7inch","bike_numbers":"25619,25221,28808","bike_types":{"4":3},"place_type":"0","rack_locks":"1"},{"uid":"2585391","lat":"52.228522296173","lng":"20.969638824463","name":"Kasprzaka - Skierniewicka","spot":"1","number":"9475","bikes":"7","bike_racks":"21","free_racks":"11","terminal_type":"7inch","bike_numbers":"24917,24474,27744,27541,25021,29119,29135","bike_types":{"4":5,"51":1,"0":1},"place_type":"0","rack_locks":"1"},{"uid":"2585394","lat":"52.22898","lng":"20.97843","name":"Kasprzaka - Karolkowa","spot":"1","number":"9476","bikes":"2","bike_racks":"15","free_racks":"13","terminal_type":"7inch","bike_numbers":"24876,96287","bike_types":{"4":2},"place_type":"0","rack_locks":"1"},{"uid":"2585396","lat":"52.2328752","lng":"20.9805411","name":"Muzeum Powstania Warszawskiego","spot":"1","number":"9477","bikes":"3","bike_racks":"10","free_racks":"8","terminal_type":"7inch","bike_numbers":"28902,27966,96162","bike_types":{"4":3},"place_type":"0","rack_locks":"1"},{"uid":"2585398","lat":"52.22983","lng":"20.983123","name":"Metro Rondo Daszy\u0144skiego","spot":"1","number":"9478","bikes":"19","bike_racks":"26","free_racks":"7","terminal_type":"7inch","bike_numbers":"24884,24870,28658,28537,28291,27949,27788,27672,26872,26773,26725,26363,26124,26099,25462,25244,25161,29063,29641","bike_types":{"4":19},"place_type":"0","rack_locks":"1"},{"uid":"2585400","lat":"52.23145","lng":"20.98869","name":"Prosta - Wronia","spot":"1","number":"9479","bikes":"10","bike_racks":"15","free_racks":"5","terminal_type":"7inch","bike_numbers":"24991,24987,28332,28325,27810,27501,27229,27084,26405,96248","bike_types":{"4":10},"place_type":"0","rack_locks":"1"},{"uid":"2585401","lat":"52.2373141","lng":"20.9888488","name":"\u017belazna - Ch\u0142odna","spot":"1","number":"9480","bikes":"11","bike_racks":"15","free_racks":"4","terminal_type":"7inch","bike_numbers":"24953,24832,28446,28190,28074,27786,27711,27040,26796,26154,25697","bike_types":{"4":11},"place_type":"0","rack_locks":"1"},{"uid":"2585402","lat":"52.2344946","lng":"20.9905117","name":"\u017belazna - Grzybowska","spot":"1","number":"9481","bikes":"13","bike_racks":"20","free_racks":"4","terminal_type":"7inch","bike_numbers":"24916,28384,28057,27631,27437,26867,26695,26048,26039,25641,25204,96527,96183","bike_types":{"4":13},"place_type":"0","rack_locks":"1"},{"uid":"2585405","lat":"52.238666","lng":"20.9957314","name":"al. Jana Paw\u0142a II - Plac Mirowski","spot":"1","number":"9482","bikes":"3","bike_racks":"16","free_racks":"14","terminal_type":"7inch","bike_numbers":"28121,27885,96137","bike_types":{"4":3},"place_type":"0","rack_locks":"1"},{"uid":"2585406","lat":"52.2357151","lng":"20.9966071","name":"al. Jana Paw\u0142a II - Grzybowska","spot":"1","number":"9483","bikes":"12","bike_racks":"23","free_racks":"11","terminal_type":"7inch","bike_numbers":"28749,28642,28548,27589,27499,27142,26613,25925,25622,96407,29174,29268","bike_types":{"4":12},"place_type":"0","rack_locks":"1"},{"uid":"2585410","lat":"52.23958","lng":"21.00027","name":"Ptasia - Zimna","spot":"1","number":"9485","bikes":"12","bike_racks":"16","free_racks":"4","terminal_type":"7inch","bike_numbers":"24998,24700,28331,27480,26674,26465,26125,25571,25229,28813,96443,96415","bike_types":{"4":12},"place_type":"0","rack_locks":"1"},{"uid":"2585412","lat":"52.2336314","lng":"21.0028795","name":"Emilii Plater - \u015awi\u0119tokrzyska","spot":"1","number":"9486","bikes":"16","bike_racks":"26","free_racks":"10","terminal_type":"7inch","bike_numbers":"24638,28715,28458,27286,27186,26395,26109,26040,26006,25681,25564,25313,29361,28985,96166,29177","bike_types":{"4":16},"place_type":"0","rack_locks":"1"},{"uid":"2585413","lat":"52.2358704","lng":"21.0037806","name":"Plac Grzybowski","spot":"1","number":"9487","bikes":"6","bike_racks":"26","free_racks":"18","terminal_type":"7inch","bike_numbers":"24485,28060,27062,28965,96505,96439","bike_types":{"51":1,"4":5},"place_type":"0","rack_locks":"1"},{"uid":"2585416","lat":"52.2384853","lng":"21.0067552","name":"Marsza\u0142kowska - Kr\u00f3lewska","spot":"1","number":"9488","bikes":"4","bike_racks":"19","free_racks":"16","terminal_type":"7inch","bike_numbers":"24469,25946,25654,96360","bike_types":{"51":1,"4":3},"place_type":"0","rack_locks":"1"},{"uid":"2585417","lat":"52.2364206","lng":"21.0072407","name":"Marsza\u0142kowska - Zielna","spot":"1","number":"9489","bikes":"19","bike_racks":"30","free_racks":"11","terminal_type":"7inch","bike_numbers":"24983,27868,27776,27512,27267,27264,27170,27153,26919,26770,26439,26262,26172,26103,26000,25998,25598,25169,96169","bike_types":{"4":19},"place_type":"0","rack_locks":"1"},{"uid":"2585420","lat":"52.2397008","lng":"21.0119292","name":"Plac Ma\u0142achowskiego","spot":"1","number":"9491","bikes":"8","bike_racks":"16","free_racks":"10","terminal_type":"7inch","bike_numbers":"24946,24765,27731,27383,27208,26712,26526,96503","bike_types":{"4":8},"place_type":"0","rack_locks":"1"},{"uid":"2585422","lat":"52.2359114","lng":"21.0135654","name":"Plac Powsta\u0144c\u00f3w Warszawy","spot":"1","number":"9492","bikes":"10","bike_racks":"20","free_racks":"7","terminal_type":"7inch","bike_numbers":"24608,28821,28292,27129,27126,26756,26579,25830,25620,96371","bike_types":{"4":10},"place_type":"0","rack_locks":"1"},{"uid":"2585423","lat":"52.2393559","lng":"21.016603","name":"Krakowskie Przedmie\u015bcie - Traugutta","spot":"1","number":"9493","bikes":"9","bike_racks":"24","free_racks":"15","terminal_type":"7inch","bike_numbers":"25000,27573,27138,26989,26790,26407,26128,25231,25103","bike_types":{"4":9},"place_type":"0","rack_locks":"1"},{"uid":"2585429","lat":"52.238298","lng":"21.0184014","name":"Obo\u017ana - Kopernika","spot":"1","number":"9495","bikes":"17","bike_racks":"22","free_racks":"5","terminal_type":"7inch","bike_numbers":"24693,24685,24545,28080,27319,26702,26522,26462,26243,25781,25764,25438,25430,96056,96133,96128,29159","bike_types":{"4":17},"place_type":"0","rack_locks":"1"},{"uid":"2585430","lat":"52.2418852","lng":"21.0241279","name":"Lipowa - Dobra","spot":"1","number":"9496","bikes":"4","bike_racks":"19","free_racks":"14","terminal_type":"7inch","bike_numbers":"27401,28998,96512,29216","bike_types":{"4":4},"place_type":"0","rack_locks":"1"},{"uid":"2585431","lat":"52.2413087","lng":"21.0281727","name":"Centrum Nauki Kopernik","spot":"1","number":"9497","bikes":"31","bike_racks":"30","free_racks":"3","terminal_type":"7inch","bike_numbers":"24677,28720,28405,28391,28031,27910,27899,27887,27848,27341,26933,26878,26843,26219,26162,26115,25948,25843,25704,25463,25106,25063,29027,28826,96041,29191,29172,29171,29162,29161,29244","bike_types":{"4":31},"place_type":"0","rack_locks":"1"},{"uid":"2585432","lat":"52.2264464","lng":"20.9837164","name":"Kolejowa","spot":"1","number":"9498","bikes":"7","bike_racks":"16","free_racks":"9","terminal_type":"7inch","bike_numbers":"24475,28312,28148,27915,27355,26145,25708","bike_types":{"51":1,"4":6},"place_type":"0","rack_locks":"1"},{"uid":"2585433","lat":"52.22983","lng":"20.993996","name":"\u017belazna - Sienna","spot":"1","number":"9499","bikes":"5","bike_racks":"24","free_racks":"19","terminal_type":"7inch","bike_numbers":"28748,27997,25254,28825,96142","bike_types":{"4":5},"place_type":"0","rack_locks":"1"},{"uid":"2585435","lat":"52.230201297582","lng":"20.999550819397","name":"al. Jana Paw\u0142a II - Z\u0142ota","spot":"1","number":"9500","bikes":"9","bike_racks":"16","free_racks":"7","terminal_type":"7inch","bike_numbers":"28408,27188,26739,25953,25827,25253,29032,96484,96118","bike_types":{"4":9},"place_type":"0","rack_locks":"1"},{"uid":"2585438","lat":"52.2309778","lng":"21.0036755","name":"Emilii Plater - Z\u0142ota","spot":"1","number":"9501","bikes":"32","bike_racks":"30","free_racks":"0","terminal_type":"7inch","bike_numbers":"24928,24751,24736,24521,24508,25009,28804,28512,28155,28025,27513,27160,27004,26922,26531,26066,26007,25960,25485,25483,25403,25387,25347,25303,25262,25242,25237,25088,29649,28865,96367,96134","bike_types":{"4":32},"place_type":"0","rack_locks":"1"},{"uid":"2585440","lat":"52.232816601853","lng":"21.006980538368","name":"Pa\u0142ac Kultury i Nauki","spot":"1","number":"9502","bikes":"6","bike_racks":"17","free_racks":"11","terminal_type":"7inch","bike_numbers":"24801,27199,26875,26266,26062,25465","bike_types":{"4":6},"place_type":"0","rack_locks":"1"},{"uid":"2585442","lat":"52.232934","lng":"21.0101791","name":"Marsza\u0142kowska - Z\u0142ota","spot":"1","number":"9503","bikes":"4","bike_racks":"22","free_racks":"17","terminal_type":"7inch","bike_numbers":"25644,25302,28944,96043","bike_types":{"4":4},"place_type":"0","rack_locks":"1"},{"uid":"2585445","lat":"52.231987","lng":"21.016092","name":"Bracka - Krucza","spot":"1","number":"9504","bikes":"15","bike_racks":"20","free_racks":"4","terminal_type":"7inch","bike_numbers":"24747,24619,28769,27769,26640,26252,26119,25860,25782,25772,25761,29449,96469,96466,96097","bike_types":{"4":15},"place_type":"0","rack_locks":"1"},{"uid":"2585446","lat":"52.2355713","lng":"21.0179642","name":"Nowy \u015awiat - Warecka","spot":"1","number":"9505","bikes":"14","bike_racks":"24","free_racks":"10","terminal_type":"7inch","bike_numbers":"24506,28612,28269,27677,27282,25540,25524,25442,25398,25094,29092,25624,96058,96028","bike_types":{"4":14},"place_type":"0","rack_locks":"1"},{"uid":"2585447","lat":"52.2337571","lng":"21.0202789","name":"Ga\u0142czy\u0144skiego - Foksal","spot":"1","number":"9506","bikes":"17","bike_racks":"24","free_racks":"7","terminal_type":"7inch","bike_numbers":"24824,28154,27790,27665,27413,26947,26747,26211,25939,25733,25359,25071,96432,29196,29195,29227,29218","bike_types":{"4":17},"place_type":"0","rack_locks":"1"},{"uid":"2585450","lat":"52.2375934","lng":"21.0256487","name":"Topiel - Tamka","spot":"1","number":"9507","bikes":"29","bike_racks":"20","free_racks":"3","terminal_type":"7inch","bike_numbers":"24980,24828,28734,28701,28630,28565,28443,28272,27661,27600,27551,27440,27365,27130,27087,26807,26718,26435,26259,26240,26002,25670,25294,25013,29367,25630,25625,28867,96386","bike_types":{"4":29},"place_type":"0","rack_locks":"1"},{"uid":"2585452","lat":"52.2358752","lng":"21.0317323","name":"Solec - Jaracza","spot":"1","number":"9508","bikes":"9","bike_racks":"15","free_racks":"4","terminal_type":"7inch","bike_numbers":"24564,28646,28460,28406,28265,26811,25935,25933,96528","bike_types":{"4":9},"place_type":"0","rack_locks":"1"},{"uid":"2585453","lat":"52.2218874","lng":"20.9795301","name":"al. Jerozolimskie - Niemcewicza","spot":"1","number":"9509","bikes":"2","bike_racks":"19","free_racks":"17","terminal_type":"7inch","bike_numbers":"28660,26495","bike_types":{"4":2},"place_type":"0","rack_locks":"1"},{"uid":"2585455","lat":"52.2222155","lng":"20.9866293","name":"Ochota-Ratusz","spot":"1","number":"9510","bikes":"6","bike_racks":"23","free_racks":"16","terminal_type":"7inch","bike_numbers":"24853,24762,24043,27764,96275,96177","bike_types":{"4":5,"26":1},"place_type":"0","rack_locks":"1"},{"uid":"2585457","lat":"52.2249718","lng":"20.9897661","name":"Plac Zawiszy","spot":"1","number":"9511","bikes":"15","bike_racks":"24","free_racks":"10","terminal_type":"7inch","bike_numbers":"24577,28254,27867,26917,26520,26203,25723,25517,25016,29105,29057,28912,25961,96513,96493","bike_types":{"4":15},"place_type":"0","rack_locks":"1"},{"uid":"2585460","lat":"52.22626","lng":"20.9961309","name":"al. Jerozolimskie - Lindleya","spot":"1","number":"9512","bikes":"5","bike_racks":"15","free_racks":"9","terminal_type":"7inch","bike_numbers":"26428,25851,25177,25064,96026","bike_types":{"4":5},"place_type":"0","rack_locks":"1"},{"uid":"2585462","lat":"52.2241455","lng":"20.9975244","name":"Lindleya - szpital","spot":"1","number":"9513","bikes":"17","bike_racks":"28","free_racks":"14","terminal_type":"7inch","bike_numbers":"24806,28564,28563,28547,28493,26916,26662,26549,26356,26289,25978,25800,25648,29113,28894,96024,96006","bike_types":{"4":17},"place_type":"0","rack_locks":"1"},{"uid":"2585464","lat":"52.227861","lng":"21.0008509","name":"Warszawa \u015ar\u00f3dmie\u015bcie WKD","spot":"1","number":"9514","bikes":"12","bike_racks":"18","free_racks":"7","terminal_type":"7inch","bike_numbers":"24942,24927,24880,24543,28142,27796,27778,27521,27289,26402,26111,29456","bike_types":{"4":12},"place_type":"0","rack_locks":"1"},{"uid":"2585466","lat":"52.2249555","lng":"21.0031664","name":"Oczki - WUM","spot":"1","number":"9515","bikes":"19","bike_racks":"19","free_racks":"0","terminal_type":"7inch","bike_numbers":"24720,24455,28667,28089,27749,27506,27488,27384,27181,27091,27071,27008,26988,25464,25226,96099,96095,29210,29224","bike_types":{"4":18,"51":1},"place_type":"0","rack_locks":"1"},{"uid":"2585469","lat":"52.2290464","lng":"21.0054544","name":"Emilii Plater - Al. Jerozolimskie","spot":"1","number":"9517","bikes":"13","bike_racks":"30","free_racks":"13","terminal_type":"7inch","bike_numbers":"24458,28763,28141,27686,27146,27123,27066,27023,26886,25639,25109,28936,28841","bike_types":{"51":1,"4":12},"place_type":"0","rack_locks":"1"},{"uid":"2585470","lat":"52.2259343","lng":"21.0067537","name":"Emilii Plater - Wsp\u00f3lna","spot":"1","number":"9518","bikes":"13","bike_racks":"15","free_racks":"2","terminal_type":"7inch","bike_numbers":"24510,28380,28046,27429,26653,26581,26135,25863,25713,25468,25283,96046,29166","bike_types":{"4":13},"place_type":"0","rack_locks":"1"},{"uid":"2585472","lat":"52.23001","lng":"21.01088","name":"Metro Centrum","spot":"1","number":"9519","bikes":"22","bike_racks":"30","free_racks":"7","terminal_type":"7inch","bike_numbers":"24921,24531,24522,28685,28681,28664,28624,27846,27296,27245,27090,26509,26225,26086,25966,25963,25270,25126,29345,29451,96531,96263","bike_types":{"4":22},"place_type":"0","rack_locks":"1"},{"uid":"2585473","lat":"52.229347019086","lng":"21.011314988136","name":"Marsza\u0142kowska - Al. Jerozolimskie","spot":"1","number":"9520","bikes":"14","bike_racks":"20","free_racks":"6","terminal_type":"7inch","bike_numbers":"24780,28534,28303,28279,28276,28253,27921,27767,27036,26630,26585,25932,25304,96167","bike_types":{"4":14},"place_type":"0","rack_locks":"1"},{"uid":"2585476","lat":"52.230418150276","lng":"21.013610959053","name":"al. Jerozolimskie - rejon Rotundy","spot":"1","number":"9521","bikes":"13","bike_racks":"24","free_racks":"11","terminal_type":"7inch","bike_numbers":"24631,28702,28589,28286,27693,27148,26665,25541,25310,96214,96076,29147,29255","bike_types":{"4":13},"place_type":"0","rack_locks":"1"},{"uid":"2585477","lat":"52.2262882","lng":"21.0135705","name":"Marsza\u0142kowska - Ho\u017ca","spot":"1","number":"9522","bikes":"4","bike_racks":"15","free_racks":"10","terminal_type":"7inch","bike_numbers":"27059,25030,29446,96100","bike_types":{"4":4},"place_type":"0","rack_locks":"1"},{"uid":"2585492","lat":"52.2282923","lng":"21.0178542","name":"Krucza - Wsp\u00f3lna","spot":"1","number":"9523","bikes":"14","bike_racks":"28","free_racks":"14","terminal_type":"7inch","bike_numbers":"24512,28586,28414,27745,27572,26580,26379,26281,26044,25712,25583,25481,96550,96159","bike_types":{"4":14},"place_type":"0","rack_locks":"1"},{"uid":"2585684","lat":"52.23144","lng":"21.0213036","name":"Rondo de Gaulle'a","spot":"1","number":"9524","bikes":"18","bike_racks":"22","free_racks":"4","terminal_type":"7inch","bike_numbers":"24470,28739,28050,27874,27833,27795,27724,27016,26737,26244,26068,25967,25651,25035,29103,96276,96081,29223","bike_types":{"51":1,"4":17},"place_type":"0","rack_locks":"1"},{"uid":"2585694","lat":"52.2278487","lng":"21.0235084","name":"Plac Trzech Krzy\u017cy","spot":"1","number":"9525","bikes":"17","bike_racks":"23","free_racks":"4","maintenance":"1","terminal_type":"7inch","bike_numbers":"24716,24006,28082,27399,27266,26446,26329,26307,26246,25929,25882,25327,25215,28838,96437,29256,29222","bike_types":{"4":16,"26":1},"place_type":"0","rack_locks":"1"},{"uid":"2585695","lat":"52.23324","lng":"21.0261179","name":"Smolna - PKP Powi\u015ble","spot":"1","number":"9526","bikes":"16","bike_racks":"18","free_racks":"2","terminal_type":"7inch","bike_numbers":"24908,24809,24642,24636,28650,28365,28330,28052,27952,27235,27202,27061,26874,26603,26338,25112","bike_types":{"4":16},"place_type":"0","rack_locks":"1"},{"uid":"2585699","lat":"52.2340191","lng":"21.0300328","name":"Herberta - PKP Powi\u015ble","spot":"1","number":"9527","bikes":"37","bike_racks":"26","free_racks":"1","terminal_type":"7inch","bike_numbers":"24973,24888,24875,24859,24683,24665,24459,28639,28616,28139,27757,27615,27590,27579,27486,27418,27405,27209,26851,26573,25725,25532,25299,25142,25132,25079,29106,29448,29554,29121,28888,28918,96304,96191,96172,29153,96589","bike_types":{"4":35,"51":1,"0":1},"place_type":"0","rack_locks":"1"},{"uid":"2585704","lat":"52.2347879","lng":"21.0340991","name":"Solec - al. 3 Maja","spot":"1","number":"9528","bikes":"26","bike_racks":"24","free_racks":"0","terminal_type":"7inch","bike_numbers":"24827,24625,24596,24497,28732,28472,28123,27658,27228,26676,26481,26187,25911,25798,25732,25618,25034,25031,29080,29431,28995,96487,96292,96080,29168,24049","bike_types":{"4":24,"51":1,"26":1},"place_type":"0","rack_locks":"1"},{"uid":"2585708","lat":"52.2301405","lng":"21.0303694","name":"Ksi\u0105\u017c\u0119ca - Rozbrat","spot":"1","number":"9529","bikes":"18","bike_racks":"15","free_racks":"0","terminal_type":"7inch","bike_numbers":"24471,24015,28750,28538,28020,27967,27082,26516,26457,25890,25880,25864,25793,25409,25342,29007,96434,96235","bike_types":{"51":1,"26":1,"4":16},"place_type":"0","rack_locks":"1"},{"uid":"2585711","lat":"52.2172177","lng":"20.9713608","name":"Szcz\u0119\u015bliwicka - APS","spot":"1","number":"9530","bikes":"7","bike_racks":"22","free_racks":"14","terminal_type":"7inch","bike_numbers":"24976,27642,27463,27213,26736,26092,25563","bike_types":{"4":7},"place_type":"0","rack_locks":"1"},{"uid":"2585712","lat":"52.2179474","lng":"20.9775567","name":"Kopi\u0144ska - Bia\u0142obrzeska","spot":"1","number":"9531","bikes":"7","bike_racks":"15","free_racks":"8","terminal_type":"7inch","bike_numbers":"28768,28757,27312,25784,25170,25074,96348","bike_types":{"4":7},"place_type":"0","rack_locks":"1"},{"uid":"2585714","lat":"52.2178554","lng":"20.9828138","name":"Plac Narutowicza","spot":"1","number":"9532","bikes":"15","bike_racks":"30","free_racks":"15","terminal_type":"7inch","bike_numbers":"28708,28652,28449,27107,26490,26412,25373,25183,25082,29344,28806,96498,96365,96319,96121","bike_types":{"4":15},"place_type":"0","rack_locks":"1"},{"uid":"2585716","lat":"52.216641","lng":"20.9879476","name":"Raszy\u0144ska - Wawelska","spot":"1","number":"9533","bikes":"0","bike_racks":"12","free_racks":"12","terminal_type":"7inch","place_type":"0","rack_locks":"1","bike_numbers":null,"bike_types":[]},{"uid":"2585717","lat":"52.2191029","lng":"20.9890149","name":"Raszy\u0144ska - Filtrowa","spot":"1","number":"9534","bikes":"4","bike_racks":"18","free_racks":"14","terminal_type":"7inch","bike_numbers":"24022,26471,25871,25218","bike_types":{"26":1,"4":3},"place_type":"0","rack_locks":"1"},{"uid":"2585720","lat":"52.220676","lng":"21.0045554","name":"al. Niepodleg\u0142o\u015bci - Nowowiejska","spot":"1","number":"9535","bikes":"14","bike_racks":"30","free_racks":"16","terminal_type":"7inch","bike_numbers":"24961,28700,28654,27497,27156,27022,26586,26141,25886,25679,25279,96012,96009,96243","bike_types":{"4":14},"place_type":"0","rack_locks":"1"},{"uid":"2585721","lat":"52.2174693","lng":"21.0056537","name":"Kaczy\u0144skiego - al. Niepodleg\u0142o\u015bci","spot":"1","number":"9536","bikes":"2","bike_racks":"16","free_racks":"13","terminal_type":"7inch","bike_numbers":"28764,28055","bike_types":{"4":2},"place_type":"0","rack_locks":"1"},{"uid":"2585722","lat":"52.2226831","lng":"21.0081097","name":"Noakowskiego - Koszykowa","spot":"1","number":"9537","bikes":"7","bike_racks":"24","free_racks":"17","terminal_type":"7inch","bike_numbers":"24038,28008,27343,26828,26369,25919,25501","bike_types":{"26":1,"4":6},"place_type":"0","rack_locks":"1"},{"uid":"2585724","lat":"52.219916","lng":"21.0116824","name":"Plac Politechniki","spot":"1","number":"9538","bikes":"0","bike_racks":"27","free_racks":"27","terminal_type":"7inch","place_type":"0","rack_locks":"1","bike_numbers":null,"bike_types":[]},{"uid":"2585727","lat":"52.223503","lng":"21.0128519","name":"Pozna\u0144ska - Zesp\u00f3\u0142 Szk\u00f3\u0142 Gastronomicznych","spot":"1","number":"9539","bikes":"8","bike_racks":"18","free_racks":"10","terminal_type":"7inch","bike_numbers":"24466,28027,27406,26795,26513,26047,25872,96586","bike_types":{"51":1,"4":7},"place_type":"0","rack_locks":"1"},{"uid":"2585728","lat":"52.2174857","lng":"21.0142949","name":"Rondo Jazdy Polskiej","spot":"1","number":"9540","bikes":"9","bike_racks":"24","free_racks":"13","terminal_type":"7inch","bike_numbers":"24951,27740,26724,25457,25412,28840,96060,96057,96459","bike_types":{"4":9},"place_type":"0","rack_locks":"1"},{"uid":"2585729","lat":"52.2197435","lng":"21.0157353","name":"Metro Politechnika - Nowowiejska","spot":"1","number":"9541","bikes":"4","bike_racks":"18","free_racks":"14","terminal_type":"7inch","bike_numbers":"24680,27189,26717,26093","bike_types":{"4":4},"place_type":"0","rack_locks":"1"},{"uid":"2585731","lat":"52.2197681","lng":"21.0172775","name":"Plac Zbawiciela","spot":"1","number":"9542","bikes":"17","bike_racks":"12","free_racks":"0","terminal_type":"7inch","bike_numbers":"28355,28156,27935,27675,27408,27231,27159,27131,26772,26184,25969,25826,25369,28916,96014,96565,96158","bike_types":{"4":17},"place_type":"0","rack_locks":"1"},{"uid":"2585735","lat":"52.2229427","lng":"21.0158211","name":"Plac Konstytucji","spot":"1","number":"9543","bikes":"7","bike_racks":"30","free_racks":"25","terminal_type":"7inch","bike_numbers":"24913,27829,26740,26722,25595,25334,96507","bike_types":{"4":7},"place_type":"0","rack_locks":"1"},{"uid":"2585737","lat":"52.2238152","lng":"21.0207859","name":"Mokotowska - Pi\u0119kna","spot":"1","number":"9544","bikes":"3","bike_racks":"20","free_racks":"17","terminal_type":"7inch","bike_numbers":"27645,27369,26488","bike_types":{"4":3},"place_type":"0","rack_locks":"1"},{"uid":"2585738","lat":"52.2200212","lng":"21.0256299","name":"Plac na Rozdro\u017cu","spot":"1","number":"9545","bikes":"24","bike_racks":"26","free_racks":"0","terminal_type":"7inch","bike_numbers":"24569,24518,28457,27982,27809,27396,27179,26893,26385,26200,25812,25678,25643,25173,25134,25129,25097,28909,25626,28839,28833,96515,96126,96082","bike_types":{"4":24},"place_type":"0","rack_locks":"1"},{"uid":"2585742","lat":"52.2249504","lng":"21.0268155","name":"Matejki - Wiejska","spot":"1","number":"9546","bikes":"11","bike_racks":"20","free_racks":"9","terminal_type":"7inch","bike_numbers":"24999,24797,27941,27568,27561,27324,26648,26563,26503,29347,96211","bike_types":{"4":11},"place_type":"0","rack_locks":"1"},{"uid":"2585747","lat":"52.2221129","lng":"21.0343873","name":"My\u015bliwiecka - Rozbrat","spot":"1","number":"9547","bikes":"38","bike_racks":"21","free_racks":"0","terminal_type":"7inch","bike_numbers":"24722,24678,24654,24502,24501,28595,28528,28501,28040,27898,27775,27637,27134,27044,27007,26957,26934,26887,26850,26742,26638,26498,26493,26205,25934,25788,25686,25668,25554,25441,29091,29017,28805,96568,96558,96193,96156,29250","bike_types":{"4":38},"place_type":"0","rack_locks":"1"},{"uid":"2585748","lat":"52.2277124","lng":"21.0442955","name":"Port Czerniakowski","spot":"1","number":"9548","bikes":"16","bike_racks":"30","free_racks":"13","terminal_type":"7inch","bike_numbers":"24933,24838,24026,28723,28637,27907,27803,27777,27515,27203,26273,25773,25051,96003,96441,29252","bike_types":{"4":15,"26":1},"place_type":"0","rack_locks":"1"},{"uid":"2585749","lat":"52.2109711","lng":"20.9759125","name":"Gr\u00f3jecka - Bitwy Warszawskiej 1920 roku","spot":"1","number":"9549","bikes":"14","bike_racks":"20","free_racks":"5","terminal_type":"7inch","bike_numbers":"24556,24542,24044,28115,27477,26995,26453,26437,26178,29134,28879,96255,96092,29211","bike_types":{"4":13,"26":1},"place_type":"0","rack_locks":"1"},{"uid":"2585750","lat":"52.2130296","lng":"20.9819985","name":"Pasteura - Winnicka - UW","spot":"1","number":"9550","bikes":"7","bike_racks":"24","free_racks":"16","terminal_type":"7inch","bike_numbers":"24831,28593,27802,26096,96266,29240,96585","bike_types":{"4":7},"place_type":"0","rack_locks":"1"},{"uid":"2585762","lat":"52.2107722","lng":"20.9847557","name":"Stefana Banacha - UW","spot":"1","number":"9551","bikes":"9","bike_racks":"29","free_racks":"18","terminal_type":"7inch","bike_numbers":"28324,26826,26696,26561,25663,60854,28830,96472,96576","bike_types":{"4":9},"place_type":"0","rack_locks":"1"},{"uid":"2585764","lat":"52.212671","lng":"21.003437","name":"Biblioteka Narodowa","spot":"1","number":"9552","bikes":"6","bike_racks":"24","free_racks":"16","terminal_type":"7inch","bike_numbers":"24664,27716,27420,25116,29073,96370","bike_types":{"4":6},"place_type":"0","rack_locks":"1"},{"uid":"2585766","lat":"52.21691","lng":"21.01997","name":"Marsza\u0142kowska - Litewska","spot":"1","number":"9553","bikes":"7","bike_racks":"15","free_racks":"9","terminal_type":"7inch","bike_numbers":"24534,27734,27508,26932,26148,25658,25476","bike_types":{"4":7},"place_type":"0","rack_locks":"1"},{"uid":"2585770","lat":"52.2083858","lng":"20.9631103","name":"P\u0119tla Szcz\u0119\u015bliwice","spot":"1","number":"9554","bikes":"14","bike_racks":"19","free_racks":"5","terminal_type":"7inch","bike_numbers":"24905,24795,24562,28692,28473,27726,27329,27064,27057,26431,25874,25422,25392,96279","bike_types":{"4":14},"place_type":"0","rack_locks":"1"},{"uid":"2585771","lat":"52.206153650625","lng":"20.970287919044","name":"Dickensa - Geodet\u00f3w","spot":"1","number":"9555","bikes":"11","bike_racks":"16","free_racks":"8","terminal_type":"7inch","bike_numbers":"24924,24668,24033,27162,26766,26612,26026,25748,25168,96112,29160","bike_types":{"4":10,"26":1},"place_type":"0","rack_locks":"1"},{"uid":"2585772","lat":"52.205361371875","lng":"20.984664559364","name":"\u017bwirki i Wigury - Ksi\u0119cia Trojdena","spot":"1","number":"9556","bikes":"2","bike_racks":"17","free_racks":"15","terminal_type":"7inch","bike_numbers":"24995,25992","bike_types":{"4":2},"place_type":"0","rack_locks":"1"},{"uid":"2585774","lat":"52.205801893754","lng":"20.998928546906","name":"Rakowiecka - \u015aw. A. Boboli","spot":"1","number":"9557","bikes":"4","bike_racks":"17","free_racks":"13","terminal_type":"7inch","bike_numbers":"24850,26322,25350,96181","bike_types":{"4":4},"place_type":"0","rack_locks":"1"},{"uid":"2585776","lat":"52.209916","lng":"21.0067794","name":"al. Niepodleg\u0142o\u015bci - Batorego","spot":"1","number":"9558","bikes":"11","bike_racks":"26","free_racks":"7","terminal_type":"7inch","bike_numbers":"24732,28281,28038,26962,26587,26350,25878,25499,96427,96083,29205","bike_types":{"4":11},"place_type":"0","rack_locks":"1"},{"uid":"2585779","lat":"52.2132375","lng":"21.0210568","name":"Plac Unii Lubelskiej","spot":"1","number":"9559","bikes":"3","bike_racks":"24","free_racks":"19","terminal_type":"7inch","bike_numbers":"24550,28648,25938","bike_types":{"4":3},"place_type":"0","rack_locks":"1"},{"uid":"2585781","lat":"52.2027557","lng":"20.9508951","name":"W\u0142odarzewska - Maszynowa","spot":"1","number":"9560","bikes":"3","bike_racks":"18","free_racks":"15","terminal_type":"7inch","bike_numbers":"27819,26749,96328","bike_types":{"4":3},"place_type":"0","rack_locks":"1"},{"uid":"2585782","lat":"52.2017647","lng":"20.9820897","name":"Sanocka - Pruszkowska","spot":"1","number":"9561","bikes":"7","bike_racks":"15","free_racks":"11","terminal_type":"7inch","bike_numbers":"26975,26895,26894,26793,26204,96476,29207","bike_types":{"4":7},"place_type":"0","rack_locks":"1"},{"uid":"2585785","lat":"52.1981365","lng":"20.9833717","name":"\u017bwirki i Wigury - Rac\u0142awicka","spot":"1","number":"9562","bikes":"1","bike_racks":"18","free_racks":"18","terminal_type":"7inch","bike_numbers":"26434","bike_types":{"4":1},"place_type":"0","rack_locks":"1"},{"uid":"2585787","lat":"52.20177","lng":"20.99969","name":"Wo\u0142oska - Kulskiego","spot":"1","number":"9563","bikes":"0","bike_racks":"15","free_racks":"14","terminal_type":"7inch","place_type":"0","rack_locks":"1","bike_numbers":null,"bike_types":[]},{"uid":"2585788","lat":"52.2042638","lng":"21.014428","name":"Madali\u0144skiego - Kazimierzowska","spot":"1","number":"9564","bikes":"1","bike_racks":"24","free_racks":"24","terminal_type":"7inch","bike_numbers":"25072","bike_types":{"4":1},"place_type":"0","rack_locks":"1"},{"uid":"2585789","lat":"52.2055175","lng":"21.0231033","name":"Pu\u0142awska - Dworkowa","spot":"1","number":"9565","bikes":"19","bike_racks":"19","free_racks":"6","terminal_type":"7inch","bike_numbers":"24526,28752,28521,28032,27926,27468,27410,27362,27132,27088,26982,26378,26218,26077,26072,25837,29081,96523,29204","bike_types":{"4":19},"place_type":"0","rack_locks":"1"},{"uid":"2585790","lat":"52.2071756","lng":"21.0312643","name":"Belwederska - Gagarina","spot":"1","number":"9566","bikes":"34","bike_racks":"30","free_racks":"0","terminal_type":"7inch","bike_numbers":"24911,24601,25001,28903,28728,28713,28604,28546,28469,28360,27882,27641,27414,27288,27251,27000,26409,26195,26069,25898,25664,25573,25516,25500,25361,25331,25315,25022,29065,28924,28895,96033,96205,96204","bike_types":{"4":34},"place_type":"0","rack_locks":"1"},{"uid":"2585791","lat":"52.2074193","lng":"21.0479621","name":"Czerniakowska - Gagarina","spot":"1","number":"9567","bikes":"54","bike_racks":"25","free_racks":"0","terminal_type":"7inch","bike_numbers":"24974,24854,24811,24782,24767,24754,24663,24645,24607,28570,28429,28091,28023,27932,27866,27826,27801,27660,27510,27483,27391,27302,26889,26710,26615,26537,26232,26201,26167,26042,26030,25990,25955,25870,25589,25523,25484,25454,25354,25212,25172,25086,25026,29083,29362,63613,96485,96452,96426,96316,96303,96225,96094,29192","bike_types":{"4":54},"place_type":"0","rack_locks":"1"},{"uid":"2585794","lat":"52.1938131","lng":"20.9914431","name":"Etiudy Rewolucyjnej - Mi\u0105czy\u0144ska","spot":"1","number":"9568","bikes":"22","bike_racks":"18","free_racks":"0","terminal_type":"7inch","bike_numbers":"24775,24726,24489,28707,28005,27957,27750,27549,27536,27525,27125,26382,25660,25418,25308,25263,25178,25059,25011,28798,96254,24052","bike_types":{"4":20,"51":1,"26":1},"place_type":"0","rack_locks":"1"},{"uid":"2585799","lat":"52.1994156","lng":"21.0121384","name":"Metro Rac\u0142awicka","spot":"1","number":"9570","bikes":"8","bike_racks":"30","free_racks":"21","terminal_type":"7inch","bike_numbers":"24718,28504,27143,26306,26208,26113,26052,26046","bike_types":{"4":8},"place_type":"0","rack_locks":"1"},{"uid":"2585800","lat":"52.199505","lng":"21.0240975","name":"Pu\u0142awska - Dolna","spot":"1","number":"9571","bikes":"9","bike_racks":"18","free_racks":"10","terminal_type":"7inch","bike_numbers":"24590,27772,27225,26571,25749,25408,25015,96387,96362","bike_types":{"4":9},"place_type":"0","rack_locks":"1"},{"uid":"2585802","lat":"52.2014754","lng":"21.0360047","name":"Sobieskiego - Che\u0142mska","spot":"1","number":"9572","bikes":"43","bike_racks":"15","free_racks":"0","terminal_type":"7inch","bike_numbers":"24873,24837,24671,28819,28759,28296,28261,28088,28065,28047,27968,27959,27955,27668,27605,27582,27395,27392,27309,27248,27117,26831,26753,26390,26299,26264,26102,25986,25808,25488,25410,25251,25250,25228,29458,29454,29129,29137,28864,28849,28988,96038,96447","bike_types":{"4":41,"0":2},"place_type":"0","rack_locks":"1"},{"uid":"2585804","lat":"52.1998446","lng":"21.05095","name":"Czerniakowska - ZUS","spot":"1","number":"9573","bikes":"7","bike_racks":"15","free_racks":"8","terminal_type":"7inch","bike_numbers":"28341,28030,27496,29036,29128,96457,96270","bike_types":{"4":6,"0":1},"place_type":"0","rack_locks":"1"},{"uid":"2585807","lat":"52.1916776","lng":"20.8689688","name":"PKP Ursus-Nied\u017awiadek","spot":"1","number":"9574","bikes":"8","bike_racks":"15","free_racks":"6","terminal_type":"7inch","bike_numbers":"28195,28054,27598,27237,26977,26290,26257,29452","bike_types":{"4":8},"place_type":"0","rack_locks":"1"},{"uid":"2585808","lat":"52.1960469","lng":"20.8849347","name":"PKP Ursus","spot":"1","number":"9575","bikes":"6","bike_racks":"16","free_racks":"11","terminal_type":"7inch","bike_numbers":"28287,28122,27569,27485,26805,25256","bike_types":{"4":6},"place_type":"0","rack_locks":"1"},{"uid":"2585809","lat":"52.1869936","lng":"20.8906478","name":"Sosnkowskiego - OSiR Ursus","spot":"1","number":"9576","bikes":"12","bike_racks":"15","free_racks":"2","terminal_type":"7inch","bike_numbers":"24932,24576,28704,28336,28037,27247,27217,27139,27118,25786,28921,28961","bike_types":{"4":12},"place_type":"0","rack_locks":"1"},{"uid":"2585811","lat":"52.2005548","lng":"20.8937538","name":"Ursus-Ratusz","spot":"1","number":"9577","bikes":"10","bike_racks":"15","free_racks":"5","terminal_type":"7inch","bike_numbers":"24866,24541,28905,27509,27116,26859,26602,25165,28880,96116","bike_types":{"4":10},"place_type":"0","rack_locks":"1"},{"uid":"2585814","lat":"52.1906376","lng":"20.8999443","name":"Skoroszewska - Prystora","spot":"1","number":"9578","bikes":"17","bike_racks":"17","free_racks":"0","terminal_type":"7inch","bike_numbers":"28422,28387,28258,28211,27963,27825,27539,27348,27046,25924,25794,25189,25040,96403,96309,96135,96091","bike_types":{"4":17},"place_type":"0","rack_locks":"1"},{"uid":"2585817","lat":"52.1882609","lng":"20.9603771","name":"G\u0142adka - OSiR W\u0142ochy","spot":"1","number":"9579","bikes":"5","bike_racks":"16","free_racks":"10","terminal_type":"7inch","bike_numbers":"28110,26618,25194,96280,29186","bike_types":{"4":5},"place_type":"0","rack_locks":"1"},{"uid":"2585820","lat":"52.2056441","lng":"20.9159142","name":"PKP W\u0142ochy","spot":"1","number":"9580","bikes":"11","bike_racks":"17","free_racks":"7","terminal_type":"7inch","bike_numbers":"24935,28591,28491,27377,27092,26715,25974,25193,29067,96422,29173","bike_types":{"4":11},"place_type":"0","rack_locks":"1"},{"uid":"2585821","lat":"52.2012157","lng":"20.9353145","name":"al. Jerozolimskie - Popularna","spot":"1","number":"9581","bikes":"7","bike_racks":"17","free_racks":"10","terminal_type":"7inch","bike_numbers":"24724,24016,28135,28062,27624,25117,28848","bike_types":{"4":6,"26":1},"place_type":"0","rack_locks":"1"},{"uid":"2585824","lat":"52.1924709","lng":"20.9596664","name":"W\u0142ochy-Ratusz","spot":"1","number":"9582","bikes":"19","bike_racks":"14","free_racks":"0","terminal_type":"7inch","bike_numbers":"24496,28582,28417,28192,28112,27093,26583,26474,26209,26170,26057,25962,25475,28857,28914,96542,96152,96105,29188","bike_types":{"51":1,"4":18},"place_type":"0","rack_locks":"1"},{"uid":"2585825","lat":"52.1946888","lng":"20.9667823","name":"1 Sierpnia - DK W\u0142ochy","spot":"1","number":"9583","bikes":"6","bike_racks":"15","free_racks":"11","terminal_type":"7inch","bike_numbers":"24753,24666,28572,26164,25859,25420","bike_types":{"4":6},"place_type":"0","rack_locks":"1"},{"uid":"2585827","lat":"52.1888962","lng":"21.0175887","name":"Metro Wierzbno","spot":"1","number":"9584","bikes":"21","bike_racks":"20","free_racks":"0","terminal_type":"7inch","bike_numbers":"24844,24744,24599,28817,28033,27808,27597,27595,27593,27474,27471,27353,26591,26436,26311,26294,25844,25828,25737,29644,28778","bike_types":{"4":21},"place_type":"0","rack_locks":"1"},{"uid":"2585830","lat":"52.18648","lng":"21.02538","name":"Pu\u0142awska - Idzikowskiego","spot":"1","number":"9585","bikes":"10","bike_racks":"17","free_racks":"7","terminal_type":"7inch","bike_numbers":"24868,24593,28820,27759,27663,26284,26271,26073,25510,25102","bike_types":{"4":10},"place_type":"0","rack_locks":"1"},{"uid":"2585835","lat":"52.1882861","lng":"21.0498825","name":"Sobieskiego - Mangalia","spot":"1","number":"9586","bikes":"19","bike_racks":"15","free_racks":"0","terminal_type":"7inch","bike_numbers":"28071,27951,27944,27891,27246,27244,27112,26983,26190,26146,25823,25699,25395,25213,28872,28975,96562,96473,29158","bike_types":{"4":19},"place_type":"0","rack_locks":"1"},{"uid":"2585837","lat":"52.178777","lng":"21.0016387","name":"Wo\u0142oska - Marynarska","spot":"1","number":"9588","bikes":"14","bike_racks":"26","free_racks":"13","terminal_type":"7inch","bike_numbers":"24719,24627,24571,28869,27964,27913,27909,27409,26864,26367,25314,25098,28981,28868","bike_types":{"4":14},"place_type":"0","rack_locks":"1"},{"uid":"2585838","lat":"52.1800882","lng":"21.0207403","name":"al. Niepodleg\u0142o\u015bci - al. Wilanowska","spot":"1","number":"9589","bikes":"12","bike_racks":"22","free_racks":"7","terminal_type":"7inch","bike_numbers":"24626,28520,28364,27461,27430,27374,27164,26223,25439,25148,96490,96261","bike_types":{"4":12},"place_type":"0","rack_locks":"1"},{"uid":"2585839","lat":"52.1779163","lng":"21.049562","name":"P\u0119tla Stegny","spot":"1","number":"9590","bikes":"25","bike_racks":"23","free_racks":"1","terminal_type":"7inch","bike_numbers":"24887,24672,24652,24557,28698,28622,28617,28477,28109,27878,27705,26711,26555,26137,25703,25546,25498,25494,25301,29024,28940,28938,29387,96482,96215","bike_types":{"4":25},"place_type":"0","rack_locks":"1"},{"uid":"2585843","lat":"52.1818472","lng":"21.0562822","name":"Sobieskiego - \u015bw. Bonifacego","spot":"1","number":"9591","bikes":"12","bike_racks":"22","free_racks":"9","terminal_type":"7inch","bike_numbers":"28892,28598,28018,26652,26422,26418,26309,25378,25234,25232,25067,96369","bike_types":{"4":12},"place_type":"0","rack_locks":"1"},{"uid":"2585844","lat":"52.1702836","lng":"20.9959132","name":"P\u0119tla Bokserska","spot":"1","number":"9592","bikes":"17","bike_racks":"15","free_racks":"0","terminal_type":"7inch","bike_numbers":"24954,24786,24453,28666,28418,28400,28048,27346,26728,26714,26123,26071,26019,25988,25940,25491,29055","bike_types":{"4":16,"51":1},"place_type":"0","rack_locks":"1"},{"uid":"2585846","lat":"52.1710498","lng":"21.0059144","name":"Gintrowskiego - Gotarda","spot":"1","number":"9593","bikes":"11","bike_racks":"15","free_racks":"4","terminal_type":"7inch","bike_numbers":"24985,28674,28510,28371,28210,27855,26984,26655,26386,25508,28933","bike_types":{"4":11},"place_type":"0","rack_locks":"1"},{"uid":"2585848","lat":"52.174435","lng":"21.0128814","name":"al. Lotnik\u00f3w - Kaczmarskiego","spot":"1","number":"9594","bikes":"15","bike_racks":"30","free_racks":"13","terminal_type":"7inch","bike_numbers":"24920,24472,28412,28111,28076,27880,27656,27621,26507,26239,26112,25833,25584,25171,29084","bike_types":{"4":14,"51":1},"place_type":"0","rack_locks":"1"},{"uid":"2585850","lat":"52.1733132","lng":"21.0257305","name":"Metro S\u0142u\u017cew","spot":"1","number":"9595","bikes":"8","bike_racks":"24","free_racks":"15","terminal_type":"7inch","bike_numbers":"28013,26448,26087,25557,25235,29110,28906,96010","bike_types":{"4":8},"place_type":"0","rack_locks":"1"},{"uid":"2585853","lat":"52.17343","lng":"21.03179","name":"Wa\u0142brzyska - Wr\u00f3bla","spot":"1","number":"9596","bikes":"19","bike_racks":"30","free_racks":"12","terminal_type":"7inch","bike_numbers":"24851,24546,24515,28634,28580,27706,27555,26914,26904,26280,25849,25758,25576,25482,25460,25199,29021,28847,96455","bike_types":{"4":19},"place_type":"0","rack_locks":"1"},{"uid":"2585856","lat":"52.170135","lng":"21.0685748","name":"Jana III Sobieskiego - al. Wilanowska","spot":"1","number":"9597","bikes":"4","bike_racks":"15","free_racks":"9","terminal_type":"7inch","bike_numbers":"26776,26748,26034,29170","bike_types":{"4":4},"place_type":"0","rack_locks":"1"},{"uid":"2585860","lat":"52.1655879","lng":"21.0839331","name":"al. Wilanowska - Przycz\u00f3\u0142kowa","spot":"1","number":"9598","bikes":"9","bike_racks":"16","free_racks":"3","terminal_type":"7inch","bike_numbers":"24778,27407,27197,26687,26646,26038,26008,25528,96229","bike_types":{"4":9},"place_type":"0","rack_locks":"1"},{"uid":"2585863","lat":"52.16479","lng":"21.10925","name":"Vogla - Syta","spot":"1","number":"9599","bikes":"7","bike_racks":"16","free_racks":"9","terminal_type":"7inch","bike_numbers":"24791,28497,27227,26857,26389,28810,28881","bike_types":{"4":7},"place_type":"0","rack_locks":"1"},{"uid":"2585868","lat":"52.1606257","lng":"21.0723245","name":"al. Rzeczypospolitej - Klimczaka","spot":"1","number":"9600","bikes":"16","bike_racks":"16","free_racks":"7","terminal_type":"7inch","bike_numbers":"24792,28551,28349,28159,27676,27402,27389,27095,27068,26899,26833,26324,25839,25291,25024,96175","bike_types":{"4":16},"place_type":"0","rack_locks":"1"},{"uid":"2585871","lat":"52.1569168","lng":"21.0760903","name":"al. Rzeczypospolitej - Branickiego","spot":"1","number":"9601","bikes":"15","bike_racks":"16","free_racks":"0","terminal_type":"7inch","bike_numbers":"24970,24915,28574,27945,27625,27618,26901,25225,25200,29060,29460,29131,28889,96049,96209","bike_types":{"4":14,"0":1},"place_type":"0","rack_locks":"1"},{"uid":"2585872","lat":"52.1593735","lng":"21.086449","name":"Przycz\u00f3\u0142kowa - Branickiego","spot":"1","number":"9602","bikes":"3","bike_racks":"16","free_racks":"13","terminal_type":"7inch","bike_numbers":"28640,27241,29349","bike_types":{"4":3},"place_type":"0","rack_locks":"1"},{"uid":"2585873","lat":"52.1618136","lng":"21.0277355","name":"Metro Ursyn\u00f3w II","spot":"1","number":"9603","bikes":"29","bike_racks":"30","free_racks":"0","terminal_type":"7inch","bike_numbers":"24697,24605,28803,28489,28433,28338,28051,28010,27961,27364,26873,26609,26532,26499,26466,26403,26376,26304,26258,26180,26108,25556,25550,29040,29035,28939,28877,96251,96157","bike_types":{"4":29},"place_type":"0","rack_locks":"1"},{"uid":"2585875","lat":"52.1622579","lng":"21.0280761","name":"Metro Ursyn\u00f3w I","spot":"1","number":"9604","bikes":"24","bike_racks":"30","free_racks":"6","terminal_type":"7inch","bike_numbers":"24709,28898,28668,28389,28376,28345,27741,27613,27276,27192,27104,27027,26760,26707,26589,25649,25272,25111,29346,96053,96526,96399,96282,29184","bike_types":{"4":24},"place_type":"0","rack_locks":"1"},{"uid":"2585876","lat":"52.162401","lng":"21.0383811","name":"Jastrz\u0119bowskiego - SGGW","spot":"1","number":"9605","bikes":"19","bike_racks":"28","free_racks":"9","terminal_type":"7inch","bike_numbers":"24748,28663,28505,28468,28361,28359,27927,27851,27648,27352,26935,26845,26713,26364,25908,25796,25326,25319,25027","bike_types":{"4":19},"place_type":"0","rack_locks":"1"},{"uid":"2585880","lat":"52.1557534","lng":"21.0232776","name":"Romera - Pieciolinii","spot":"1","number":"9606","bikes":"5","bike_racks":"16","free_racks":"11","terminal_type":"7inch","bike_numbers":"28214,27987,27806,27583,29053","bike_types":{"4":5},"place_type":"0","rack_locks":"1"},{"uid":"2585883","lat":"52.1568674","lng":"21.0338401","name":"Metro Stok\u0142osy","spot":"1","number":"9607","bikes":"22","bike_racks":"27","free_racks":"10","terminal_type":"7inch","bike_numbers":"24981,24892,24554,24540,28818,28613,28416,28377,28144,28081,27761,27243,27234,26176,25850,25829,25789,25610,25582,25185,29064,96338","bike_types":{"4":22},"place_type":"0","rack_locks":"1"},{"uid":"2585885","lat":"52.1572887","lng":"21.0440084","name":"Roso\u0142a - Ciszewskiego - SGGW","spot":"1","number":"9608","bikes":"11","bike_racks":"30","free_racks":"19","terminal_type":"7inch","bike_numbers":"24708,24517,28696,28375,28092,27739,27640,26781,26492,26004,96388","bike_types":{"4":11},"place_type":"0","rack_locks":"1"},{"uid":"2585888","lat":"52.1521429","lng":"21.0181224","name":"Pu\u0142awska - Pileckiego","spot":"1","number":"9609","bikes":"28","bike_racks":"22","free_racks":"0","terminal_type":"7inch","bike_numbers":"24690,24624,24613,24519,28445,28413,28216,28001,27938,27896,27639,27635,27283,26664,26637,26053,25867,25817,25495,25174,25107,29114,29078,28807,28994,96504,96244,96106","bike_types":{"4":28},"place_type":"0","rack_locks":"1"},{"uid":"2585893","lat":"52.1495064","lng":"21.0332527","name":"Ciszewskiego - Pileckiego","spot":"1","number":"9610","bikes":"4","bike_racks":"22","free_racks":"18","terminal_type":"7inch","bike_numbers":"24702,28298,25489,96195","bike_types":{"4":4},"place_type":"0","rack_locks":"1"},{"uid":"2585894","lat":"52.1549453","lng":"21.0492977","name":"Roso\u0142a - Gandhi","spot":"1","number":"9611","bikes":"10","bike_racks":"22","free_racks":"12","terminal_type":"7inch","bike_numbers":"24894,28466,28385,28383,27694,27599,27111,26285,96465,96435","bike_types":{"4":10},"place_type":"0","rack_locks":"1"},{"uid":"2585897","lat":"52.1493105","lng":"21.0453361","name":"Metro Imielin","spot":"1","number":"9612","bikes":"12","bike_racks":"22","free_racks":"9","terminal_type":"7inch","bike_numbers":"28645,28451,27223,27053,27043,26070,25561,25502,25345,25068,96326,96312","bike_types":{"4":12},"place_type":"0","rack_locks":"1"},{"uid":"2585899","lat":"52.1522333","lng":"21.0563922","name":"Roso\u0142a - Weso\u0142a","spot":"1","number":"9613","bikes":"11","bike_racks":"23","free_racks":"11","terminal_type":"7inch","bike_numbers":"24544,28706,28140,27529,26818,26248,25535,25010,28983,63615,96402","bike_types":{"4":11},"place_type":"0","rack_locks":"1"},{"uid":"2585901","lat":"52.1427201","lng":"21.0383624","name":"Pileckiego - Alternatywy","spot":"1","number":"9614","bikes":"24","bike_racks":"30","free_racks":"5","terminal_type":"7inch","bike_numbers":"24886,28683,28131,27992,27897,27823,27692,27644,27154,26819,26502,26494,26361,26345,26333,26126,26094,25692,25426,25285,25045,29095,96230,96226","bike_types":{"4":24},"place_type":"0","rack_locks":"1"},{"uid":"2585902","lat":"52.142735","lng":"21.0448131","name":"Dereniowa - P\u0142askowickiej","spot":"1","number":"9615","bikes":"19","bike_racks":"22","free_racks":"2","terminal_type":"7inch","bike_numbers":"24803,24691,28503,28366,28326,28251,28015,28002,27831,27588,26574,26341,26186,26114,25954,25274,28870,28982,96340","bike_types":{"4":19},"place_type":"0","rack_locks":"1"},{"uid":"2585904","lat":"52.1376039","lng":"21.0505531","name":"Stryje\u0144skich - Belgradzka","spot":"1","number":"9616","bikes":"9","bike_racks":"15","free_racks":"6","terminal_type":"7inch","bike_numbers":"24984,28592,28059,27781,27373,25901,25065,63628,96356","bike_types":{"4":9},"place_type":"0","rack_locks":"1"},{"uid":"2585905","lat":"52.1403909","lng":"21.0568187","name":"Metro Natolin","spot":"1","number":"9617","bikes":"23","bike_racks":"30","free_racks":"7","terminal_type":"7inch","bike_numbers":"24860,24817,24715,24484,28327,28107,27770,27537,27344,27032,27025,26996,26993,26945,26487,26344,28919,29435,28811,28893,96184,96119,29275","bike_types":{"4":22,"51":1},"place_type":"0","rack_locks":"1"},{"uid":"2585906","lat":"52.1420749","lng":"21.0659905","name":"Belgradzka - Roso\u0142a","spot":"1","number":"9618","bikes":"13","bike_racks":"23","free_racks":"10","terminal_type":"7inch","bike_numbers":"24975,27925,27894,27495,27434,27375,27304,26421,26051,28835,60867,96552,96364","bike_types":{"4":13},"place_type":"0","rack_locks":"1"},{"uid":"2585908","lat":"52.1314333","lng":"21.0561562","name":"Stryje\u0144skich - W\u0105wozowa","spot":"1","number":"9619","bikes":"26","bike_racks":"23","free_racks":"5","terminal_type":"7inch","bike_numbers":"24565,28483,28372,28221,27981,27758,27591,27585,27211,27060,26427,26212,26074,25964,25735,25701,25636,25514,25424,25266,25246,25236,25224,29427,29141,96040","bike_types":{"4":25,"0":1},"place_type":"0","rack_locks":"1"},{"uid":"2585911","lat":"52.3326052","lng":"20.9418404","name":"Ordon\u00f3wny - \u015awiatowida","spot":"1","number":"9620","bikes":"4","bike_racks":"22","free_racks":"18","terminal_type":"7inch","bike_numbers":"24818,27464,27450,96481","bike_types":{"4":4},"place_type":"0","rack_locks":"1"},{"uid":"2585913","lat":"52.1310925","lng":"21.0654795","name":"Metro Kabaty","spot":"1","number":"9621","bikes":"6","bike_racks":"22","free_racks":"15","terminal_type":"7inch","bike_numbers":"24609,28689,28099,27128,26156,25490","bike_types":{"4":6},"place_type":"0","rack_locks":"1"},{"uid":"2585916","lat":"52.1332642","lng":"21.0747962","name":"W\u0105wozowa - Roso\u0142a","spot":"1","number":"9622","bikes":"7","bike_racks":"18","free_racks":"10","terminal_type":"7inch","bike_numbers":"24741,24698,27507,26504,26282,25981,25058","bike_types":{"4":7},"place_type":"0","rack_locks":"1"},{"uid":"2585917","lat":"52.324116","lng":"21.05663","name":"Skarbka z G\u00f3r - Berensona","spot":"1","number":"9623","bikes":"16","bike_racks":"26","free_racks":"10","terminal_type":"7inch","bike_numbers":"28657,28587,28440,28350,28277,28090,28067,27821,27680,27279,26881,26817,25587,25146,29130,29246","bike_types":{"4":15,"0":1},"place_type":"0","rack_locks":"1"},{"uid":"2585919","lat":"52.3485329","lng":"20.9418336","name":"Aluzyjna - Tr\u0105by","spot":"1","number":"9624","bikes":"8","bike_racks":"16","free_racks":"8","terminal_type":"7inch","bike_numbers":"24833,28653,27167,27056,26847,25305,29071,96199","bike_types":{"4":8},"place_type":"0","rack_locks":"1"},{"uid":"2585920","lat":"52.3226982","lng":"20.9448107","name":"\u015awiatowida - Mehoffera","spot":"1","number":"9625","bikes":"10","bike_racks":"16","free_racks":"6","terminal_type":"7inch","bike_numbers":"24743,28628,28314,27335,26954,26802,26623,25646,25603,25506","bike_types":{"4":10},"place_type":"0","rack_locks":"1"},{"uid":"2585921","lat":"52.3212548","lng":"20.9477347","name":"Bia\u0142o\u0142\u0119cki O\u015brodek Sportu","spot":"1","number":"9626","bikes":"15","bike_racks":"30","free_racks":"14","terminal_type":"7inch","bike_numbers":"24597,28524,28431,28426,27895,27721,27519,27415,27412,27152,26752,26551,26489,26461,29555","bike_types":{"4":15},"place_type":"0","rack_locks":"1"},{"uid":"2585922","lat":"52.3211272","lng":"20.9712964","name":"Bia\u0142o\u0142\u0119ka-Ratusz","spot":"1","number":"9627","bikes":"21","bike_racks":"19","free_racks":"1","terminal_type":"7inch","bike_numbers":"24993,24950,24900,24504,28771,28562,27986,27970,27908,27359,27357,27168,26835,26769,26759,29045,96372,96257,96249,96138,29181","bike_types":{"4":21},"place_type":"0","rack_locks":"1"},{"uid":"2585924","lat":"52.3132981","lng":"20.9655324","name":"My\u015bliborska - al. Kukli\u0144skiego","spot":"1","number":"9628","bikes":"14","bike_racks":"22","free_racks":"6","terminal_type":"7inch","bike_numbers":"24814,28308,27902,27587,27518,26967,26763,26060,25577,29050,29025,96522,96480,29270","bike_types":{"4":14},"place_type":"0","rack_locks":"1"},{"uid":"2585925","lat":"52.3031984","lng":"20.9891666","name":"Modli\u0144ska - \u017bera\u0144ska","spot":"1","number":"9629","bikes":"16","bike_racks":"30","free_racks":"16","terminal_type":"7inch","bike_numbers":"24849,28651,28533,27854,27704,27259,26941,26678,26188,25311,25092,25076,29125,29139,96129,29254","bike_types":{"4":14,"0":2},"place_type":"0","rack_locks":"1"},{"uid":"2585926","lat":"52.3150181","lng":"21.0610807","name":"Skarbka z G\u00f3r - Magiczna","spot":"1","number":"9630","bikes":"18","bike_racks":"30","free_racks":"12","terminal_type":"7inch","bike_numbers":"24705,24573,28699,28619,28607,28583,28526,28373,27990,27538,27360,27166,27115,26827,26768,26163,25591,25376","bike_types":{"4":18},"place_type":"0","rack_locks":"1"},{"uid":"2585928","lat":"52.3000268","lng":"21.0425266","name":"P\u0119tla Br\u00f3dno - Podgrodzie","spot":"1","number":"9631","bikes":"13","bike_racks":"16","free_racks":"2","terminal_type":"7inch","bike_numbers":"24979,28484,27954,27914,27342,26824,26396,25821,29273,29245,29233,29230,29228","bike_types":{"4":13},"place_type":"0","rack_locks":"1"},{"uid":"2585929","lat":"52.2939957","lng":"21.0272258","name":"Rembieli\u0144ska - Kondratowicza","spot":"1","number":"9632","bikes":"21","bike_racks":"23","free_racks":"7","terminal_type":"7inch","bike_numbers":"24794,25002,28691,28629,28395,28268,28066,27654,27546,27487,27454,26362,26027,25807,29144,96461,96124,96103,29179,29209,29235","bike_types":{"4":20,"0":1},"place_type":"0","rack_locks":"1"},{"uid":"2585931","lat":"52.2917236","lng":"21.0481189","name":"Targ\u00f3wek-Ratusz","spot":"1","number":"9633","bikes":"7","bike_racks":"22","free_racks":"14","terminal_type":"7inch","bike_numbers":"28420,27709,27086,26820,26404,25552,25093","bike_types":{"4":7},"place_type":"0","rack_locks":"1"},{"uid":"2585932","lat":"52.292208","lng":"21.0419554","name":"Kondratowicza - Chodecka","spot":"1","number":"9634","bikes":"17","bike_racks":"23","free_racks":"4","terminal_type":"7inch","bike_numbers":"24714,24662,28542,28378,28151,27687,27439,27249,26527,26459,26221,25609,29046,96368,29178,29243,29241","bike_types":{"4":17},"place_type":"0","rack_locks":"1"},{"uid":"2585934","lat":"52.2925145","lng":"21.0573949","name":"Kondratowicza - Przy Grodzisku","spot":"1","number":"9635","bikes":"10","bike_racks":"18","free_racks":"8","terminal_type":"7inch","bike_numbers":"24030,28402,28278,27575,27206,26943,26368,26106,25815,29075","bike_types":{"26":1,"4":9},"place_type":"0","rack_locks":"1"},{"uid":"2585936","lat":"52.2878069","lng":"21.0213829","name":"Wysockiego - Poborza\u0144ska","spot":"1","number":"9636","bikes":"25","bike_racks":"23","free_racks":"0","terminal_type":"7inch","bike_numbers":"24692,24676,24600,28758,28264,28064,28016,27978,27574,27455,27300,27127,27122,26879,26758,26305,25928,25738,25601,25551,29112,29043,29132,28987,29281","bike_types":{"4":24,"0":1},"place_type":"0","rack_locks":"1"},{"uid":"2585937","lat":"52.2885915","lng":"21.0310087","name":"Rembieli\u0144ska - Wyszogrodzka","spot":"1","number":"9637","bikes":"17","bike_racks":"30","free_racks":"13","terminal_type":"7inch","bike_numbers":"24977,24552,28461,28352,28075,28072,27929,27576,27498,26122,26058,25553,28908,96030,96536,29280,29253","bike_types":{"4":17},"place_type":"0","rack_locks":"1"},{"uid":"2585938","lat":"52.2864841","lng":"21.0401998","name":"Chodecka - \u017buromi\u0144ska","spot":"1","number":"9638","bikes":"14","bike_racks":"15","free_racks":"1","terminal_type":"7inch","bike_numbers":"24606,27814,27800,27530,27290,27262,26896,26854,26275,29108,29003,96539,96430,29239","bike_types":{"4":14},"place_type":"0","rack_locks":"1"},{"uid":"2585939","lat":"52.281231017533","lng":"21.025852560997","name":"Wysockiego - Matki Teresy z Kalkuty","spot":"1","number":"9639","bikes":"14","bike_racks":"17","free_racks":"4","terminal_type":"7inch","bike_numbers":"24787,24761,28529,28302,27805,27511,27366,27333,26940,26173,25997,24498,29276,29238","bike_types":{"4":13,"51":1},"place_type":"0","rack_locks":"1"},{"uid":"2585941","lat":"52.2835693","lng":"21.0720858","name":"Blokowa - DK Zacisze","spot":"1","number":"9640","bikes":"10","bike_racks":"18","free_racks":"8","terminal_type":"7inch","bike_numbers":"24516,28543,28137,27862,27443,27024,26973,26956,25269,96132","bike_types":{"4":10},"place_type":"0","rack_locks":"1"},{"uid":"2585942","lat":"52.276259","lng":"21.0530748","name":"P\u0119tla Targ\u00f3wek","spot":"1","number":"9641","bikes":"15","bike_racks":"22","free_racks":"6","terminal_type":"7inch","bike_numbers":"24632,24483,28886,28801,28474,28267,27550,27493,26853,26616,26181,25968,25469,25404,96302","bike_types":{"4":14,"51":1},"place_type":"0","rack_locks":"1"},{"uid":"2585943","lat":"52.27139","lng":"21.01566","name":"Jagiello\u0144ska - ALK","spot":"1","number":"9642","bikes":"12","bike_racks":"16","free_racks":"4","terminal_type":"7inch","bike_numbers":"28584,28569,28218,28118,27315,27274,27018,26143,25700,25333,96015,29180","bike_types":{"4":12},"place_type":"0","rack_locks":"1"},{"uid":"2585947","lat":"52.2694683","lng":"21.0499817","name":"Ossowskiego","spot":"1","number":"9644","bikes":"11","bike_racks":"17","free_racks":"7","terminal_type":"7inch","bike_numbers":"24695,27956,27367,26622,26530,26152,25906,29030,29019,96203,96578","bike_types":{"4":11},"place_type":"0","rack_locks":"1"},{"uid":"2585951","lat":"52.272602123161","lng":"21.063210368156","name":"Radzymi\u0144ska -Trocka","spot":"1","number":"9645","bikes":"20","bike_racks":"20","free_racks":"0","terminal_type":"7inch","bike_numbers":"24845,28585,28568,28321,28138,27962,27556,27187,26936,26237,26032,25513,25507,29434,29120,28863,96453,96329,96240,29274","bike_types":{"4":19,"0":1},"place_type":"0","rack_locks":"1"},{"uid":"2585953","lat":"52.27347","lng":"21.07698","name":"Bukowiecka - Zamkowa","spot":"1","number":"9646","bikes":"6","bike_racks":"15","free_racks":"9","terminal_type":"7inch","bike_numbers":"24487,28673,26808,26140,25527,25154","bike_types":{"51":1,"4":5},"place_type":"0","rack_locks":"1"},{"uid":"2585954","lat":"52.2668885","lng":"21.0585675","name":"Radzymi\u0144ska - Piotra Skargi","spot":"1","number":"9647","bikes":"7","bike_racks":"20","free_racks":"14","terminal_type":"7inch","bike_numbers":"24490,28318,28116,27723,26139,96294,24051","bike_types":{"51":1,"4":5,"26":1},"place_type":"0","rack_locks":"1"},{"uid":"2585955","lat":"52.2614369","lng":"21.0155744","name":"Wybrze\u017ce Helskie - ZOO","spot":"1","number":"9648","bikes":"16","bike_racks":"22","free_racks":"7","terminal_type":"7inch","bike_numbers":"24855,24729,28731,28678,28297,27835,27481,26862,26694,26023,25952,29136,25631,96396,96291,29183","bike_types":{"4":15,"0":1},"place_type":"0","rack_locks":"1"},{"uid":"2585956","lat":"52.2632492","lng":"21.0212231","name":"Rondo Starzy\u0144skiego","spot":"1","number":"9649","bikes":"26","bike_racks":"24","free_racks":"0","terminal_type":"7inch","bike_numbers":"24960,24661,24017,28558,28145,28126,28093,27763,27331,27033,27010,26660,26588,26480,26469,26420,26183,25888,25825,25352,25238,29087,29422,96023,96298,96202","bike_types":{"4":25,"26":1},"place_type":"0","rack_locks":"1"},{"uid":"2585958","lat":"52.26421","lng":"21.02618","name":"Darwina - Nusbauma-Hilarowicza","spot":"1","number":"9650","bikes":"19","bike_racks":"21","free_racks":"2","terminal_type":"7inch","bike_numbers":"24938,28745,28511,27275,26816,26777,26751,26706,26584,26500,26147,25471,25466,25402,25362,25099,96564,96483,96286","bike_types":{"4":19},"place_type":"0","rack_locks":"1"},{"uid":"2585960","lat":"52.26554","lng":"21.03122","name":"Namys\u0142owska - Darwina","spot":"1","number":"9651","bikes":"2","bike_racks":"15","free_racks":"13","terminal_type":"7inch","bike_numbers":"28423,96020","bike_types":{"4":2},"place_type":"0","rack_locks":"1"},{"uid":"2585961","lat":"52.2690405","lng":"21.0379493","name":"Rondo \u017baba","spot":"1","number":"9652","bikes":"10","bike_racks":"22","free_racks":"11","terminal_type":"7inch","bike_numbers":"24856,24842,27531,27520,27462,27435,26440,25368,28836,29219","bike_types":{"4":10},"place_type":"0","rack_locks":"1"},{"uid":"2585963","lat":"52.2591682","lng":"21.0262224","name":"Jagiello\u0144ska - Plac Hallera","spot":"1","number":"9653","bikes":"13","bike_racks":"20","free_racks":"5","terminal_type":"7inch","bike_numbers":"24901,28026,27379,27330,26730,25674,25393,25371,29031,28954,29365,96547,96581","bike_types":{"4":13},"place_type":"0","rack_locks":"1"},{"uid":"2585964","lat":"52.2613811","lng":"21.0305437","name":"Plac Hallera - Sawinkowa","spot":"1","number":"9654","bikes":"7","bike_racks":"28","free_racks":"20","terminal_type":"7inch","bike_numbers":"24769,28647,28421,26327,26055,29258,24048","bike_types":{"4":6,"26":1},"place_type":"0","rack_locks":"1"},{"uid":"2585967","lat":"52.263","lng":"21.03418","name":"Namys\u0142owska - Szymanowskiego","spot":"1","number":"9655","bikes":"13","bike_racks":"16","free_racks":"4","terminal_type":"7inch","bike_numbers":"24871,28432,28193,28028,28024,26771,26617,26302,26247,25543,25370,25252,96433","bike_types":{"4":13},"place_type":"0","rack_locks":"1"},{"uid":"2585968","lat":"52.2538188","lng":"21.0231542","name":"Ratuszowa - ZOO","spot":"1","number":"9656","bikes":"5","bike_racks":"23","free_racks":"18","terminal_type":"7inch","bike_numbers":"28556,28552,26505,26110,28969","bike_types":{"4":5},"place_type":"0","rack_locks":"1"},{"uid":"2585971","lat":"52.256355","lng":"21.029538","name":"Jagiello\u0144ska - Ratuszowa","spot":"1","number":"9657","bikes":"11","bike_racks":"16","free_racks":"5","terminal_type":"7inch","bike_numbers":"24570,28581,28462,28262,27678,27584,26765,25197,28861,96516,29260","bike_types":{"4":11},"place_type":"0","rack_locks":"1"},{"uid":"2585972","lat":"52.261449","lng":"21.037614","name":"11 Listopada - Ratuszowa","spot":"1","number":"9658","bikes":"12","bike_racks":"30","free_racks":"18","terminal_type":"7inch","bike_numbers":"24857,24558,28553,28329,28087,26949,26043,25810,25652,25596,25150,96584","bike_types":{"4":12},"place_type":"0","rack_locks":"1"},{"uid":"2585974","lat":"52.263109","lng":"21.0381895","name":"11 listopada - \u015arodkowa","spot":"1","number":"9659","bikes":"12","bike_racks":"18","free_racks":"6","terminal_type":"7inch","bike_numbers":"24701,28114,28009,27920,27840,27753,27629,26423,26016,26005,29097,29264","bike_types":{"4":12},"place_type":"0","rack_locks":"1"},{"uid":"2585975","lat":"52.25839","lng":"21.03537","name":"Stalowa - 11 Listopada","spot":"1","number":"9660","bikes":"23","bike_racks":"24","free_racks":"1","terminal_type":"7inch","bike_numbers":"24644,28724,28427,28158,27936,27892,27601,27560,27175,27049,26556,26342,26242,26206,29374,28871,96213,96146,29194,29208,29278,29249,29234","bike_types":{"4":23},"place_type":"0","rack_locks":"1"},{"uid":"2585978","lat":"52.234791","lng":"21.07905","name":"al. Stan\u00f3w Zjednoczonych - Ostrobramska","spot":"1","number":"9661","bikes":"8","bike_racks":"20","free_racks":"11","terminal_type":"7inch","bike_numbers":"28577,28471,28323,26597,25944,25923,25211,29082","bike_types":{"4":8},"place_type":"0","rack_locks":"1"},{"uid":"2585981","lat":"52.2524758","lng":"21.0303479","name":"Floria\u0144ska - Park Praski","spot":"1","number":"9662","bikes":"13","bike_racks":"23","free_racks":"10","terminal_type":"7inch","bike_numbers":"25008,28270,27856,27651,27015,26601,26166,25747,25423,29122,28844,28991,96161","bike_types":{"4":12,"0":1},"place_type":"0","rack_locks":"1"},{"uid":"2585982","lat":"52.2549757","lng":"21.0339005","name":"Plac Wile\u0144ski","spot":"1","number":"9663","bikes":"29","bike_racks":"30","free_racks":"0","terminal_type":"7inch","bike_numbers":"24514,28716,28488,28362,28305,28271,28012,27337,27284,27261,27076,26821,26767,26682,26649,26590,26478,26445,26426,26360,26331,26315,25300,29146,96574,96264,96219,96120,29175","bike_types":{"4":28,"0":1},"place_type":"0","rack_locks":"1"},{"uid":"2585983","lat":"52.2579576","lng":"21.0399804","name":"Wile\u0144ska - Rzeszotarskiej","spot":"1","number":"9664","bikes":"15","bike_racks":"16","free_racks":"4","terminal_type":"7inch","bike_numbers":"28127,27667,27109,26987,26840,26789,26486,26472,26295,26229,25942,25607,25570,25053,96587","bike_types":{"4":15},"place_type":"0","rack_locks":"1"},{"uid":"2585984","lat":"52.2475848","lng":"20.9568001","name":"al. Prymasa Tysi\u0105clecia - Obozowa","spot":"1","number":"9665","bikes":"2","bike_racks":"13","free_racks":"11","terminal_type":"7inch","bike_numbers":"26991,25070","bike_types":{"4":2},"place_type":"0","rack_locks":"1"},{"uid":"2585985","lat":"52.248607","lng":"21.029647","name":"Okrzei - Panie\u0144ska","spot":"1","number":"9666","bikes":"18","bike_racks":"16","free_racks":"0","terminal_type":"7inch","bike_numbers":"24968,24867,24589,24481,28705,28498,28435,27180,27005,26979,26634,26540,25835,25565,25089,29023,96274,24055","bike_types":{"4":16,"51":1,"26":1},"place_type":"0","rack_locks":"1"},{"uid":"2585987","lat":"52.2506334","lng":"21.0311174","name":"Sierakowskiego - K\u0142opotowskiego","spot":"1","number":"9667","bikes":"14","bike_racks":"25","free_racks":"14","terminal_type":"7inch","bike_numbers":"28313,28301,27977,27690,26529,26392,25918,25881,25805,25787,25661,25470,25130,28812","bike_types":{"4":14},"place_type":"0","rack_locks":"1"},{"uid":"2585990","lat":"52.2520876","lng":"21.0381368","name":"Targowa - Z\u0105bkowska","spot":"1","number":"9668","bikes":"18","bike_racks":"18","free_racks":"1","terminal_type":"7inch","bike_numbers":"24725,24585,28299,27451,27253,27219,27194,26848,26627,26572,26536,26456,26127,25926,25813,25799,25432,29368","bike_types":{"4":18},"place_type":"0","rack_locks":"1"},{"uid":"2585992","lat":"52.2544855","lng":"21.0433458","name":"Fabryka W\u00f3dek Koneser","spot":"1","number":"9669","bikes":"18","bike_racks":"25","free_racks":"7","terminal_type":"7inch","bike_numbers":"24964,24947,24881,24551,28627,28295,28084,27875,27712,27014,26907,26359,25709,25050,29004,96052,96322,29283","bike_types":{"4":18},"place_type":"0","rack_locks":"1"},{"uid":"2585994","lat":"52.2559027","lng":"21.0495613","name":"Radzymi\u0144ska - Wiosenna","spot":"1","number":"9670","bikes":"21","bike_racks":"26","free_racks":"5","terminal_type":"7inch","bike_numbers":"24738,24657,28522,28348,28280,27703,27381,27372,27212,26985,26823,26719,25473,25284,25100,29116,29115,96011,96561,96397,29269","bike_types":{"4":21},"place_type":"0","rack_locks":"1"},{"uid":"2585995","lat":"52.25965","lng":"21.0529","name":"Radzymi\u0144ska - \u0141om\u017cy\u0144ska","spot":"1","number":"9671","bikes":"20","bike_racks":"24","free_racks":"8","terminal_type":"7inch","bike_numbers":"24456,28567,28353,28003,27983,27303,27190,26672,26013,25876,25666,25593,25122,29056,28799,28858,96509,96258,29261,24046","bike_types":{"51":1,"4":18,"26":1},"place_type":"0","rack_locks":"1"},{"uid":"2585996","lat":"52.2583512","lng":"21.0585337","name":"P\u0119tla Kaw\u0119czy\u0144ska-Bazylika","spot":"1","number":"9672","bikes":"16","bike_racks":"26","free_racks":"10","terminal_type":"7inch","bike_numbers":"24507,27792,27725,27301,27137,26966,26455,26276,26037,25811,25751,25182,29357,96051,96510,96078","bike_types":{"4":16},"place_type":"0","rack_locks":"1"},{"uid":"2585997","lat":"52.249864871462","lng":"21.042911410332","name":"Targowa - Kijowska","spot":"1","number":"9673","bikes":"16","bike_racks":"18","free_racks":"0","terminal_type":"7inch","bike_numbers":"24647,24509,28452,27733,27419,27385,27291,27029,26336,26226,26142,25803,25321,25280,25219,25125","bike_types":{"4":16},"place_type":"0","rack_locks":"1"},{"uid":"2586000","lat":"52.252745","lng":"21.0510331","name":"Dworzec Wschodni - Kijowska","spot":"1","number":"9674","bikes":"17","bike_racks":"27","free_racks":"11","terminal_type":"7inch","bike_numbers":"24712,24575,28011,27328,27316,26944,26528,26450,25836,25739,25642,25617,25431,29352,28956,29433,29271","bike_types":{"4":17},"place_type":"0","rack_locks":"1"},{"uid":"2586001","lat":"52.247314","lng":"21.042731","name":"Metro Stadion Narodowy","spot":"1","number":"9675","bikes":"20","bike_racks":"15","free_racks":"0","terminal_type":"7inch","bike_numbers":"24830,24479,28132,27611,27215,27045,26998,26764,26265,26022,25865,25339,25290,25043,28943,28853,96055,96467,96464,96165","bike_types":{"4":19,"51":1},"place_type":"0","rack_locks":"1"},{"uid":"2586003","lat":"52.2472308","lng":"21.0476456","name":"al. Zieleniecka - Teatr Powszechny","spot":"1","number":"9676","bikes":"5","bike_racks":"14","free_racks":"10","terminal_type":"7inch","bike_numbers":"24822,28100,28061,27169,25245","bike_types":{"4":5},"place_type":"0","rack_locks":"1"},{"uid":"2586005","lat":"52.247346","lng":"21.055947","name":"Grochowska - Mi\u0144ska","spot":"1","number":"9677","bikes":"21","bike_racks":"22","free_racks":"2","terminal_type":"7inch","bike_numbers":"24909,24793,24687,24505,28515,28294,28274,28130,27817,27433,27388,27387,27054,26785,26542,25653,25325,25217,96018,96163,96148","bike_types":{"4":21},"place_type":"0","rack_locks":"1"},{"uid":"2586009","lat":"52.2464","lng":"21.06868","name":"Praga-Po\u0142udnie-Ratusz","spot":"1","number":"9678","bikes":"11","bike_racks":"15","free_racks":"3","terminal_type":"7inch","bike_numbers":"24925,28611,28602,28134,27886,27691,26972,26263,26138,26029,25846","bike_types":{"4":11},"place_type":"0","rack_locks":"1"},{"uid":"2586011","lat":"52.2501129","lng":"21.0772011","name":"Dwernickiego - Siennicka","spot":"1","number":"9679","bikes":"9","bike_racks":"25","free_racks":"16","terminal_type":"7inch","bike_numbers":"27730,27565,27031,26677,26629,25996,25941,28910,96346","bike_types":{"4":9},"place_type":"0","rack_locks":"1"},{"uid":"2586012","lat":"52.260428882956","lng":"21.041538119316","name":"Stalowa - Czynszowa","spot":"1","number":"9680","bikes":"11","bike_racks":"15","free_racks":"9","terminal_type":"7inch","bike_numbers":"28439,28045,27980,27865,27622,26921,26157,25910,25530,29143,29155","bike_types":{"4":10,"0":1},"place_type":"0","rack_locks":"1"},{"uid":"2586014","lat":"52.2372419","lng":"21.0437644","name":"Wybrze\u017ce Szczeci\u0144skie - Stadion Narodowy","spot":"1","number":"9681","bikes":"29","bike_racks":"23","free_racks":"6","terminal_type":"7inch","bike_numbers":"24958,24848,28887,28885,28632,28342,28077,28006,27971,27696,27684,27466,27273,27178,27083,26691,26635,25853,25779,25529,25374,25332,25101,29005,28952,28823,96500,96424,96277","bike_types":{"4":29},"place_type":"0","rack_locks":"1"},{"uid":"2586018","lat":"52.2387103","lng":"21.0507515","name":"Rondo Waszyngtona - Stadion Narodowy","spot":"1","number":"9682","bikes":"22","bike_racks":"27","free_racks":"4","terminal_type":"7inch","bike_numbers":"24770,28509,28434,27998,27815,27755,27634,26942,26927,26800,26654,26570,26381,26214,26174,26151,25855,25467,28834,96154,29152,29248","bike_types":{"4":22},"place_type":"0","rack_locks":"1"},{"uid":"2586019","lat":"52.242281006874","lng":"21.071160435677","name":"Waszyngtona - Kinowa","spot":"1","number":"9683","bikes":"22","bike_racks":"15","free_racks":"2","terminal_type":"7inch","bike_numbers":"24969,24758,28727,27659,27256,27096,26953,26473,26293,26132,25982,25451,25223,25049,25958,28856,28837,96341,96330,96239,96210,29272","bike_types":{"4":22},"place_type":"0","rack_locks":"1"},{"uid":"2586021","lat":"52.2445639","lng":"21.0838057","name":"Rondo Wiatraczna","spot":"1","number":"9684","bikes":"24","bike_racks":"30","free_racks":"6","terminal_type":"7inch","bike_numbers":"24820,24465,24457,28761,28741,28614,28516,28309,28128,27669,27652,27554,27542,27476,27210,26970,26063,26009,25916,25778,25548,25139,25028,96155","bike_types":{"4":22,"51":2},"place_type":"0","rack_locks":"1"},{"uid":"2586022","lat":"52.2347451","lng":"21.053651","name":"Francuska - Walecznych","spot":"1","number":"9685","bikes":"13","bike_racks":"15","free_racks":"4","terminal_type":"7inch","bike_numbers":"28597,28573,28464,27350,27173,26414,25731,25594,25209,28971,96313,96278,96151","bike_types":{"4":13},"place_type":"0","rack_locks":"1"},{"uid":"2586024","lat":"52.236598","lng":"21.064774","name":"Mi\u0119dzynarodowa - Walecznych","spot":"1","number":"9686","bikes":"28","bike_racks":"15","free_racks":"0","terminal_type":"7inch","bike_numbers":"24796,24591,28672,28479,27727,27612,27608,27453,27135,27042,27030,26880,26744,26198,26010,25899,25397,25379,25056,29077,29051,29459,28809,96414,96391,96197,29198,29225","bike_types":{"4":28},"place_type":"0","rack_locks":"1"},{"uid":"2586026","lat":"52.243020071904","lng":"21.102375984192","name":"Plac Szembeka","spot":"1","number":"9687","bikes":"15","bike_racks":"15","free_racks":"4","terminal_type":"7inch","bike_numbers":"24779,24621,24617,28401,27548,27172,26929,26582,26415,26301,26283,25608,25337,25158,96087","bike_types":{"4":15},"place_type":"0","rack_locks":"1"},{"uid":"2586028","lat":"52.237559","lng":"21.120087","name":"P\u0119tla Goc\u0142awek","spot":"1","number":"9688","bikes":"12","bike_racks":"16","free_racks":"4","terminal_type":"7inch","bike_numbers":"24982,24592,28367,27905,27570,27140,27081,25538,25389,28860,96548,96089","bike_types":{"4":12},"place_type":"0","rack_locks":"1"},{"uid":"2586030","lat":"52.2258359","lng":"21.0600907","name":"Brukselska - PROM","spot":"1","number":"9689","bikes":"9","bike_racks":"15","free_racks":"7","terminal_type":"7inch","bike_numbers":"28773,27747,27101,26761,26741,26116,25936,25586,96019","bike_types":{"4":9},"place_type":"0","rack_locks":"1"},{"uid":"2586031","lat":"52.260205610017","lng":"21.046854257584","name":"al. Solidarno\u015bci - Szwedzka","spot":"1","number":"9690","bikes":"16","bike_racks":"18","free_racks":"2","terminal_type":"7inch","bike_numbers":"24486,28760,28394,28085,28058,27503,27428,27338,26981,26348,25902,25862,25121,28996,29266,29247","bike_types":{"51":1,"4":15},"place_type":"0","rack_locks":"1"},{"uid":"2586032","lat":"52.230088","lng":"21.067948","name":"al. Stan\u00f3w Zjednoczonych - Mi\u0119dzynarodowa","spot":"1","number":"9691","bikes":"9","bike_racks":"26","free_racks":"17","terminal_type":"7inch","bike_numbers":"28105,26666,26595,26267,26144,25736,25445,25175,29251","bike_types":{"4":9},"place_type":"0","rack_locks":"1"},{"uid":"2586034","lat":"52.23483","lng":"21.09975","name":"Ostrobramska - Zamieniecka","spot":"1","number":"9692","bikes":"20","bike_racks":"23","free_racks":"2","terminal_type":"7inch","bike_numbers":"24939,28411,28215,27953,27403,26918,26750,26547,26383,25907,25785,25405,25149,25110,25060,28828,96050,96440,29151,29214","bike_types":{"4":20},"place_type":"0","rack_locks":"1"},{"uid":"2586037","lat":"52.2251969","lng":"21.0712892","name":"Afryka\u0144ska - Egipska","spot":"1","number":"9693","bikes":"9","bike_racks":"16","free_racks":"7","terminal_type":"7inch","bike_numbers":"24586,24008,27592,27527,26059,25421,25386,25364,96339","bike_types":{"4":8,"26":1},"place_type":"0","rack_locks":"1"},{"uid":"2586039","lat":"52.22837","lng":"21.08581","name":"Abrahama - Kapelan\u00f3w AK","spot":"1","number":"9694","bikes":"13","bike_racks":"15","free_racks":"2","terminal_type":"7inch","bike_numbers":"24800,24656,25006,28755,27233,26734,25947,25611,25380,29015,28851,96150,29187","bike_types":{"4":13},"place_type":"0","rack_locks":"1"},{"uid":"2586042","lat":"52.2296088","lng":"21.0945572","name":"Fieldorfa - Bukowskiego","spot":"1","number":"9695","bikes":"12","bike_racks":"20","free_racks":"8","terminal_type":"7inch","bike_numbers":"24650,24610,24024,28363,27193,26400,26241,26031,25943,25816,28827,96136","bike_types":{"4":11,"26":1},"place_type":"0","rack_locks":"1"},{"uid":"2586044","lat":"52.22974","lng":"21.10624","name":"Rechniewskiego - Nowaka-Jeziora\u0144skiego","spot":"1","number":"9696","bikes":"26","bike_racks":"30","free_racks":"4","terminal_type":"7inch","bike_numbers":"24893,24766,24495,24467,28753,28686,28675,28626,28623,28017,27780,27697,27526,27411,27270,27268,27108,26822,26657,26641,26605,26425,29127,28884,96093,29259","bike_types":{"4":23,"51":2,"0":1},"place_type":"0","rack_locks":"1"},{"uid":"2586045","lat":"52.2223071","lng":"21.0907259","name":"Meissnera - Fieldorfa","spot":"1","number":"9697","bikes":"13","bike_racks":"15","free_racks":"3","terminal_type":"7inch","bike_numbers":"24992,24847,28736,28475,28069,28019,27974,27363,27361,26611,25341,25144,25062","bike_types":{"4":13},"place_type":"0","rack_locks":"1"},{"uid":"2586268","lat":"52.23938046828","lng":"21.016716957092","name":"Krakowskie Przedmie\u015bcie - Traugutta 2","spot":"1","number":"94931","bikes":"17","bike_racks":"24","free_racks":"7","terminal_type":"7inch","bike_numbers":"24755,28220,27857,27240,27063,26939,26596,26397,26105,26020,25655,25504,25416,29372,96529,96260,29202","bike_types":{"4":17},"place_type":"0","rack_locks":"1"},{"uid":"2586270","lat":"52.2417899","lng":"21.0241698","name":"Lipowa - Dobra 2","spot":"1","number":"94961","bikes":"12","bike_racks":"19","free_racks":"6","terminal_type":"7inch","bike_numbers":"24635,24616,28662,28319,27743,27397,27321,27220,26470,26366,25977,29217","bike_types":{"4":12},"place_type":"0","rack_locks":"1"},{"uid":"2586272","lat":"52.219916006513","lng":"21.011733412743","name":"Plac Politechniki 2","spot":"1","number":"95381","bikes":"4","bike_racks":"27","free_racks":"24","terminal_type":"7inch","bike_numbers":"26882,26598,25317,25038","bike_types":{"4":4},"place_type":"0","rack_locks":"1"},