[{"region_info":{"lat":"52.2345","lng":"21.0024","zoom":"11","name":"VETURILO Poland","hotline":"+4819115","domain":"vp","country":"PL","country_name":"Poland","terms":"http:\/\/www.veturilo.waw.pl\/terms\/?v=201701","policy":"","website":"http:\/\/www.veturilo.waw.pl\/","show_free_racks":"1","booked_bikes":"0","set_point_bikes":"5284","available_bikes":"4954"},"places_summary":{"lngMin":16.918172836304,"lngMax":21.120087,"latMin":52.117285,"latMax":52.396553457578,"lngAvg":20.996127120604,"latAvg":52.23115060139},"places":[{"uid":"2585259","lat":"52.296298","lng":"20.9583575","name":"Dewajtis - UKSW","spot":"1","number":"9402","bikes":"21","bike_racks":"30","free_racks":"11","terminal_type":"7inch","bike_numbers":"24731,24673,24612,28627,28434,28094,27165,26860,26774,25927,25734,25714,25691,25358,25257,28831,28913,96515,96475,96196,96184","bike_types":{"4":21},"place_type":"0","rack_locks":"1"},{"uid":"2585263","lat":"52.2909738","lng":"20.9295559","name":"Metro M\u0142ociny","spot":"1","number":"9403","bikes":"17","bike_racks":"30","free_racks":"13","terminal_type":"7inch","bike_numbers":"24614,26915,26076,26036,25506,25215,25114,96522,96518,96429,96379,96265,96199,96192,96186,96146,96143","bike_types":{"4":17},"place_type":"0","rack_locks":"1"},{"uid":"2585265","lat":"52.2901732","lng":"20.9503698","name":"Marymoncka - Dewajtis","spot":"1","number":"9404","bikes":"21","bike_racks":"30","free_racks":"9","terminal_type":"7inch","bike_numbers":"28442,27989,26632,26558,26546,26330,26217,26020,25956,25776,25407,25248,25080,25049,29428,28858,96536,96490,96372,96280,96257","bike_types":{"4":21},"place_type":"0","rack_locks":"1"},{"uid":"2585267","lat":"52.285914","lng":"20.940561","name":"Metro Wawrzyszew","spot":"1","number":"9405","bikes":"11","bike_racks":"20","free_racks":"9","terminal_type":"7inch","bike_numbers":"24520,28676,28497,28383,27335,26288,26250,26209,25807,25677,25075","bike_types":{"4":11},"place_type":"0","rack_locks":"1"},{"uid":"2585269","lat":"52.2336142","lng":"21.0146353","name":"G\u00f3rskiego - Szpitalna","spot":"1","number":"9406","bikes":"8","bike_racks":"16","free_racks":"8","terminal_type":"7inch","bike_numbers":"24014,28454,28127,27982,27125,26695,25317,29279","bike_types":{"26":1,"4":7},"place_type":"0","rack_locks":"1"},{"uid":"2585271","lat":"52.2816265","lng":"20.9498871","name":"Metro Stare Bielany","spot":"1","number":"9407","bikes":"23","bike_racks":"30","free_racks":"7","terminal_type":"7inch","bike_numbers":"24993,28260,27973,27950,27683,27263,27098,26663,26575,26284,26168,25930,25704,25522,25499,25295,25077,29142,28776,28973,28986,96502,96483","bike_types":{"4":22,"0":1},"place_type":"0","rack_locks":"1"},{"uid":"2585272","lat":"52.2361217","lng":"21.0219096","name":"Ordynacka - Uniwersytet Muzyczny","spot":"1","number":"9408","bikes":"15","bike_racks":"20","free_racks":"5","terminal_type":"7inch","bike_numbers":"24996,24020,28734,28142,27854,27828,27429,26934,26841,26688,26469,25355,29648,29124,96334","bike_types":{"4":13,"26":1,"0":1},"place_type":"0","rack_locks":"1"},{"uid":"2585273","lat":"52.2768774","lng":"20.9481302","name":"Bielany-Ratusz","spot":"1","number":"9409","bikes":"10","bike_racks":"28","free_racks":"18","terminal_type":"7inch","bike_numbers":"26633,26006,25740,25633,96575,96573,96359,96270,96266,96259","bike_types":{"4":10},"place_type":"0","rack_locks":"1"},{"uid":"2585275","lat":"52.2761569","lng":"20.9616673","name":"Metro S\u0142odowiec","spot":"1","number":"9410","bikes":"27","bike_racks":"30","free_racks":"3","terminal_type":"7inch","bike_numbers":"24884,24713,24009,28424,28217,27713,27691,26905,26735,26718,26018,25991,25970,25969,25795,25555,25433,29419,29553,96358,96357,96352,96320,96263,96247,96203,96122","bike_types":{"4":26,"26":1},"place_type":"0","rack_locks":"1"},{"uid":"2585278","lat":"52.2777751","lng":"20.9856999","name":"Potocka - OSiR \u017boliborz","spot":"1","number":"9411","bikes":"14","bike_racks":"15","free_racks":"1","terminal_type":"7inch","bike_numbers":"24921,24616,24549,28155,27673,27584,27116,26965,26680,26539,25461,25353,25083,96333","bike_types":{"4":14},"place_type":"0","rack_locks":"1"},{"uid":"2585280","lat":"52.273527782989","lng":"20.994186401367","name":"Gwia\u017adzista - Promyka","spot":"1","number":"9412","bikes":"7","bike_racks":"16","free_racks":"9","terminal_type":"7inch","bike_numbers":"24818,24596,24532,27861,26371,26222,96032","bike_types":{"4":7},"place_type":"0","rack_locks":"1"},{"uid":"2585281","lat":"52.270941","lng":"20.9326269","name":"al. Reymonta - Conrada","spot":"1","number":"9413","bikes":"29","bike_racks":"30","free_racks":"1","terminal_type":"7inch","bike_numbers":"24943,24934,24931,24855,24846,24661,24574,28822,28029,27997,27996,27841,27726,27376,26692,26462,26286,26101,26090,26081,26017,25913,25260,25197,25115,25072,29035,96550,96479","bike_types":{"4":29},"place_type":"0","rack_locks":"1"},{"uid":"2585283","lat":"52.2706441","lng":"20.9504181","name":"Broniewskiego - Perzy\u0144skiego","spot":"1","number":"9414","bikes":"5","bike_racks":"16","free_racks":"11","terminal_type":"7inch","bike_numbers":"24559,28141,26925,25931,25474","bike_types":{"4":5},"place_type":"0","rack_locks":"1"},{"uid":"2585284","lat":"52.2714203","lng":"20.9727099","name":"Metro Marymont","spot":"1","number":"9415","bikes":"15","bike_racks":"30","free_racks":"15","terminal_type":"7inch","bike_numbers":"24750,24491,28775,28212,27696,27624,27328,27161,26599,26381,25674,25400,25399,25351,96024","bike_types":{"4":14,"51":1},"place_type":"0","rack_locks":"1"},{"uid":"2585285","lat":"52.2694081","lng":"20.9833664","name":"Metro Plac Wilsona","spot":"1","number":"9416","bikes":"8","bike_racks":"21","free_racks":"13","terminal_type":"7inch","bike_numbers":"24966,24798,24513,28599,28056,26525,96501,96124","bike_types":{"4":8},"place_type":"0","rack_locks":"1"},{"uid":"2585286","lat":"52.2668623","lng":"20.9637032","name":"Broniewskiego - W\u0142o\u015bcia\u0144ska","spot":"1","number":"9417","bikes":"17","bike_racks":"19","free_racks":"2","terminal_type":"7inch","bike_numbers":"24974,24967,24864,28905,28096,27887,27871,27802,26491,26297,25695,25599,25520,25457,28918,96473,29183","bike_types":{"4":17},"place_type":"0","rack_locks":"1"},{"uid":"2585288","lat":"52.2643984","lng":"20.9723179","name":"Broniewskiego - Krasi\u0144skiego","spot":"1","number":"9418","bikes":"10","bike_racks":"16","free_racks":"6","maintenance":"1","terminal_type":"7inch","bike_numbers":"24960,24870,28398,27786,26770,26042,25932,96495,96494,96076","bike_types":{"4":10},"place_type":"0","rack_locks":"1"},{"uid":"2585289","lat":"52.267875","lng":"21.0020667","name":"Wybrze\u017ce Gdy\u0144skie - KS Sp\u00f3jnia","spot":"1","number":"9419","bikes":"10","bike_racks":"15","free_racks":"5","terminal_type":"7inch","bike_numbers":"25004,28904,28560,28414,27952,27768,27756,26238,25793,96574","bike_types":{"4":10},"place_type":"0","rack_locks":"1"},{"uid":"2585291","lat":"52.2624054","lng":"20.9802551","name":"Plac Grunwaldzki","spot":"1","number":"9420","bikes":"25","bike_racks":"30","free_racks":"5","terminal_type":"7inch","bike_numbers":"24820,24746,24700,24696,24032,28499,28036,28022,27438,27422,27074,27037,26946,26624,26620,26610,26519,26468,26432,25999,25984,25819,25605,28834,96452","bike_types":{"4":24,"26":1},"place_type":"0","rack_locks":"1"},{"uid":"2585296","lat":"52.2612575","lng":"20.9863191","name":"Zaj\u0105czka - Bitwy Pod Rokitn\u0105","spot":"1","number":"9421","bikes":"9","bike_racks":"15","free_racks":"7","terminal_type":"7inch","bike_numbers":"24964,27995,27053,26544,25618,25588,29038,29012,28842","bike_types":{"4":9},"place_type":"0","rack_locks":"1"},{"uid":"2585297","lat":"52.2645018","lng":"20.9895998","name":"Plac Inwalid\u00f3w","spot":"1","number":"9422","bikes":"9","bike_racks":"15","free_racks":"6","terminal_type":"7inch","bike_numbers":"24467,28362,28111,27785,27308,25842,25612,25133,25132","bike_types":{"51":1,"4":8},"place_type":"0","rack_locks":"1"},{"uid":"2585299","lat":"52.258245356688","lng":"20.898613929749","name":"P\u0119tla Stare Bemowo","spot":"1","number":"9423","bikes":"17","bike_racks":"21","free_racks":"3","terminal_type":"7inch","bike_numbers":"24866,24567,28710,28514,27934,27299,27151,27028,26449,26213,25889,25706,25301,25216,25160,25073,96248","bike_types":{"4":17},"place_type":"0","rack_locks":"1"},{"uid":"2585301","lat":"52.260895125763","lng":"20.923923254013","name":"P\u0119tla Nowe Bemowo","spot":"1","number":"9424","bikes":"22","bike_racks":"25","free_racks":"2","terminal_type":"7inch","bike_numbers":"27919,27236,27164,29066,28941,96418,96377,96376,96375,96374,96335,96321,96314,96301,96297,96254,96233,96232,96228,96227,96206,96111","bike_types":{"4":22},"place_type":"0","rack_locks":"1"},{"uid":"2585304","lat":"52.2575903","lng":"20.9323374","name":"Obro\u0144c\u00f3w Tobruku - Pieni\u0105\u017cka","spot":"1","number":"9425","bikes":"13","bike_racks":"12","free_racks":"0","terminal_type":"7inch","bike_numbers":"24728,28656,28392,27581,27072,26438,26261,26032,25293,29111,28960,96305,96273","bike_types":{"4":13},"place_type":"0","rack_locks":"1"},{"uid":"2585305","lat":"52.2593225","lng":"20.9605511","name":"Pow\u0105zkowska - Krasi\u0144skiego","spot":"1","number":"9426","bikes":"19","bike_racks":"23","free_racks":"5","terminal_type":"7inch","bike_numbers":"24844,24646,28578,27657,27617,27459,26938,26536,26216,26098,25306,25019,29654,96521,96487,96240,96212,96151,96127","bike_types":{"4":19},"place_type":"0","rack_locks":"1"},{"uid":"2585306","lat":"52.2563145","lng":"20.9682307","name":"Pow\u0105zkowska - Plac Niemena","spot":"1","number":"9427","bikes":"13","bike_racks":"16","free_racks":"3","terminal_type":"7inch","bike_numbers":"24489,28821,28693,28218,28006,26110,25458,25041,28852,96534,96366,96330,96161","bike_types":{"51":1,"4":12},"place_type":"0","rack_locks":"1"},{"uid":"2585307","lat":"52.258524460024","lng":"20.970931649208","name":"Przasnyska - Rydygiera","spot":"1","number":"9428","bikes":"13","bike_racks":"15","free_racks":"2","terminal_type":"7inch","bike_numbers":"24604,24560,24471,28256,27911,27847,26592,26005,25384,25332,25302,29444,96142","bike_types":{"4":12,"51":1},"place_type":"0","rack_locks":"1"},{"uid":"2585308","lat":"52.253594","lng":"20.9798744","name":"Pow\u0105zkowska - Burakowska","spot":"1","number":"9429","bikes":"12","bike_racks":"20","free_racks":"7","terminal_type":"7inch","bike_numbers":"24665,28727,27196,27195,26926,25771,25183,29213,29047,29649,96140,96123","bike_types":{"4":12},"place_type":"0","rack_locks":"1"},{"uid":"2585311","lat":"52.2576018","lng":"20.9944975","name":"Metro Dworzec Gda\u0144ski","spot":"1","number":"9430","bikes":"21","bike_racks":"30","free_racks":"9","terminal_type":"7inch","bike_numbers":"24894,24510,28724,28537,28073,27812,27703,27674,27541,27414,27046,27035,27017,27004,26998,26765,25825,25518,25213,25021,29386","bike_types":{"4":21},"place_type":"0","rack_locks":"1"},{"uid":"2585315","lat":"52.2465952","lng":"20.9429216","name":"Obozowa - Cio\u0142ka","spot":"1","number":"9432","bikes":"5","bike_racks":"13","free_racks":"8","terminal_type":"7inch","bike_numbers":"24688,27076,29026,96300,96110","bike_types":{"4":5},"place_type":"0","rack_locks":"1"},{"uid":"2585317","lat":"52.227621983552","lng":"20.956758856773","name":"al. Prymasa Tysi\u0105clecia - Kasprzaka","spot":"1","number":"9433","bikes":"17","bike_racks":"23","free_racks":"6","terminal_type":"7inch","bike_numbers":"24023,24019,28687,27707,27534,27182,27049,26939,26846,26705,26360,26001,25742,25323,25279,96276,96093","bike_types":{"26":2,"4":15},"place_type":"0","rack_locks":"1"},{"uid":"2585319","lat":"52.246037","lng":"20.962463","name":"Obozowa - Radziwie","spot":"1","number":"9434","bikes":"6","bike_racks":"13","free_racks":"3","terminal_type":"7inch","bike_numbers":"28473,27446,29372,96524,96478,96272","bike_types":{"4":6},"place_type":"0","rack_locks":"1"},{"uid":"2585321","lat":"52.2514708","lng":"20.9857053","name":"al. Jana Paw\u0142a II - Stawki","spot":"1","number":"9435","bikes":"13","bike_racks":"23","free_racks":"9","terminal_type":"7inch","bike_numbers":"24895,28673,28528,28504,27976,27054,26837,25560,29426,28997,96545,96385,29175","bike_types":{"4":13},"place_type":"0","rack_locks":"1"},{"uid":"2585323","lat":"52.2535305","lng":"20.9924922","name":"Stawki - Dubois","spot":"1","number":"9436","bikes":"5","bike_racks":"13","free_racks":"8","terminal_type":"7inch","bike_numbers":"26473,25925,25338,25110,96121","bike_types":{"4":5},"place_type":"0","rack_locks":"1"},{"uid":"2585326","lat":"52.2541702","lng":"20.9980649","name":"Andersa - Muranowska","spot":"1","number":"9437","bikes":"20","bike_racks":"30","free_racks":"10","terminal_type":"7inch","bike_numbers":"24529,28441,28213,28114,28053,28016,26887,26813,26757,26721,26627,26206,26133,26102,25579,25525,25394,25091,96037,96582","bike_types":{"4":20},"place_type":"0","rack_locks":"1"},{"uid":"2585327","lat":"52.255877","lng":"21.0099819","name":"Sanguszki - Wybrze\u017ce Gda\u0144skie","spot":"1","number":"9438","bikes":"25","bike_racks":"28","free_racks":"6","terminal_type":"7inch","bike_numbers":"24804,24663,28542,28494,28268,28093,28078,27965,27924,27901,27480,27398,27234,27097,27083,26762,26378,25604,25387,25256,25223,25186,25043,29135,28855","bike_types":{"4":24,"0":1},"place_type":"0","rack_locks":"1"},{"uid":"2585328","lat":"52.252175","lng":"20.923692","name":"Wroc\u0142awska \u2013 Bailly","spot":"1","number":"9439","bikes":"22","bike_racks":"27","free_racks":"5","terminal_type":"7inch","bike_numbers":"24721,26395,96007,96519,96488,96384,96351,96343,96332,96317,96290,96285,96256,96245,96242,96217,96216,96194,96188,96168,96153,96125","bike_types":{"4":22},"place_type":"0","rack_locks":"1"},{"uid":"2585330","lat":"52.24418","lng":"20.97794","name":"Okopowa - Anielewicza","spot":"1","number":"9440","bikes":"19","bike_racks":"20","free_racks":"1","terminal_type":"7inch","bike_numbers":"24832,27633,27239,27222,27146,26962,26800,26674,26553,26154,26028,25972,25804,25749,25701,25563,25324,96544,96543","bike_types":{"4":19},"place_type":"0","rack_locks":"1"},{"uid":"2585333","lat":"52.2486","lng":"20.98352","name":"Smocza - Mi\u0142a","spot":"1","number":"9441","bikes":"7","bike_racks":"15","free_racks":"6","terminal_type":"7inch","bike_numbers":"24874,24834,24826,24524,27218,26047,25937","bike_types":{"4":7},"place_type":"0","rack_locks":"1"},{"uid":"2585334","lat":"52.24616","lng":"20.98538","name":"Smocza - Anielewicza","spot":"1","number":"9442","bikes":"10","bike_racks":"17","free_racks":"7","terminal_type":"7inch","bike_numbers":"24636,24528,28713,28305,27135,27093,26759,26503,25440,29165","bike_types":{"4":10},"place_type":"0","rack_locks":"1"},{"uid":"2585335","lat":"52.247226","lng":"20.9893155","name":"al. Jana Paw\u0142a II - Anielewicza","spot":"1","number":"9443","bikes":"7","bike_racks":"22","free_racks":"15","terminal_type":"7inch","bike_numbers":"24719,28692,28282,27735,26471,25052,96104","bike_types":{"4":7},"place_type":"0","rack_locks":"1"},{"uid":"2585337","lat":"52.249052","lng":"20.9948923","name":"Anielewicza - Zamenhofa","spot":"1","number":"9444","bikes":"6","bike_racks":"15","free_racks":"9","terminal_type":"7inch","bike_numbers":"28449,28046,25102,25089,96295,29272","bike_types":{"4":6},"place_type":"0","rack_locks":"1"},{"uid":"2585338","lat":"52.2492196","lng":"20.9971878","name":"Anielewicza - Andersa","spot":"1","number":"9445","bikes":"16","bike_racks":"18","free_racks":"1","terminal_type":"7inch","bike_numbers":"24724,24595,28548,27857,27050,26787,26786,26252,26231,29104,29011,29002,29121,28798,96424,96316","bike_types":{"4":15,"0":1},"place_type":"0","rack_locks":"1"},{"uid":"2585340","lat":"52.251549","lng":"21.002749","name":"Bonifraterska - Franciszka\u0144ska","spot":"1","number":"9446","bikes":"11","bike_racks":"16","free_racks":"6","terminal_type":"7inch","bike_numbers":"24976,24918,24036,27844,26830,26372,26247,26172,25550,25297,29339","bike_types":{"4":10,"54":1},"place_type":"0","rack_locks":"1"},{"uid":"2585342","lat":"52.2541119","lng":"21.0093342","name":"Ko\u015bcielna - Piesza","spot":"1","number":"9448","bikes":"14","bike_racks":"26","free_racks":"11","terminal_type":"7inch","bike_numbers":"24948,24010,28717,28488,28446,27994,27949,27876,27642,26746,26211,28965,96313,96591","bike_types":{"4":13,"26":1},"place_type":"0","rack_locks":"1"},{"uid":"2585344","lat":"52.2392622","lng":"20.8987641","name":"P\u0119tla Os. G\u00f3rczewska","spot":"1","number":"9449","bikes":"9","bike_racks":"15","free_racks":"6","terminal_type":"7inch","bike_numbers":"28701,26411,26279,25801,96031,96477,96422,96253,96174","bike_types":{"4":9},"place_type":"0","rack_locks":"1"},{"uid":"2585345","lat":"52.2389287","lng":"20.9139535","name":"Bemowo-Ratusz","spot":"1","number":"9450","bikes":"18","bike_racks":"20","free_racks":"2","terminal_type":"7inch","bike_numbers":"24975,24774,24602,28310,28146,28131,27818,26185,26171,25480,25344,96310,96164,96126,96116,96108,96099,96094","bike_types":{"4":18},"place_type":"0","rack_locks":"1"},{"uid":"2585346","lat":"52.2387861","lng":"20.9424946","name":"Okocimska - Olbrachta","spot":"1","number":"9451","bikes":"18","bike_racks":"18","free_racks":"0","terminal_type":"7inch","bike_numbers":"24822,28887,28376,27504,27070,26950,26671,26179,25379,25145,96003,96562,96440,96423,96304,96296,96221,96131","bike_types":{"4":18},"place_type":"0","rack_locks":"1"},{"uid":"2585349","lat":"52.2506241","lng":"21.0533611","name":"Dworzec Wschodni - Lubelska","spot":"1","number":"9452","bikes":"12","bike_racks":"15","free_racks":"3","terminal_type":"7inch","bike_numbers":"28694,28439,27652,27611,27499,27425,27172,26615,25593,25431,25169,25056","bike_types":{"4":12},"place_type":"0","rack_locks":"1"},{"uid":"2585351","lat":"52.2369249","lng":"20.9723559","name":"Leszno - M\u0142ynarska","spot":"1","number":"9453","bikes":"3","bike_racks":"30","free_racks":"26","terminal_type":"7inch","bike_numbers":"28428,26136,29182","bike_types":{"4":3},"place_type":"0","rack_locks":"1"},{"uid":"2585352","lat":"52.2430451","lng":"20.9803864","name":"Dzielna - Bellottiego","spot":"1","number":"9454","bikes":"8","bike_racks":"13","free_racks":"5","terminal_type":"7inch","bike_numbers":"28453,26814,26744,26542,26048,25547,29141,29221","bike_types":{"4":7,"0":1},"place_type":"0","rack_locks":"1"},{"uid":"2585353","lat":"52.24108","lng":"20.98316","name":"Wolno\u015b\u0107 - Bellottiego","spot":"1","number":"9455","bikes":"3","bike_racks":"16","free_racks":"13","terminal_type":"7inch","bike_numbers":"27244,25025,25622","bike_types":{"4":3},"place_type":"0","rack_locks":"1"},{"uid":"2585354","lat":"52.2435448","lng":"20.9873507","name":"Smocza - Nowolipki","spot":"1","number":"9456","bikes":"16","bike_racks":"16","free_racks":"0","terminal_type":"7inch","bike_numbers":"27867,27251,27051,26833,26554,26322,26166,26062,25835,25779,25203,25147,29022,29646,96564,96456","bike_types":{"4":16},"place_type":"0","rack_locks":"1"},{"uid":"2585356","lat":"52.2445767","lng":"20.99177","name":"al. Jana Paw\u0142a II - Nowolipki","spot":"1","number":"9457","bikes":"9","bike_racks":"16","free_racks":"7","terminal_type":"7inch","bike_numbers":"24813,28450,27668,27379,27170,25968,25933,25064,96298","bike_types":{"4":9},"place_type":"0","rack_locks":"1"},{"uid":"2585358","lat":"52.22868","lng":"20.91509","name":"Powsta\u0144c\u00f3w \u015al\u0105skich - Cz\u0142uchowska","spot":"1","number":"9458","bikes":"18","bike_racks":"16","free_racks":"0","terminal_type":"7inch","bike_numbers":"24742,28652,27963,27900,27894,27888,27738,26564,26508,26248,25788,25694,25682,25451,25446,25184,29119,29123","bike_types":{"4":17,"0":1},"place_type":"0","rack_locks":"1"},{"uid":"2585360","lat":"52.2342032","lng":"20.934689","name":"Jana Olbrachta - Antka Rozpylacza","spot":"1","number":"9459","bikes":"8","bike_racks":"13","free_racks":"5","terminal_type":"7inch","bike_numbers":"28397,25320,29134,96516,96444,96425,96080,96077","bike_types":{"4":8},"place_type":"0","rack_locks":"1"},{"uid":"2585364","lat":"52.2401623","lng":"20.9877277","name":"Wola-Ratusz","spot":"1","number":"9460","bikes":"8","bike_racks":"15","free_racks":"6","terminal_type":"7inch","bike_numbers":"28573,27921,26497,25635,25341,25268,96355,29211","bike_types":{"4":8},"place_type":"0","rack_locks":"1"},{"uid":"2585368","lat":"52.2445326","lng":"20.99998","name":"Plac Bankowy - Kino Muran\u00f3w","spot":"1","number":"9462","bikes":"14","bike_racks":"17","free_racks":"3","terminal_type":"7inch","bike_numbers":"24890,24862,24015,28543,28338,27431,26919,26402,26257,25603,25339,29073,29455,96527","bike_types":{"4":13,"26":1},"place_type":"0","rack_locks":"1"},{"uid":"2585369","lat":"52.2449465","lng":"21.0012943","name":"Andersa - D\u0142uga","spot":"1","number":"9463","bikes":"20","bike_racks":"30","free_racks":"10","terminal_type":"7inch","bike_numbers":"24723,24668,24577,28765,27993,27932,27604,27250,26684,26246,25929,25920,25644,25459,25438,25624,28826,96030,96294,96269","bike_types":{"4":20},"place_type":"0","rack_locks":"1"},{"uid":"2585370","lat":"52.2442666","lng":"21.0015893","name":"Marsza\u0142kowska - al. Solidarno\u015bci","spot":"1","number":"9464","bikes":"16","bike_racks":"30","free_racks":"14","terminal_type":"7inch","bike_numbers":"24522,24022,24012,28747,28646,28615,28417,27779,27586,27540,27506,26793,26509,26465,96166,29208","bike_types":{"4":14,"26":2},"place_type":"0","rack_locks":"1"},{"uid":"2585371","lat":"52.2431975","lng":"21.0016603","name":"Plac Bankowy - Ratusz","spot":"1","number":"9465","bikes":"22","bike_racks":"30","free_racks":"6","terminal_type":"7inch","bike_numbers":"24850,24682,24591,28547,28315,28293,27939,27820,27729,27370,26773,26224,26079,26077,26014,25963,25020,29200,96059,96450,96410,96390","bike_types":{"4":22},"place_type":"0","rack_locks":"1"},{"uid":"2585373","lat":"52.2435719","lng":"21.0066801","name":"Senatorska - Biela\u0144ska","spot":"1","number":"9466","bikes":"14","bike_racks":"17","free_racks":"4","terminal_type":"7inch","bike_numbers":"24971,24930,24530,28755,28703,28021,27772,27071,26842,26747,26002,25934,25105,29345","bike_types":{"4":14},"place_type":"0","rack_locks":"1"},{"uid":"2585377","lat":"52.246314509834","lng":"21.0113042593","name":"Miodowa","spot":"1","number":"9467","bikes":"20","bike_racks":"24","free_racks":"6","terminal_type":"7inch","bike_numbers":"24972,24856,28534,28015,27795,27705,27545,26442,25824,25681,25606,25516,29342,29063,29023,29644,96246,96222,96204,96086","bike_types":{"4":20},"place_type":"0","rack_locks":"1"},{"uid":"2585378","lat":"52.2435965","lng":"21.0140803","name":"Krakowskie Przedmie\u015bcie - Tr\u0119backa","spot":"1","number":"9468","bikes":"8","bike_racks":"14","free_racks":"6","terminal_type":"7inch","bike_numbers":"24030,24001,28648,27592,27557,26789,26256,25916","bike_types":{"26":2,"4":6},"place_type":"0","rack_locks":"1"},{"uid":"2585379","lat":"52.2465625","lng":"21.0174345","name":"Mariensztat","spot":"1","number":"9469","bikes":"19","bike_racks":"15","free_racks":"2","terminal_type":"7inch","bike_numbers":"24475,28505,27905,27877,27701,27544,27413,27314,26918,25862,25592,25467,29344,29117,29091,29054,28970,29190,29163","bike_types":{"51":1,"4":18},"place_type":"0","rack_locks":"1"},{"uid":"2585381","lat":"52.224934","lng":"20.945489","name":"Jana Kazimierza - Giz\u00f3w","spot":"1","number":"9471","bikes":"9","bike_racks":"13","free_racks":"3","terminal_type":"7inch","bike_numbers":"24508,28561,28072,27593,27511,26040,25500,96022,96106","bike_types":{"4":9},"place_type":"0","rack_locks":"1"},{"uid":"2585385","lat":"52.2299137","lng":"20.9508179","name":"Wolska - Elekcyjna","spot":"1","number":"9472","bikes":"16","bike_racks":"20","free_racks":"4","terminal_type":"7inch","bike_numbers":"24586,28309,28083,27133,26912,26598,26545,26483,26390,25613,25485,25079,28808,96547,96407,96103","bike_types":{"4":16},"place_type":"0","rack_locks":"1"},{"uid":"2585387","lat":"52.237662392829","lng":"20.955492854118","name":"al. Prymasa Tysi\u0105clecia - G\u00f3rczewska","spot":"1","number":"9473","bikes":"12","bike_racks":"20","free_racks":"8","terminal_type":"7inch","bike_numbers":"28643,28487,28320,27089,26893,25873,25732,25653,96531,96514,96513,96170","bike_types":{"4":12},"place_type":"0","rack_locks":"1"},{"uid":"2585389","lat":"52.2333374","lng":"20.9652776","name":"Wolska - P\u0142ocka","spot":"1","number":"9474","bikes":"21","bike_racks":"15","free_racks":"0","terminal_type":"7inch","bike_numbers":"24926,24897,24783,24621,24569,28554,26815,26522,26480,25974,25415,25018,29039,29126,96438,96388,96381,96370,96244,96172,29156","bike_types":{"4":20,"0":1},"place_type":"0","rack_locks":"1"},{"uid":"2585391","lat":"52.228522296173","lng":"20.969638824463","name":"Kasprzaka - Skierniewicka","spot":"1","number":"9475","bikes":"18","bike_racks":"21","free_racks":"4","terminal_type":"7inch","bike_numbers":"24765,24526,28192,28116,28060,27501,27162,27062,26451,25026,29070,28854,28911,96057,96558,96549,96441,96139","bike_types":{"4":18},"place_type":"0","rack_locks":"1"},{"uid":"2585394","lat":"52.22898","lng":"20.97843","name":"Kasprzaka - Karolkowa","spot":"1","number":"9476","bikes":"3","bike_racks":"15","free_racks":"11","terminal_type":"7inch","bike_numbers":"27345,26834,96369","bike_types":{"4":3},"place_type":"0","rack_locks":"1"},{"uid":"2585396","lat":"52.2328752","lng":"20.9805411","name":"Muzeum Powstania Warszawskiego","spot":"1","number":"9477","bikes":"8","bike_racks":"10","free_racks":"2","terminal_type":"7inch","bike_numbers":"24029,28712,28498,26742,25385,25156,29113,29102","bike_types":{"26":1,"4":7},"place_type":"0","rack_locks":"1"},{"uid":"2585398","lat":"52.22983","lng":"20.983123","name":"Metro Rondo Daszy\u0144skiego","spot":"1","number":"9478","bikes":"14","bike_racks":"26","free_racks":"12","terminal_type":"7inch","bike_numbers":"24942,28636,27395,27228,26756,26655,26618,26116,25640,25573,25090,96459,96348,96154","bike_types":{"4":14},"place_type":"0","rack_locks":"1"},{"uid":"2585400","lat":"52.23145","lng":"20.98869","name":"Prosta - Wronia","spot":"1","number":"9479","bikes":"3","bike_racks":"15","free_racks":"11","terminal_type":"7inch","bike_numbers":"24628,27764,96454","bike_types":{"4":3},"place_type":"0","rack_locks":"1"},{"uid":"2585401","lat":"52.2373141","lng":"20.9888488","name":"\u017belazna - Ch\u0142odna","spot":"1","number":"9480","bikes":"10","bike_racks":"15","free_racks":"5","terminal_type":"7inch","bike_numbers":"28517,27870,26622,26583,25586,25468,25162,28909,28861,96303","bike_types":{"4":10},"place_type":"0","rack_locks":"1"},{"uid":"2585402","lat":"52.2344946","lng":"20.9905117","name":"\u017belazna - Grzybowska","spot":"1","number":"9481","bikes":"6","bike_racks":"20","free_racks":"14","terminal_type":"7inch","bike_numbers":"24017,27016,26673,26092,25488,25311","bike_types":{"26":1,"4":5},"place_type":"0","rack_locks":"1"},{"uid":"2585405","lat":"52.238666","lng":"20.9957314","name":"al. Jana Paw\u0142a II - Plac Mirowski","spot":"1","number":"9482","bikes":"7","bike_racks":"16","free_racks":"10","terminal_type":"7inch","bike_numbers":"28671,26379,26144,25945,25857,25449,25402","bike_types":{"4":7},"place_type":"0","rack_locks":"1"},{"uid":"2585406","lat":"52.2357151","lng":"20.9966071","name":"al. Jana Paw\u0142a II - Grzybowska","spot":"1","number":"9483","bikes":"22","bike_racks":"23","free_racks":"4","terminal_type":"7inch","bike_numbers":"24734,24658,24497,25000,28630,27830,27293,27277,26875,26611,26439,26204,25896,25249,25177,96466,96302,96208,96190,96133,96097,29223","bike_types":{"4":21,"51":1},"place_type":"0","rack_locks":"1"},{"uid":"2585410","lat":"52.23958","lng":"21.00027","name":"Ptasia - Zimna","spot":"1","number":"9485","bikes":"15","bike_racks":"16","free_racks":"3","terminal_type":"7inch","bike_numbers":"24978,28317,28191,27008,26960,26851,26590,26445,26170,26033,25935,25390,28950,96493,96213","bike_types":{"4":15},"place_type":"0","rack_locks":"1"},{"uid":"2585412","lat":"52.2336314","lng":"21.0028795","name":"Emilii Plater - \u015awi\u0119tokrzyska","spot":"1","number":"9486","bikes":"26","bike_racks":"26","free_racks":"1","terminal_type":"7inch","bike_numbers":"24831,24659,24648,24640,28303,28004,27846,27740,27266,26729,26666,26591,26537,26397,26309,26307,26124,25786,25411,25371,25303,25221,25062,25627,28964,96461","bike_types":{"4":26},"place_type":"0","rack_locks":"1"},{"uid":"2585413","lat":"52.2358704","lng":"21.0037806","name":"Plac Grzybowski","spot":"1","number":"9487","bikes":"20","bike_racks":"26","free_racks":"4","terminal_type":"7inch","bike_numbers":"24907,24664,24523,24026,28410,28071,27767,27565,27254,26131,25985,25888,25615,25539,25426,25241,25176,96050,96387,96205","bike_types":{"4":19,"26":1},"place_type":"0","rack_locks":"1"},{"uid":"2585416","lat":"52.2384853","lng":"21.0067552","name":"Marsza\u0142kowska - Kr\u00f3lewska","spot":"1","number":"9488","bikes":"3","bike_racks":"19","free_racks":"16","terminal_type":"7inch","bike_numbers":"24040,26069,25106","bike_types":{"26":1,"4":2},"place_type":"0","rack_locks":"1"},{"uid":"2585417","lat":"52.2364206","lng":"21.0072407","name":"Marsza\u0142kowska - Zielna","spot":"1","number":"9489","bikes":"12","bike_racks":"30","free_racks":"17","terminal_type":"7inch","bike_numbers":"24927,24701,24548,24482,27832,27778,27702,27512,26867,26425,25188,29149","bike_types":{"4":11,"51":1},"place_type":"0","rack_locks":"1"},{"uid":"2585420","lat":"52.2397008","lng":"21.0119292","name":"Plac Ma\u0142achowskiego","spot":"1","number":"9491","bikes":"9","bike_racks":"16","free_racks":"7","terminal_type":"7inch","bike_numbers":"24694,28899,28019,27833,25356,29445,96474,29187,29210","bike_types":{"4":9},"place_type":"0","rack_locks":"1"},{"uid":"2585422","lat":"52.2359114","lng":"21.0135654","name":"Plac Powsta\u0144c\u00f3w Warszawy","spot":"1","number":"9492","bikes":"11","bike_racks":"20","free_racks":"9","terminal_type":"7inch","bike_numbers":"24005,28252,26495,25854,25724,25278,29349,29080,28954,29387,28995","bike_types":{"26":1,"4":10},"place_type":"0","rack_locks":"1"},{"uid":"2585423","lat":"52.2393559","lng":"21.016603","name":"Krakowskie Przedmie\u015bcie - Traugutta","spot":"1","number":"9493","bikes":"12","bike_racks":"24","free_racks":"12","terminal_type":"7inch","bike_numbers":"24956,24824,28138,27804,27119,27091,26859,26783,26357,26026,25847,96275","bike_types":{"4":12},"place_type":"0","rack_locks":"1"},{"uid":"2585429","lat":"52.238298","lng":"21.0184014","name":"Obo\u017ana - Kopernika","spot":"1","number":"9495","bikes":"5","bike_racks":"22","free_racks":"17","terminal_type":"7inch","bike_numbers":"24823,27610,27073,26000,25851","bike_types":{"4":5},"place_type":"0","rack_locks":"1"},{"uid":"2585430","lat":"52.2418852","lng":"21.0241279","name":"Lipowa - Dobra","spot":"1","number":"9496","bikes":"21","bike_racks":"19","free_racks":"3","terminal_type":"7inch","bike_numbers":"24766,24517,28501,28405,28281,27808,27641,27295,26528,26162,25912,25863,25741,25705,25641,25620,29027,29446,25961,96386,29216","bike_types":{"4":21},"place_type":"0","rack_locks":"1"},{"uid":"2585431","lat":"52.2413087","lng":"21.0281727","name":"Centrum Nauki Kopernik","spot":"1","number":"9497","bikes":"18","bike_racks":"30","free_racks":"12","terminal_type":"7inch","bike_numbers":"28391,28265,27827,26876,26753,26219,25992,25939,25445,96428,29191,29174,29171,29164,29162,29161,29159,29157","bike_types":{"4":18},"place_type":"0","rack_locks":"1"},{"uid":"2585432","lat":"52.2264464","lng":"20.9837164","name":"Kolejowa","spot":"1","number":"9498","bikes":"3","bike_racks":"16","free_racks":"12","terminal_type":"7inch","bike_numbers":"24033,26187,96415","bike_types":{"26":1,"4":2},"place_type":"0","rack_locks":"1"},{"uid":"2585433","lat":"52.22983","lng":"20.993996","name":"\u017belazna - Sienna","spot":"1","number":"9499","bikes":"15","bike_racks":"24","free_racks":"6","terminal_type":"7inch","bike_numbers":"24573,28772,27843,27829,27720,27606,27243,27113,27007,26821,25463,29082,29365,29173,24053","bike_types":{"4":14,"26":1},"place_type":"0","rack_locks":"1"},{"uid":"2585435","lat":"52.230201297582","lng":"20.999550819397","name":"al. Jana Paw\u0142a II - Z\u0142ota","spot":"1","number":"9500","bikes":"10","bike_racks":"16","free_racks":"7","terminal_type":"7inch","bike_numbers":"28540,27664,27026,27011,26966,26320,26191,25687,25258,29441","bike_types":{"4":10},"place_type":"0","rack_locks":"1"},{"uid":"2585438","lat":"52.2309778","lng":"21.0036755","name":"Emilii Plater - Z\u0142ota","spot":"1","number":"9501","bikes":"41","bike_racks":"30","free_racks":"0","terminal_type":"7inch","bike_numbers":"24751,28902,28681,28639,28612,28469,28333,28130,28025,27513,27496,27453,27391,27359,27216,27205,27158,26957,26501,26249,26195,25837,25713,25442,25432,25422,25413,25155,25032,29364,29421,28841,28875,96058,96029,96572,96506,96485,96412,96329,96283","bike_types":{"4":41},"place_type":"0","rack_locks":"1"},{"uid":"2585440","lat":"52.232816601853","lng":"21.006980538368","name":"Pa\u0142ac Kultury i Nauki","spot":"1","number":"9502","bikes":"7","bike_racks":"17","free_racks":"10","terminal_type":"7inch","bike_numbers":"28602,28288,28287,27815,27286,25757,25437","bike_types":{"4":7},"place_type":"0","rack_locks":"1"},{"uid":"2585442","lat":"52.232934","lng":"21.0101791","name":"Marsza\u0142kowska - Z\u0142ota","spot":"1","number":"9503","bikes":"15","bike_racks":"22","free_racks":"9","terminal_type":"7inch","bike_numbers":"24707,24607,24021,28448,27505,27317,26997,26971,26313,26181,26152,26086,25504,25493,25094","bike_types":{"4":14,"26":1},"place_type":"0","rack_locks":"1"},{"uid":"2585445","lat":"52.231987","lng":"21.016092","name":"Bracka - Krucza","spot":"1","number":"9504","bikes":"20","bike_racks":"20","free_racks":"0","terminal_type":"7inch","bike_numbers":"24982,24780,24630,25006,28804,28481,27942,27848,27469,27447,27381,26922,26720,26367,26278,25736,25676,25218,96045,96432","bike_types":{"4":20},"place_type":"0","rack_locks":"1"},{"uid":"2585446","lat":"52.2355713","lng":"21.0179642","name":"Nowy \u015awiat - Warecka","spot":"1","number":"9505","bikes":"9","bike_racks":"24","free_racks":"15","terminal_type":"7inch","bike_numbers":"24619,24506,28457,27404,25949,25540,25367,25310,29122","bike_types":{"4":8,"0":1},"place_type":"0","rack_locks":"1"},{"uid":"2585447","lat":"52.2337571","lng":"21.0202789","name":"Ga\u0142czy\u0144skiego - Foksal","spot":"1","number":"9506","bikes":"13","bike_racks":"24","free_racks":"11","terminal_type":"7inch","bike_numbers":"24876,28522,27312,26481,26420,25860,25465,96128,29196,29195,29202,29227,29218","bike_types":{"4":13},"place_type":"0","rack_locks":"1"},{"uid":"2585450","lat":"52.2375934","lng":"21.0256487","name":"Topiel - Tamka","spot":"1","number":"9507","bikes":"12","bike_racks":"20","free_racks":"7","terminal_type":"7inch","bike_numbers":"24485,28750,28119,27655,27219,27023,26335,26082,26044,25227,25211,24048","bike_types":{"51":1,"4":10,"26":1},"place_type":"0","rack_locks":"1"},{"uid":"2585452","lat":"52.2358752","lng":"21.0317323","name":"Solec - Jaracza","spot":"1","number":"9508","bikes":"16","bike_racks":"15","free_racks":"0","terminal_type":"7inch","bike_numbers":"24986,24790,24762,24740,24016,28062,28047,26933,26658,26368,26117,29360,28813,96503,96324,96250","bike_types":{"4":15,"26":1},"place_type":"0","rack_locks":"1"},{"uid":"2585453","lat":"52.2218874","lng":"20.9795301","name":"al. Jerozolimskie - Niemcewicza","spot":"1","number":"9509","bikes":"10","bike_racks":"19","free_racks":"9","terminal_type":"7inch","bike_numbers":"24916,27253,27142,26810,26712,26111,25143,96236,96169,96149","bike_types":{"4":10},"place_type":"0","rack_locks":"1"},{"uid":"2585455","lat":"52.2222155","lng":"20.9866293","name":"Ochota-Ratusz","spot":"1","number":"9510","bikes":"9","bike_racks":"23","free_racks":"14","terminal_type":"7inch","bike_numbers":"24837,27797,27582,29105,29096,28865,96036,96177,96156","bike_types":{"4":9},"place_type":"0","rack_locks":"1"},{"uid":"2585457","lat":"52.2249718","lng":"20.9897661","name":"Plac Zawiszy","spot":"1","number":"9511","bikes":"17","bike_racks":"24","free_racks":"9","terminal_type":"7inch","bike_numbers":"24787,28459,27810,26980,26917,26722,26538,25792,25723,25721,25595,25290,25016,28912,29657,96009,29147","bike_types":{"4":17},"place_type":"0","rack_locks":"1"},{"uid":"2585460","lat":"52.22626","lng":"20.9961309","name":"al. Jerozolimskie - Lindleya","spot":"1","number":"9512","bikes":"1","bike_racks":"15","free_racks":"14","terminal_type":"7inch","bike_numbers":"96220","bike_types":{"4":1},"place_type":"0","rack_locks":"1"},{"uid":"2585462","lat":"52.2241455","lng":"20.9975244","name":"Lindleya - szpital","spot":"1","number":"9513","bikes":"26","bike_racks":"28","free_racks":"9","terminal_type":"7inch","bike_numbers":"24643,25002,28564,28276,27837,27645,27577,26916,26630,26549,26527,26356,26030,25978,25800,25778,25648,25484,29456,28894,28989,96053,96006,96243,96218,29206","bike_types":{"4":26},"place_type":"0","rack_locks":"1"},{"uid":"2585464","lat":"52.227861","lng":"21.0008509","name":"Warszawa \u015ar\u00f3dmie\u015bcie WKD","spot":"1","number":"9514","bikes":"17","bike_racks":"18","free_racks":"1","terminal_type":"7inch","bike_numbers":"28719,28152,27788,27444,27138,27012,26942,26889,26607,26594,26412,25952,25392,25313,25308,96391,29203","bike_types":{"4":17},"place_type":"0","rack_locks":"1"},{"uid":"2585466","lat":"52.2249555","lng":"21.0031664","name":"Oczki - WUM","spot":"1","number":"9515","bikes":"17","bike_racks":"19","free_racks":"2","terminal_type":"7inch","bike_numbers":"24806,24743,24563,24474,28735,28718,28291,27731,27561,26475,25976,25144,25118,29447,28974,96395,96353","bike_types":{"4":16,"51":1},"place_type":"0","rack_locks":"1"},{"uid":"2585469","lat":"52.2290464","lng":"21.0054544","name":"Emilii Plater - Al. Jerozolimskie","spot":"1","number":"9517","bikes":"18","bike_racks":"30","free_racks":"11","terminal_type":"7inch","bike_numbers":"24999,24717,24507,27865,27744,27678,27573,27449,26884,26766,26431,26118,26103,25858,25820,25401,29461,96507","bike_types":{"4":18},"place_type":"0","rack_locks":"1"},{"uid":"2585470","lat":"52.2259343","lng":"21.0067537","name":"Emilii Plater - Wsp\u00f3lna","spot":"1","number":"9518","bikes":"9","bike_racks":"15","free_racks":"6","terminal_type":"7inch","bike_numbers":"24797,28411,28108,27022,26839,26725,26041,25844,25212","bike_types":{"4":9},"place_type":"0","rack_locks":"1"},{"uid":"2585472","lat":"52.23001","lng":"21.01088","name":"Metro Centrum","spot":"1","number":"9519","bikes":"13","bike_racks":"30","free_racks":"17","terminal_type":"7inch","bike_numbers":"28715,28635,28422,27245,26930,26880,26262,26122,25966,25922,25904,25207,25204","bike_types":{"4":13},"place_type":"0","rack_locks":"1"},{"uid":"2585473","lat":"52.229347019086","lng":"21.011314988136","name":"Marsza\u0142kowska - Al. Jerozolimskie","spot":"1","number":"9520","bikes":"22","bike_racks":"20","free_racks":"0","terminal_type":"7inch","bike_numbers":"24995,24924,24914,24771,24732,24525,28576,28000,27944,27899,27102,26198,25870,25866,25410,25316,25013,29015,96048,96463,29209,29225","bike_types":{"4":22},"place_type":"0","rack_locks":"1"},{"uid":"2585476","lat":"52.230418150276","lng":"21.013610959053","name":"al. Jerozolimskie - rejon Rotundy","spot":"1","number":"9521","bikes":"23","bike_racks":"24","free_racks":"1","terminal_type":"7inch","bike_numbers":"24980,24809,24622,28275,28269,28020,27926,27883,27716,27684,26709,26704,26665,26393,26277,25782,25708,25643,25517,29034,96403,29193,24049","bike_types":{"4":22,"26":1},"place_type":"0","rack_locks":"1"},{"uid":"2585477","lat":"52.2262882","lng":"21.0135705","name":"Marsza\u0142kowska - Ho\u017ca","spot":"1","number":"9522","bikes":"15","bike_racks":"15","free_racks":"6","terminal_type":"7inch","bike_numbers":"24828,28677,28472,28128,27698,26776,26685,25751,25380,25342,25231,96405,96180,29199,29181","bike_types":{"4":15},"place_type":"0","rack_locks":"1"},{"uid":"2585492","lat":"52.2282923","lng":"21.0178542","name":"Krucza - Wsp\u00f3lna","spot":"1","number":"9523","bikes":"17","bike_racks":"28","free_racks":"11","terminal_type":"7inch","bike_numbers":"24651,24476,28134,27457,26794,26560,26128,25481,25337,25081,25015,28867,96542,96498,96408,96214,96084","bike_types":{"4":16,"51":1},"place_type":"0","rack_locks":"1"},{"uid":"2585684","lat":"52.23144","lng":"21.0213036","name":"Rondo de Gaulle'a","spot":"1","number":"9524","bikes":"14","bike_racks":"22","free_racks":"8","terminal_type":"7inch","bike_numbers":"24706,28584,27903,27809,27613,27081,26638,26526,25544,29347,96327,29198,29197,29154","bike_types":{"4":14},"place_type":"0","rack_locks":"1"},{"uid":"2585694","lat":"52.2278487","lng":"21.0235084","name":"Plac Trzech Krzy\u017cy","spot":"1","number":"9525","bikes":"8","bike_racks":"23","free_racks":"15","maintenance":"1","terminal_type":"7inch","bike_numbers":"28464,28404,27725,26387,26105,25469,25151,96152","bike_types":{"4":8},"place_type":"0","rack_locks":"1"},{"uid":"2585695","lat":"52.23324","lng":"21.0261179","name":"Smolna - PKP Powi\u015ble","spot":"1","number":"9526","bikes":"18","bike_racks":"18","free_racks":"0","terminal_type":"7inch","bike_numbers":"28253,28132,27759,27743,27468,27421,27160,26446,26308,26123,26075,26007,25887,25840,25753,28910,28900,96523","bike_types":{"4":18},"place_type":"0","rack_locks":"1"},{"uid":"2585699","lat":"52.2340191","lng":"21.0300328","name":"Herberta - PKP Powi\u015ble","spot":"1","number":"9527","bikes":"19","bike_racks":"26","free_racks":"9","terminal_type":"7inch","bike_numbers":"24973,28616,28603,28356,28139,27749,27630,27390,27362,27209,26363,26339,26009,25859,25739,25532,25299,29048,29153","bike_types":{"4":19},"place_type":"0","rack_locks":"1"},{"uid":"2585704","lat":"52.2347879","lng":"21.0340991","name":"Solec - al. 3 Maja","spot":"1","number":"9528","bikes":"16","bike_racks":"24","free_racks":"8","terminal_type":"7inch","bike_numbers":"24912,28143,27946,26346,26226,25897,25658,25621,25119,29057,29032,96398,96346,96337,29207,24055","bike_types":{"4":15,"26":1},"place_type":"0","rack_locks":"1"},{"uid":"2585708","lat":"52.2301405","lng":"21.0303694","name":"Ksi\u0105\u017c\u0119ca - Rozbrat","spot":"1","number":"9529","bikes":"12","bike_racks":"15","free_racks":"3","terminal_type":"7inch","bike_numbers":"28595,28140,26750,26648,25798,25069,29367,25958,28806,96034,96033,96342","bike_types":{"4":12},"place_type":"0","rack_locks":"1"},{"uid":"2585711","lat":"52.2172177","lng":"20.9713608","name":"Szcz\u0119\u015bliwicka - APS","spot":"1","number":"9530","bikes":"16","bike_racks":"22","free_racks":"5","terminal_type":"7inch","bike_numbers":"24953,24920,28620,28529,27967,27190,26982,25566,25082,25036,28878,28883,96287,96178,96081,29188","bike_types":{"4":16},"place_type":"0","rack_locks":"1"},{"uid":"2585712","lat":"52.2179474","lng":"20.9775567","name":"Kopi\u0144ska - Bia\u0142obrzeska","spot":"1","number":"9531","bikes":"5","bike_racks":"15","free_racks":"10","terminal_type":"7inch","bike_numbers":"28708,28563,26523,25953,96189","bike_types":{"4":5},"place_type":"0","rack_locks":"1"},{"uid":"2585714","lat":"52.2178554","lng":"20.9828138","name":"Plac Narutowicza","spot":"1","number":"9532","bikes":"24","bike_racks":"30","free_racks":"6","terminal_type":"7inch","bike_numbers":"24737,24610,24004,28511,28307,27566,27497,27148,26991,26743,26714,26586,26353,25720,25397,29077,96462,96365,96360,96309,96289,96262,96252,96197","bike_types":{"4":23,"26":1},"place_type":"0","rack_locks":"1"},{"uid":"2585716","lat":"52.216641","lng":"20.9879476","name":"Raszy\u0144ska - Wawelska","spot":"1","number":"9533","bikes":"2","bike_racks":"12","free_racks":"10","terminal_type":"7inch","bike_numbers":"24882,26157","bike_types":{"4":2},"place_type":"0","rack_locks":"1"},{"uid":"2585717","lat":"52.2191029","lng":"20.9890149","name":"Raszy\u0144ska - Filtrowa","spot":"1","number":"9534","bikes":"19","bike_racks":"18","free_racks":"1","terminal_type":"7inch","bike_numbers":"24908,27572,27450,27411,26662,26660,26596,26016,25986,25827,25754,25543,25126,25034,29137,28914,96437,96368,96207","bike_types":{"4":18,"0":1},"place_type":"0","rack_locks":"1"},{"uid":"2585720","lat":"52.220676","lng":"21.0045554","name":"al. Niepodleg\u0142o\u015bci - Nowowiejska","spot":"1","number":"9535","bikes":"13","bike_racks":"30","free_racks":"17","terminal_type":"7inch","bike_numbers":"24998,24981,24514,28154,27969,27374,27306,27057,26890,25971,25886,25684,96540","bike_types":{"4":13},"place_type":"0","rack_locks":"1"},{"uid":"2585721","lat":"52.2174693","lng":"21.0056537","name":"Kaczy\u0144skiego - al. Niepodleg\u0142o\u015bci","spot":"1","number":"9536","bikes":"12","bike_racks":"16","free_racks":"4","terminal_type":"7inch","bike_numbers":"28207,27794,27677,27000,26690,25639,25418,25046,29128,28961,96198,96175","bike_types":{"4":11,"0":1},"place_type":"0","rack_locks":"1"},{"uid":"2585722","lat":"52.2226831","lng":"21.0081097","name":"Noakowskiego - Koszykowa","spot":"1","number":"9537","bikes":"14","bike_racks":"24","free_racks":"10","terminal_type":"7inch","bike_numbers":"24951,24885,24794,28408,27568,27066,26796,26132,26012,25408,25336,29359,96394,29226","bike_types":{"4":14},"place_type":"0","rack_locks":"1"},{"uid":"2585724","lat":"52.219916","lng":"21.0116824","name":"Plac Politechniki","spot":"1","number":"9538","bikes":"9","bike_racks":"27","free_racks":"18","terminal_type":"7inch","bike_numbers":"24854,24693,27777,26715,26051,25911,25905,25611,25373","bike_types":{"4":9},"place_type":"0","rack_locks":"1"},{"uid":"2585727","lat":"52.223503","lng":"21.0128519","name":"Pozna\u0144ska - Zesp\u00f3\u0142 Szk\u00f3\u0142 Gastronomicznych","spot":"1","number":"9539","bikes":"13","bike_racks":"18","free_racks":"5","terminal_type":"7inch","bike_numbers":"24802,24779,24531,24466,28331,27891,27252,27044,25987,25363,25315,29031,96308","bike_types":{"4":12,"51":1},"place_type":"0","rack_locks":"1"},{"uid":"2585728","lat":"52.2174857","lng":"21.0142949","name":"Rondo Jazdy Polskiej","spot":"1","number":"9540","bikes":"18","bike_racks":"24","free_racks":"5","terminal_type":"7inch","bike_numbers":"24932,24755,24496,24002,28347,28294,28123,27806,27213,27141,27088,26512,25717,25425,28891,96043,96132,24052","bike_types":{"4":15,"51":1,"26":2},"place_type":"0","rack_locks":"1"},{"uid":"2585729","lat":"52.2197435","lng":"21.0157353","name":"Metro Politechnika - Nowowiejska","spot":"1","number":"9541","bikes":"15","bike_racks":"18","free_racks":"3","terminal_type":"7inch","bike_numbers":"24888,24712,24634,28052,27661,27533,26738,26269,25983,25679,25668,25636,28962,96458,29215","bike_types":{"4":15},"place_type":"0","rack_locks":"1"},{"uid":"2585731","lat":"52.2197681","lng":"21.0172775","name":"Plac Zbawiciela","spot":"1","number":"9542","bikes":"10","bike_racks":"12","free_racks":"2","terminal_type":"7inch","bike_numbers":"24681,24593,28393,28259,27622,27186,27131,26696,26406,25707","bike_types":{"4":10},"place_type":"0","rack_locks":"1"},{"uid":"2585735","lat":"52.2229427","lng":"21.0158211","name":"Plac Konstytucji","spot":"1","number":"9543","bikes":"9","bike_racks":"30","free_racks":"21","terminal_type":"7inch","bike_numbers":"24905,28068,27774,26701,26104,26083,25762,25060,96013","bike_types":{"4":9},"place_type":"0","rack_locks":"1"},{"uid":"2585737","lat":"52.2238152","lng":"21.0207859","name":"Mokotowska - Pi\u0119kna","spot":"1","number":"9544","bikes":"18","bike_racks":"20","free_racks":"1","terminal_type":"7inch","bike_numbers":"24758,24564,24028,28357,27745,27396,26865,26640,26516,26479,26099,25875,25755,25361,25121,28871,96571,96182","bike_types":{"4":17,"26":1},"place_type":"0","rack_locks":"1"},{"uid":"2585738","lat":"52.2200212","lng":"21.0256299","name":"Plac na Rozdro\u017cu","spot":"1","number":"9545","bikes":"16","bike_racks":"26","free_racks":"10","terminal_type":"7inch","bike_numbers":"24969,24805,24647,24590,28819,27437,27369,26910,26328,25412,28935,28838,28967,28988,29189,29220","bike_types":{"4":16},"place_type":"0","rack_locks":"1"},{"uid":"2585742","lat":"52.2249504","lng":"21.0268155","name":"Matejki - Wiejska","spot":"1","number":"9546","bikes":"27","bike_racks":"20","free_racks":"0","terminal_type":"7inch","bike_numbers":"24911,24909,24675,28739,28538,28493,28158,27208,27179,27025,26563,26498,25855,25572,25519,25466,25414,25254,25127,25086,29352,29103,29067,96529,96467,96191,29186","bike_types":{"4":27},"place_type":"0","rack_locks":"1"},{"uid":"2585747","lat":"52.2221129","lng":"21.0343873","name":"My\u015bliwiecka - Rozbrat","spot":"1","number":"9547","bikes":"50","bike_racks":"21","free_racks":"0","terminal_type":"7inch","bike_numbers":"24933,24847,24801,24620,24521,24456,28722,28697,28611,28086,27915,27856,27663,27608,27319,27103,27060,27045,27031,26959,26818,26405,26266,26192,25900,25864,25730,25510,25509,25441,25383,25365,25219,25071,28944,28805,96005,96546,96537,96451,96361,96354,96328,96134,96100,29177,29166,29160,29222,24054","bike_types":{"4":48,"51":1,"16":1,"26":1},"place_type":"0","rack_locks":"1"},{"uid":"2585748","lat":"52.2277124","lng":"21.0442955","name":"Port Czerniakowski","spot":"1","number":"9548","bikes":"17","bike_racks":"30","free_racks":"13","terminal_type":"7inch","bike_numbers":"24853,28637,28617,27515,27270,27215,26858,26755,26730,26543,26273,26055,25541,25175,25051,29459,29436","bike_types":{"4":17},"place_type":"0","rack_locks":"1"},{"uid":"2585749","lat":"52.2109711","lng":"20.9759125","name":"Gr\u00f3jecka - Bitwy Warszawskiej 1920 roku","spot":"1","number":"9549","bikes":"7","bike_racks":"20","free_racks":"13","terminal_type":"7inch","bike_numbers":"27878,26908,63608,96511,96476,96210,96183","bike_types":{"4":7},"place_type":"0","rack_locks":"1"},{"uid":"2585750","lat":"52.2130296","lng":"20.9819985","name":"Pasteura - Winnicka - UW","spot":"1","number":"9550","bikes":"13","bike_racks":"24","free_racks":"11","terminal_type":"7inch","bike_numbers":"24859,24768,24617,28769,28115,27951,27710,26045,26011,25277,25109,28963,96018","bike_types":{"4":13},"place_type":"0","rack_locks":"1"},{"uid":"2585762","lat":"52.2107722","lng":"20.9847557","name":"Stefana Banacha - UW","spot":"1","number":"9551","bikes":"12","bike_racks":"29","free_racks":"14","terminal_type":"7inch","bike_numbers":"24773,24720,24556,24470,24031,27909,26115,26013,26003,25697,25116,25012","bike_types":{"4":10,"51":1,"26":1},"place_type":"0","rack_locks":"1"},{"uid":"2585764","lat":"52.212671","lng":"21.003437","name":"Biblioteka Narodowa","spot":"1","number":"9552","bikes":"15","bike_racks":"24","free_racks":"11","terminal_type":"7inch","bike_numbers":"24842,24044,24038,28761,27801,27526,27474,27058,26407,26008,25874,25843,29092,96023,96383","bike_types":{"4":13,"26":2},"place_type":"0","rack_locks":"1"},{"uid":"2585766","lat":"52.21691","lng":"21.01997","name":"Marsza\u0142kowska - Litewska","spot":"1","number":"9553","bikes":"7","bike_racks":"15","free_racks":"8","terminal_type":"7inch","bike_numbers":"24987,28820,28352,27813,27424,26493,28847","bike_types":{"4":7},"place_type":"0","rack_locks":"1"},{"uid":"2585770","lat":"52.2083858","lng":"20.9631103","name":"P\u0119tla Szcz\u0119\u015bliwice","spot":"1","number":"9554","bikes":"13","bike_racks":"19","free_racks":"6","terminal_type":"7inch","bike_numbers":"28726,27869,27553,26608,26146,25698,25645,29010,28835,28824,96038,96470,96469","bike_types":{"4":13},"place_type":"0","rack_locks":"1"},{"uid":"2585771","lat":"52.206153650625","lng":"20.970287919044","name":"Dickensa - Geodet\u00f3w","spot":"1","number":"9555","bikes":"12","bike_racks":"16","free_racks":"4","terminal_type":"7inch","bike_numbers":"27983,27609,26190,25917,25444,25391,25282,28879,96496,96331,96202,29170","bike_types":{"4":12},"place_type":"0","rack_locks":"1"},{"uid":"2585772","lat":"52.205361371875","lng":"20.984664559364","name":"\u017bwirki i Wigury - Ksi\u0119cia Trojdena","spot":"1","number":"9556","bikes":"7","bike_racks":"17","free_racks":"10","terminal_type":"7inch","bike_numbers":"27918,27838,27477,27432,25471,29036,29449","bike_types":{"4":7},"place_type":"0","rack_locks":"1"},{"uid":"2585774","lat":"52.205801893754","lng":"20.998928546906","name":"Rakowiecka - \u015aw. A. Boboli","spot":"1","number":"9557","bikes":"16","bike_racks":"17","free_racks":"1","terminal_type":"7inch","bike_numbers":"28208,27889,27644,26975,26961,26239,26212,25915,25828,25748,25168,29129,96443,96223,96158,29224","bike_types":{"4":15,"0":1},"place_type":"0","rack_locks":"1"},{"uid":"2585776","lat":"52.209916","lng":"21.0067794","name":"al. Niepodleg\u0142o\u015bci - Batorego","spot":"1","number":"9558","bikes":"24","bike_racks":"26","free_racks":"2","terminal_type":"7inch","bike_numbers":"24887,24781,28444,27796,27436,27348,27123,26994,26872,26559,26457,26058,26025,25880,25726,25570,25567,25284,25035,29083,29065,29452,96060,96362","bike_types":{"4":24},"place_type":"0","rack_locks":"1"},{"uid":"2585779","lat":"52.2132375","lng":"21.0210568","name":"Plac Unii Lubelskiej","spot":"1","number":"9559","bikes":"17","bike_racks":"24","free_racks":"10","terminal_type":"7inch","bike_numbers":"24937,24902,24483,28763,28148,28145,27579,26780,26046,25686,25476,25472,28993,96509,96484,96157,29204","bike_types":{"4":16,"51":1},"place_type":"0","rack_locks":"1"},{"uid":"2585781","lat":"52.2027557","lng":"20.9508951","name":"W\u0142odarzewska - Maszynowa","spot":"1","number":"9560","bikes":"9","bike_racks":"18","free_racks":"9","terminal_type":"7inch","bike_numbers":"24865,28377,28040,27660,27134,25785,25419,25023,96150","bike_types":{"4":9},"place_type":"0","rack_locks":"1"},{"uid":"2585782","lat":"52.2017647","lng":"20.9820897","name":"Sanocka - Pruszkowska","spot":"1","number":"9561","bikes":"11","bike_racks":"15","free_racks":"4","terminal_type":"7inch","bike_numbers":"24767,27948,27327,26736,25846,25416,25304,25038,28888,96448,96235","bike_types":{"4":11},"place_type":"0","rack_locks":"1"},{"uid":"2585785","lat":"52.1981365","lng":"20.9833717","name":"\u017bwirki i Wigury - Rac\u0142awicka","spot":"1","number":"9562","bikes":"11","bike_racks":"18","free_racks":"5","terminal_type":"7inch","bike_numbers":"28768,28633,28117,27554,26785,26772,26691,26653,26369,25173,28890","bike_types":{"4":11},"place_type":"0","rack_locks":"1"},{"uid":"2585787","lat":"52.20177","lng":"20.99969","name":"Wo\u0142oska - Kulskiego","spot":"1","number":"9563","bikes":"6","bike_racks":"15","free_racks":"9","terminal_type":"7inch","bike_numbers":"24867,24702,26717,25878,25273,96211","bike_types":{"4":6},"place_type":"0","rack_locks":"1"},{"uid":"2585788","lat":"52.2042638","lng":"21.014428","name":"Madali\u0144skiego - Kazimierzowska","spot":"1","number":"9564","bikes":"3","bike_racks":"24","free_racks":"20","terminal_type":"7inch","bike_numbers":"24680,28194,96465","bike_types":{"4":3},"place_type":"0","rack_locks":"1"},{"uid":"2585789","lat":"52.2055175","lng":"21.0231033","name":"Pu\u0142awska - Dworkowa","spot":"1","number":"9565","bikes":"20","bike_racks":"19","free_racks":"0","terminal_type":"7inch","bike_numbers":"24638,27798,27669,27226,27132,26864,26253,25998,25957,25940,25884,25766,25731,25498,25206,25191,29078,25629,96486,96439","bike_types":{"4":20},"place_type":"0","rack_locks":"1"},{"uid":"2585790","lat":"52.2071756","lng":"21.0312643","name":"Belwederska - Gagarina","spot":"1","number":"9566","bikes":"24","bike_racks":"30","free_racks":"6","terminal_type":"7inch","bike_numbers":"24739,24516,24013,28435,27315,27079,26651,26547,26331,25990,25989,25761,25744,25554,25452,25349,25250,28916,28884,96363,96181,96120,96090,96087","bike_types":{"4":23,"26":1},"place_type":"0","rack_locks":"1"},{"uid":"2585791","lat":"52.2074193","lng":"21.0479621","name":"Czerniakowska - Gagarina","spot":"1","number":"9567","bikes":"34","bike_racks":"25","free_racks":"0","terminal_type":"7inch","bike_numbers":"24542,24534,28886,28532,28340,28109,28103,28098,28030,27849,27739,27637,27585,27483,27384,27197,26920,26659,26573,26434,26324,26155,25818,25773,25619,25529,25464,25423,25235,25074,96004,96505,96109,96091","bike_types":{"4":34},"place_type":"0","rack_locks":"1"},{"uid":"2585794","lat":"52.1938131","lng":"20.9914431","name":"Etiudy Rewolucyjnej - Mi\u0105czy\u0144ska","spot":"1","number":"9568","bikes":"2","bike_racks":"18","free_racks":"15","terminal_type":"7inch","bike_numbers":"25580,29660","bike_types":{"4":2},"place_type":"0","rack_locks":"1"},{"uid":"2585799","lat":"52.1994156","lng":"21.0121384","name":"Metro Rac\u0142awicka","spot":"1","number":"9570","bikes":"13","bike_racks":"30","free_racks":"16","terminal_type":"7inch","bike_numbers":"24949,28757,28551,27597,27242,26289,26178,25565,25376,25345,25138,28872,96457","bike_types":{"4":13},"place_type":"0","rack_locks":"1"},{"uid":"2585800","lat":"52.199505","lng":"21.0240975","name":"Pu\u0142awska - Dolna","spot":"1","number":"9571","bikes":"10","bike_racks":"18","free_racks":"8","terminal_type":"7inch","bike_numbers":"24961,24736,24479,24006,28364,28050,27181,25919,25703,29361","bike_types":{"4":8,"51":1,"26":1},"place_type":"0","rack_locks":"1"},{"uid":"2585802","lat":"52.2014754","lng":"21.0360047","name":"Sobieskiego - Che\u0142mska","spot":"1","number":"9572","bikes":"20","bike_racks":"15","free_racks":"3","terminal_type":"7inch","bike_numbers":"24472,28700,28626,28032,27959,27853,27406,27229,27064,26710,26657,26394,26039,25475,25454,25172,28839,96392,96356,96271","bike_types":{"51":1,"4":19},"place_type":"0","rack_locks":"1"},{"uid":"2585804","lat":"52.1998446","lng":"21.05095","name":"Czerniakowska - ZUS","spot":"1","number":"9573","bikes":"8","bike_racks":"15","free_racks":"7","terminal_type":"7inch","bike_numbers":"24600,25008,28897,28695,28546,25501,25196,96012","bike_types":{"4":8},"place_type":"0","rack_locks":"1"},{"uid":"2585807","lat":"52.1916776","lng":"20.8689688","name":"PKP Ursus-Nied\u017awiadek","spot":"1","number":"9574","bikes":"12","bike_racks":"15","free_racks":"3","terminal_type":"7inch","bike_numbers":"28195,28054,28005,27598,27189,27154,27139,26805,26290,25692,25157,28921","bike_types":{"4":12},"place_type":"0","rack_locks":"1"},{"uid":"2585808","lat":"52.1960469","lng":"20.8849347","name":"PKP Ursus","spot":"1","number":"9575","bikes":"7","bike_racks":"16","free_racks":"8","terminal_type":"7inch","bike_numbers":"24839,28122,27485,26977,26464,26089,28880","bike_types":{"4":7},"place_type":"0","rack_locks":"1"},{"uid":"2585809","lat":"52.1869936","lng":"20.8906478","name":"Sosnkowskiego - OSiR Ursus","spot":"1","number":"9576","bikes":"14","bike_racks":"15","free_racks":"1","terminal_type":"7inch","bike_numbers":"24576,28704,28336,28037,27825,27247,26636,26447,25924,25189,29422,24555,28833,28895","bike_types":{"4":14},"place_type":"0","rack_locks":"1"},{"uid":"2585811","lat":"52.2005548","lng":"20.8937538","name":"Ursus-Ratusz","spot":"1","number":"9577","bikes":"10","bike_racks":"15","free_racks":"5","terminal_type":"7inch","bike_numbers":"24928,24541,28209,27509,27232,26989,26602,25634,25229,25165","bike_types":{"4":10},"place_type":"0","rack_locks":"1"},{"uid":"2585814","lat":"52.1906376","lng":"20.8999443","name":"Skoroszewska - Prystora","spot":"1","number":"9578","bikes":"12","bike_racks":"17","free_racks":"5","terminal_type":"7inch","bike_numbers":"24891,28387,28261,28258,28211,27539,27118,26561,26088,26057,25040,96130","bike_types":{"4":12},"place_type":"0","rack_locks":"1"},{"uid":"2585817","lat":"52.1882609","lng":"20.9603771","name":"G\u0142adka - OSiR W\u0142ochy","spot":"1","number":"9579","bikes":"9","bike_racks":"16","free_racks":"7","terminal_type":"7inch","bike_numbers":"24991,24501,28110,27169,26529,26399,25542,25251,29168","bike_types":{"4":9},"place_type":"0","rack_locks":"1"},{"uid":"2585820","lat":"52.2056441","lng":"20.9159142","name":"PKP W\u0142ochy","spot":"1","number":"9580","bikes":"15","bike_racks":"17","free_racks":"2","terminal_type":"7inch","bike_numbers":"24935,28601,28591,28491,28254,27700,27377,27302,27217,27092,26811,25770,25201,28933,96083","bike_types":{"4":15},"place_type":"0","rack_locks":"1"},{"uid":"2585821","lat":"52.2012157","lng":"20.9353145","name":"al. Jerozolimskie - Popularna","spot":"1","number":"9581","bikes":"8","bike_racks":"17","free_racks":"9","terminal_type":"7inch","bike_numbers":"24838,28133,27529,27240,28952,96261,96135,96082","bike_types":{"4":8},"place_type":"0","rack_locks":"1"},{"uid":"2585824","lat":"52.1924709","lng":"20.9596664","name":"W\u0142ochy-Ratusz","spot":"1","number":"9582","bikes":"12","bike_racks":"14","free_racks":"2","terminal_type":"7inch","bike_numbers":"24848,24830,28596,28559,27807,26749,26010,25885,96056,96148,29185,24050","bike_types":{"4":11,"26":1},"place_type":"0","rack_locks":"1"},{"uid":"2585825","lat":"52.1946888","lng":"20.9667823","name":"1 Sierpnia - DK W\u0142ochy","spot":"1","number":"9583","bikes":"8","bike_racks":"15","free_racks":"7","terminal_type":"7inch","bike_numbers":"24753,24666,28572,26947,26317,26093,25733,25103","bike_types":{"4":8},"place_type":"0","rack_locks":"1"},{"uid":"2585827","lat":"52.1888962","lng":"21.0175887","name":"Metro Wierzbno","spot":"1","number":"9584","bikes":"13","bike_racks":"20","free_racks":"7","terminal_type":"7inch","bike_numbers":"24970,28290,27594,26740,26699,26574,26161,26100,25980,25063,28814,96026,29237","bike_types":{"4":13},"place_type":"0","rack_locks":"1"},{"uid":"2585830","lat":"52.18648","lng":"21.02538","name":"Pu\u0142awska - Idzikowskiego","spot":"1","number":"9585","bikes":"10","bike_racks":"17","free_racks":"7","terminal_type":"7inch","bike_numbers":"24605,28869,28159,28023,27724,27486,26386,25651,25439,25240","bike_types":{"4":10},"place_type":"0","rack_locks":"1"},{"uid":"2585835","lat":"52.1882861","lng":"21.0498825","name":"Sobieskiego - Mangalia","spot":"1","number":"9586","bikes":"16","bike_racks":"15","free_racks":"0","terminal_type":"7inch","bike_numbers":"24800,28018,28008,27987,27787,27605,27434,27112,26883,26850,26436,26311,25659,29041,96413,29176","bike_types":{"4":16},"place_type":"0","rack_locks":"1"},{"uid":"2585837","lat":"52.178777","lng":"21.0016387","name":"Wo\u0142oska - Marynarska","spot":"1","number":"9588","bikes":"17","bike_racks":"26","free_racks":"9","terminal_type":"7inch","bike_numbers":"28666,28663,28354,28102,27479,27402,26716,26707,26637,26552,26474,25833,25403,25381,25242,25070,96159","bike_types":{"4":17},"place_type":"0","rack_locks":"1"},{"uid":"2585838","lat":"52.1800882","lng":"21.0207403","name":"al. Niepodleg\u0142o\u015bci - al. Wilanowska","spot":"1","number":"9589","bikes":"11","bike_racks":"22","free_racks":"10","terminal_type":"7inch","bike_numbers":"24965,24697,28650,28423,28089,27783,26831,26531,26214,25234,28985","bike_types":{"4":11},"place_type":"0","rack_locks":"1"},{"uid":"2585839","lat":"52.1779163","lng":"21.049562","name":"P\u0119tla Stegny","spot":"1","number":"9590","bikes":"26","bike_racks":"23","free_racks":"0","terminal_type":"7inch","bike_numbers":"24726,24509,28716,28659,28510,28477,27625,27521,27356,27289,27246,27159,27039,26948,26711,26643,26581,26280,26201,26164,25594,25252,25202,28940,28938,29140","bike_types":{"4":25,"0":1},"place_type":"0","rack_locks":"1"},{"uid":"2585843","lat":"52.1818472","lng":"21.0562822","name":"Sobieskiego - \u015bw. Bonifacego","spot":"1","number":"9591","bikes":"15","bike_racks":"22","free_racks":"7","terminal_type":"7inch","bike_numbers":"24722,28574,28033,27896,27382,27257,27096,26984,26790,26341,26160,25378,25375,28975,96404","bike_types":{"4":15},"place_type":"0","rack_locks":"1"},{"uid":"2585844","lat":"52.1702836","lng":"20.9959132","name":"P\u0119tla Bokserska","spot":"1","number":"9592","bikes":"8","bike_racks":"15","free_racks":"7","terminal_type":"7inch","bike_numbers":"28818,28121,27626,26150,25274,28946,28807,28845","bike_types":{"4":8},"place_type":"0","rack_locks":"1"},{"uid":"2585846","lat":"52.1710498","lng":"21.0059144","name":"Gintrowskiego - Gotarda","spot":"1","number":"9593","bikes":"20","bike_racks":"15","free_racks":"0","terminal_type":"7inch","bike_numbers":"24985,24718,28466,28443,28400,28385,27826,27430,27192,27143,26999,26454,25890,25829,25814,25806,25199,25124,25098,96193","bike_types":{"4":20},"place_type":"0","rack_locks":"1"},{"uid":"2585848","lat":"52.174435","lng":"21.0128814","name":"al. Lotnik\u00f3w - Kaczmarskiego","spot":"1","number":"9594","bikes":"17","bike_racks":"30","free_racks":"13","terminal_type":"7inch","bike_numbers":"24654,24645,28667,27964,27880,27656,27653,27635,27305,26422,26167,25671,96563,96455,96406,96341,96284","bike_types":{"4":17},"place_type":"0","rack_locks":"1"},{"uid":"2585850","lat":"52.1733132","lng":"21.0257305","name":"Metro S\u0142u\u017cew","spot":"1","number":"9595","bikes":"21","bike_racks":"24","free_racks":"3","terminal_type":"7inch","bike_numbers":"24883,24627,28425,28088,27819,27618,27461,27365,26358,26281,26199,25758,25737,25693,25491,25354,25286,25237,25011,28800,96472","bike_types":{"4":21},"place_type":"0","rack_locks":"1"},{"uid":"2585853","lat":"52.17343","lng":"21.03179","name":"Wa\u0142brzyska - Wr\u00f3bla","spot":"1","number":"9596","bikes":"26","bike_racks":"30","free_racks":"3","terminal_type":"7inch","bike_numbers":"24958,24851,24626,28760,28759,28634,28580,28520,27752,27706,27231,26990,26904,26761,26646,26626,26490,26448,26388,25849,25576,25460,25233,28906,96046,96025","bike_types":{"4":26},"place_type":"0","rack_locks":"1"},{"uid":"2585856","lat":"52.170135","lng":"21.0685748","name":"Jana III Sobieskiego - al. Wilanowska","spot":"1","number":"9597","bikes":"17","bike_racks":"15","free_racks":"0","terminal_type":"7inch","bike_numbers":"24983,24714,24544,28817,28010,27890,27758,27718,27685,27276,26424,26031,25877,25665,25259,28825,96535","bike_types":{"4":17},"place_type":"0","rack_locks":"1"},{"uid":"2585860","lat":"52.1655879","lng":"21.0839331","name":"al. Wilanowska - Przycz\u00f3\u0142kowa","spot":"1","number":"9598","bikes":"10","bike_racks":"16","free_racks":"6","terminal_type":"7inch","bike_numbers":"24539,28342,27441,27104,26748,26333,25135,25628,96399,96364","bike_types":{"4":10},"place_type":"0","rack_locks":"1"},{"uid":"2585863","lat":"52.16479","lng":"21.10925","name":"Vogla - Syta","spot":"1","number":"9599","bikes":"10","bike_racks":"16","free_racks":"7","terminal_type":"7inch","bike_numbers":"24791,28366,28065,27227,26914,26418,26236,26034,25839,28881","bike_types":{"4":10},"place_type":"0","rack_locks":"1"},{"uid":"2585868","lat":"52.1606257","lng":"21.0723245","name":"al. Rzeczypospolitej - Klimczaka","spot":"1","number":"9600","bikes":"15","bike_racks":"16","free_racks":"1","terminal_type":"7inch","bike_numbers":"24990,28661,28640,28059,27679,27531,27128,26177,26140,26072,25225,96011,96160,96136,96078","bike_types":{"4":15},"place_type":"0","rack_locks":"1"},{"uid":"2585871","lat":"52.1569168","lng":"21.0760903","name":"al. Rzeczypospolitej - Branickiego","spot":"1","number":"9601","bikes":"16","bike_racks":"16","free_racks":"0","terminal_type":"7inch","bike_numbers":"24703,24671,28655,28582,28544,28409,27945,27524,26898,26218,25584,25482,25420,25366,25148,29060","bike_types":{"4":16},"place_type":"0","rack_locks":"1"},{"uid":"2585872","lat":"52.1593735","lng":"21.086449","name":"Przycz\u00f3\u0142kowa - Branickiego","spot":"1","number":"9602","bikes":"11","bike_racks":"16","free_racks":"4","terminal_type":"7inch","bike_numbers":"24811,28513,28345,28150,28031,27882,27241,26784,25494,28857,29192","bike_types":{"4":11},"place_type":"0","rack_locks":"1"},{"uid":"2585873","lat":"52.1618136","lng":"21.0277355","name":"Metro Ursyn\u00f3w II","spot":"1","number":"9603","bikes":"19","bike_racks":"30","free_racks":"11","terminal_type":"7inch","bike_numbers":"28892,28803,28343,27988,27972,27916,27223,26873,26609,26258,26108,25561,25556,25331,25174,25065,29040,29021,28998","bike_types":{"4":19},"place_type":"0","rack_locks":"1"},{"uid":"2585875","lat":"52.1622579","lng":"21.0280761","name":"Metro Ursyn\u00f3w I","spot":"1","number":"9604","bikes":"25","bike_racks":"30","free_racks":"5","terminal_type":"7inch","bike_numbers":"24984,24803,24777,28749,28645,28445,28389,27751,27563,27373,27344,27027,26819,26603,26510,25901,25898,25718,25657,25230,25111,29053,28889,96049,96526","bike_types":{"4":25},"place_type":"0","rack_locks":"1"},{"uid":"2585876","lat":"52.162401","lng":"21.0383811","name":"Jastrz\u0119bowskiego - SGGW","spot":"1","number":"9605","bikes":"25","bike_racks":"30","free_racks":"5","terminal_type":"7inch","bike_numbers":"24786,24748,24709,28403,28361,28359,28081,27897,27851,27741,27648,27352,27174,27068,26935,26845,26781,26713,26652,26364,26126,25796,25326,25024,29346","bike_types":{"4":25},"place_type":"0","rack_locks":"1"},{"uid":"2585880","lat":"52.1557534","lng":"21.0232776","name":"Romera - Pieciolinii","spot":"1","number":"9606","bikes":"11","bike_racks":"16","free_racks":"5","terminal_type":"7inch","bike_numbers":"24735,28530,27583,27055,26687,26532,26499,26186,25263,28976,28968","bike_types":{"4":11},"place_type":"0","rack_locks":"1"},{"uid":"2585883","lat":"52.1568674","lng":"21.0338401","name":"Metro Stok\u0142osy","spot":"1","number":"9607","bikes":"33","bike_racks":"27","free_racks":"1","terminal_type":"7inch","bike_numbers":"24892,24716,24708,24582,24554,28774,28588,28468,28144,28135,27925,27407,27075,26899,26829,26760,26580,26413,26078,25850,25823,25789,25649,25610,25582,25265,25054,29064,28846,28983,96552,96338,96162","bike_types":{"4":33},"place_type":"0","rack_locks":"1"},{"uid":"2585885","lat":"52.1572887","lng":"21.0440084","name":"Roso\u0142a - Ciszewskiego - SGGW","spot":"1","number":"9608","bikes":"11","bike_racks":"30","free_racks":"19","terminal_type":"7inch","bike_numbers":"28696,28327,28092,26728,26492,26466,26112,25489,25319,29028,29450","bike_types":{"4":11},"place_type":"0","rack_locks":"1"},{"uid":"2585888","lat":"52.1521429","lng":"21.0181224","name":"Pu\u0142awska - Pileckiego","spot":"1","number":"9609","bikes":"15","bike_racks":"22","free_racks":"7","terminal_type":"7inch","bike_numbers":"24624,28388,28323,28216,28214,28041,28002,28001,27913,27428,26270,25817,25107,29427,28994","bike_types":{"4":15},"place_type":"0","rack_locks":"1"},{"uid":"2585893","lat":"52.1495064","lng":"21.0332527","name":"Ciszewskiego - Pileckiego","spot":"1","number":"9610","bikes":"17","bike_racks":"22","free_racks":"5","terminal_type":"7inch","bike_numbers":"24792,24769,28598,28298,28055,27389,27269,27032,26038,25996,25867,25490,25272,25171,28939,96344,96340","bike_types":{"4":17},"place_type":"0","rack_locks":"1"},{"uid":"2585894","lat":"52.1549453","lng":"21.0492977","name":"Roso\u0142a - Gandhi","spot":"1","number":"9611","bikes":"7","bike_racks":"22","free_racks":"14","terminal_type":"7inch","bike_numbers":"24715,24650,28604,28503,27353,26285,25194","bike_types":{"4":7},"place_type":"0","rack_locks":"1"},{"uid":"2585897","lat":"52.1493105","lng":"21.0453361","name":"Metro Imielin","spot":"1","number":"9612","bikes":"11","bike_racks":"22","free_racks":"11","terminal_type":"7inch","bike_numbers":"27681,27588,26555,26135,25685,25364,25334,29024,29435,28828,96054","bike_types":{"4":11},"place_type":"0","rack_locks":"1"},{"uid":"2585899","lat":"52.1522333","lng":"21.0563922","name":"Roso\u0142a - Weso\u0142a","spot":"1","number":"9613","bikes":"5","bike_racks":"23","free_racks":"18","terminal_type":"7inch","bike_numbers":"28621,28349,27418,27351,25841","bike_types":{"4":5},"place_type":"0","rack_locks":"1"},{"uid":"2585901","lat":"52.1427201","lng":"21.0383624","name":"Pileckiego - Alternatywy","spot":"1","number":"9614","bikes":"23","bike_racks":"30","free_racks":"7","terminal_type":"7inch","bike_numbers":"24992,24886,24690,24565,28706,27761,27692,27547,27507,27211,27095,26945,26502,26494,26282,25667,25557,25502,25309,25068,28810,28849,28827","bike_types":{"4":23},"place_type":"0","rack_locks":"1"},{"uid":"2585902","lat":"52.142735","lng":"21.0448131","name":"Dereniowa - P\u0142askowickiej","spot":"1","number":"9615","bikes":"15","bike_racks":"22","free_racks":"7","terminal_type":"7inch","bike_numbers":"24637,28683,28592,27961,27599,27522,27471,26708,26345,26180,26094,26087,25954,25232,96251","bike_types":{"4":15},"place_type":"0","rack_locks":"1"},{"uid":"2585904","lat":"52.1376039","lng":"21.0505531","name":"Stryje\u0144skich - Belgradzka","spot":"1","number":"9616","bikes":"9","bike_racks":"15","free_racks":"6","terminal_type":"7inch","bike_numbers":"24039,28251,28107,28051,28038,27992,27781,26589,96326","bike_types":{"26":1,"4":8},"place_type":"0","rack_locks":"1"},{"uid":"2585905","lat":"52.1403909","lng":"21.0568187","name":"Metro Natolin","spot":"1","number":"9617","bikes":"31","bike_racks":"30","free_racks":"0","terminal_type":"7inch","bike_numbers":"24860,24741,24625,24540,24515,28622,28013,27923,27831,27770,27591,27578,27445,27375,27111,26993,26861,26857,26504,26476,26245,25981,25964,25790,25228,25059,29095,28919,29131,28877,96119","bike_types":{"4":30,"0":1},"place_type":"0","rack_locks":"1"},{"uid":"2585906","lat":"52.1420749","lng":"21.0659905","name":"Belgradzka - Roso\u0142a","spot":"1","number":"9618","bikes":"13","bike_racks":"23","free_racks":"10","terminal_type":"7inch","bike_numbers":"24843,24778,24691,28613,26901,26427,26421,25508,28896,28982,96039,96570,96260","bike_types":{"4":13},"place_type":"0","rack_locks":"1"},{"uid":"2585908","lat":"52.1314333","lng":"21.0561562","name":"Stryje\u0144skich - W\u0105wozowa","spot":"1","number":"9619","bikes":"21","bike_racks":"23","free_racks":"2","terminal_type":"7inch","bike_numbers":"24817,28698,28416,28375,28372,27981,27117,26639,26176,26074,25936,25794,25735,25535,25424,25266,25246,25236,96541,96226,96225","bike_types":{"4":21},"place_type":"0","rack_locks":"1"},{"uid":"2585911","lat":"52.3326052","lng":"20.9418404","name":"Ordon\u00f3wny - \u015awiatowida","spot":"1","number":"9620","bikes":"15","bike_racks":"22","free_racks":"8","terminal_type":"7inch","bike_numbers":"24950,28678,28653,28593,27784,27387,27271,27056,26988,26954,26844,26802,29045,96481,96147","bike_types":{"4":15},"place_type":"0","rack_locks":"1"},{"uid":"2585913","lat":"52.1310925","lng":"21.0654795","name":"Metro Kabaty","spot":"1","number":"9621","bikes":"12","bike_racks":"22","free_racks":"9","terminal_type":"7inch","bike_numbers":"24669,28674,28436,27156,25514,25343,25224,25058,29081,28958,28864,60867","bike_types":{"4":12},"place_type":"0","rack_locks":"1"},{"uid":"2585916","lat":"52.1332642","lng":"21.0747962","name":"W\u0105wozowa - Roso\u0142a","spot":"1","number":"9622","bikes":"16","bike_racks":"18","free_racks":"2","terminal_type":"7inch","bike_numbers":"28898,28483,28221,28011,27879,27694,27640,27495,26654,26557,25447,25130,28815,96539,96231,96167","bike_types":{"4":16},"place_type":"0","rack_locks":"1"},{"uid":"2585917","lat":"52.324116","lng":"21.05663","name":"Skarbka z G\u00f3r - Berensona","spot":"1","number":"9623","bikes":"18","bike_racks":"26","free_racks":"7","terminal_type":"7inch","bike_numbers":"24662,28657,28587,28440,28350,28311,28277,28090,27940,27821,27680,27086,26817,25587,25146,96268,29245,29229","bike_types":{"4":18},"place_type":"0","rack_locks":"1"},{"uid":"2585919","lat":"52.3485329","lng":"20.9418336","name":"Aluzyjna - Tr\u0105by","spot":"1","number":"9624","bikes":"9","bike_racks":"16","free_racks":"7","terminal_type":"7inch","bike_numbers":"24833,28738,28523,27908,27322,25967,25722,25526,25305","bike_types":{"4":9},"place_type":"0","rack_locks":"1"},{"uid":"2585920","lat":"52.3226982","lng":"20.9448107","name":"\u015awiatowida - Mehoffera","spot":"1","number":"9625","bikes":"10","bike_racks":"16","free_racks":"6","terminal_type":"7inch","bike_numbers":"28360,28314,27986,27587,26489,26060,25768,25646,29340,29071","bike_types":{"4":10},"place_type":"0","rack_locks":"1"},{"uid":"2585921","lat":"52.3212548","lng":"20.9477347","name":"Bia\u0142o\u0142\u0119cki O\u015brodek Sportu","spot":"1","number":"9626","bikes":"21","bike_racks":"30","free_racks":"9","terminal_type":"7inch","bike_numbers":"24827,24814,24597,28606,28478,28426,27895,27732,27721,27634,27519,27481,27464,27415,27152,26928,26752,26461,29555,29139,96480","bike_types":{"4":20,"0":1},"place_type":"0","rack_locks":"1"},{"uid":"2585922","lat":"52.3211272","lng":"20.9712964","name":"Bia\u0142o\u0142\u0119ka-Ratusz","spot":"1","number":"9627","bikes":"17","bike_racks":"19","free_racks":"2","terminal_type":"7inch","bike_numbers":"24945,24900,24747,24652,28702,28555,28137,27517,27420,27412,27357,27168,27018,26878,26835,96258,96129","bike_types":{"4":17},"place_type":"0","rack_locks":"1"},{"uid":"2585924","lat":"52.3132981","lng":"20.9655324","name":"My\u015bliborska - al. Kukli\u0144skiego","spot":"1","number":"9628","bikes":"10","bike_racks":"22","free_racks":"12","terminal_type":"7inch","bike_numbers":"28562,28527,26847,26551,26515,26287,25577,25092,28850,96249","bike_types":{"4":10},"place_type":"0","rack_locks":"1"},{"uid":"2585925","lat":"52.3031984","lng":"20.9891666","name":"Modli\u0144ska - \u017bera\u0144ska","spot":"1","number":"9629","bikes":"17","bike_racks":"30","free_racks":"13","terminal_type":"7inch","bike_numbers":"24849,28651,28533,27753,27704,27632,27273,27259,27043,26769,26763,26678,26614,26188,25076,29125,29254","bike_types":{"4":16,"0":1},"place_type":"0","rack_locks":"1"},{"uid":"2585926","lat":"52.3150181","lng":"21.0610807","name":"Skarbka z G\u00f3r - Magiczna","spot":"1","number":"9630","bikes":"21","bike_racks":"30","free_racks":"9","terminal_type":"7inch","bike_numbers":"24705,28771,28737,28699,28619,28607,28583,28526,28461,28373,27990,27538,27360,27279,27115,26881,26827,26768,26163,25914,29130","bike_types":{"4":20,"0":1},"place_type":"0","rack_locks":"1"},{"uid":"2585928","lat":"52.3000268","lng":"21.0425266","name":"P\u0119tla Br\u00f3dno - Podgrodzie","spot":"1","number":"9631","bikes":"15","bike_racks":"16","free_racks":"2","terminal_type":"7inch","bike_numbers":"24979,28549,28484,27954,27040,26866,25578,25314,25101,25022,29273,29243,29236,29233,29230","bike_types":{"4":15},"place_type":"0","rack_locks":"1"},{"uid":"2585929","lat":"52.2939957","lng":"21.0272258","name":"Rembieli\u0144ska - Kondratowicza","spot":"1","number":"9632","bikes":"12","bike_racks":"23","free_racks":"10","terminal_type":"7inch","bike_numbers":"28395,27687,27435,27294,26896,26352,26027,26022,25943,25821,96350,29235","bike_types":{"4":12},"place_type":"0","rack_locks":"1"},{"uid":"2585931","lat":"52.2917236","lng":"21.0481189","name":"Targ\u00f3wek-Ratusz","spot":"1","number":"9633","bikes":"19","bike_racks":"22","free_racks":"3","terminal_type":"7inch","bike_numbers":"24676,28685,28009,27922,27748,27636,27518,27484,26932,26824,26440,26275,26129,25781,25673,25552,29238,29228,96577","bike_types":{"4":19},"place_type":"0","rack_locks":"1"},{"uid":"2585932","lat":"52.292208","lng":"21.0419554","name":"Kondratowicza - Chodecka","spot":"1","number":"9634","bikes":"21","bike_racks":"23","free_racks":"2","terminal_type":"7inch","bike_numbers":"24903,28766,28474,28418,28045,27654,27498,27487,27448,26862,26600,26404,26242,26221,25856,25727,25590,25553,25347,25030,29239","bike_types":{"4":21},"place_type":"0","rack_locks":"1"},{"uid":"2585934","lat":"52.2925145","lng":"21.0573949","name":"Kondratowicza - Przy Grodzisku","spot":"1","number":"9635","bikes":"8","bike_racks":"18","free_racks":"10","terminal_type":"7inch","bike_numbers":"28688,28402,27717,27575,27341,27206,27184,28990","bike_types":{"4":8},"place_type":"0","rack_locks":"1"},{"uid":"2585936","lat":"52.2878069","lng":"21.0213829","name":"Wysockiego - Poborza\u0144ska","spot":"1","number":"9636","bikes":"23","bike_racks":"23","free_racks":"0","terminal_type":"7inch","bike_numbers":"28758,28720,28567,28066,27978,27970,27574,27455,27300,27122,26758,26623,26430,26305,25928,25738,25551,29112,29046,29043,29019,25625,29231","bike_types":{"4":23},"place_type":"0","rack_locks":"1"},{"uid":"2585937","lat":"52.2885915","lng":"21.0310087","name":"Rembieli\u0144ska - Wyszogrodzka","spot":"1","number":"9637","bikes":"22","bike_racks":"30","free_racks":"8","terminal_type":"7inch","bike_numbers":"24929,28885,28629,28394,27929,27872,27814,27742,27576,27400,27342,27323,27249,26854,26820,26567,25710,96367,29281,29280,29244,29240","bike_types":{"4":22},"place_type":"0","rack_locks":"1"},{"uid":"2585938","lat":"52.2864841","lng":"21.0401998","name":"Chodecka - \u017buromi\u0144ska","spot":"1","number":"9638","bikes":"10","bike_racks":"15","free_racks":"4","terminal_type":"7inch","bike_numbers":"28873,28075,27800,27525,27386,27316,26642,25660,29275,29271","bike_types":{"4":10},"place_type":"0","rack_locks":"1"},{"uid":"2585939","lat":"52.281231017533","lng":"21.025852560997","name":"Wysockiego - Matki Teresy z Kalkuty","spot":"1","number":"9639","bikes":"13","bike_racks":"17","free_racks":"6","terminal_type":"7inch","bike_numbers":"28729,28691,27462,27127,26943,26879,26391,26173,25997,25404,29088,29551,24498","bike_types":{"4":12,"51":1},"place_type":"0","rack_locks":"1"},{"uid":"2585941","lat":"52.2835693","lng":"21.0720858","name":"Blokowa - DK Zacisze","spot":"1","number":"9640","bikes":"14","bike_racks":"18","free_racks":"3","terminal_type":"7inch","bike_numbers":"24761,28322,28283,28280,27862,27493,27454,27275,27260,27024,26771,26484,25783,28979","bike_types":{"4":14},"place_type":"0","rack_locks":"1"},{"uid":"2585942","lat":"52.276259","lng":"21.0530748","name":"P\u0119tla Targ\u00f3wek","spot":"1","number":"9641","bikes":"14","bike_racks":"22","free_racks":"7","terminal_type":"7inch","bike_numbers":"24925,24543,28074,28064,27941,27546,27329,26895,26886,26871,26382,25549,25300,96581","bike_types":{"4":14},"place_type":"0","rack_locks":"1"},{"uid":"2585943","lat":"52.27139","lng":"21.01566","name":"Jagiello\u0144ska - ALK","spot":"1","number":"9642","bikes":"11","bike_racks":"16","free_racks":"4","terminal_type":"7inch","bike_numbers":"28118,26967,26049,25700,25333,25253,25170,96449,96163,29180,24047","bike_types":{"4":10,"26":1},"place_type":"0","rack_locks":"1"},{"uid":"2585947","lat":"52.2694683","lng":"21.0499817","name":"Ossowskiego","spot":"1","number":"9644","bikes":"19","bike_racks":"17","free_racks":"0","terminal_type":"7inch","bike_numbers":"24545,24463,28475,28378,28370,27975,27902,27465,27443,27363,27262,26801,25764,25596,25096,29030,29362,29253,96585","bike_types":{"4":18,"51":1},"place_type":"0","rack_locks":"1"},{"uid":"2585951","lat":"52.272602123161","lng":"21.063210368156","name":"Radzymi\u0144ska -Trocka","spot":"1","number":"9645","bikes":"20","bike_racks":"20","free_racks":"0","terminal_type":"7inch","bike_numbers":"28507,28264,27621,27394,27296,27187,26719,26588,26119,25882,25652,25513,25294,25287,25264,29434,96014,29274,96579,96576","bike_types":{"4":20},"place_type":"0","rack_locks":"1"},{"uid":"2585953","lat":"52.27347","lng":"21.07698","name":"Bukowiecka - Zamkowa","spot":"1","number":"9646","bikes":"16","bike_racks":"15","free_racks":"0","terminal_type":"7inch","bike_numbers":"28874,28754,28690,28585,27792,27313,27147,27106,27041,26808,26443,26291,25799,29097,28971,96318","bike_types":{"4":16},"place_type":"0","rack_locks":"1"},{"uid":"2585954","lat":"52.2668885","lng":"21.0585675","name":"Radzymi\u0144ska - Piotra Skargi","spot":"1","number":"9647","bikes":"13","bike_racks":"20","free_racks":"6","terminal_type":"7inch","bike_numbers":"24580,27962,27595,27530,27378,26767,26667,26066,25803,28951,29433,96017,96578","bike_types":{"4":13},"place_type":"0","rack_locks":"1"},{"uid":"2585955","lat":"52.2614369","lng":"21.0155744","name":"Wybrze\u017ce Helskie - ZOO","spot":"1","number":"9648","bikes":"13","bike_racks":"22","free_racks":"8","terminal_type":"7inch","bike_numbers":"24770,24729,24585,28479,28460,27979,27590,26981,25780,25104,29136,28863,96291","bike_types":{"4":12,"0":1},"place_type":"0","rack_locks":"1"},{"uid":"2585956","lat":"52.2632492","lng":"21.0212231","name":"Rondo Starzy\u0144skiego","spot":"1","number":"9649","bikes":"15","bike_racks":"24","free_racks":"9","terminal_type":"7inch","bike_numbers":"28490,28149,28095,27491,27470,26777,26754,26679,26668,26319,25638,25099,29025,29554,96592","bike_types":{"4":15},"place_type":"0","rack_locks":"1"},{"uid":"2585958","lat":"52.26421","lng":"21.02618","name":"Darwina - Nusbauma-Hilarowicza","spot":"1","number":"9650","bikes":"12","bike_racks":"21","free_racks":"9","terminal_type":"7inch","bike_numbers":"24952,24537,28304,28193,27290,26921,26751,26500,26477,26426,25910,25473","bike_types":{"4":12},"place_type":"0","rack_locks":"1"},{"uid":"2585960","lat":"52.26554","lng":"21.03122","name":"Namys\u0142owska - Darwina","spot":"1","number":"9651","bikes":"13","bike_racks":"15","free_racks":"2","terminal_type":"7inch","bike_numbers":"28743,28321,28151,27126,26698,26459,25523,29282,29267,29264,29257,96584,96583","bike_types":{"4":13},"place_type":"0","rack_locks":"1"},{"uid":"2585961","lat":"52.2690405","lng":"21.0379493","name":"Rondo \u017baba","spot":"1","number":"9652","bikes":"11","bike_racks":"22","free_racks":"11","terminal_type":"7inch","bike_numbers":"28641,27956,27811,27709,26958,26816,26194,26106,25960,25368,29276","bike_types":{"4":11},"place_type":"0","rack_locks":"1"},{"uid":"2585963","lat":"52.2591682","lng":"21.0262224","name":"Jagiello\u0144ska - Plac Hallera","spot":"1","number":"9653","bikes":"13","bike_racks":"20","free_racks":"7","terminal_type":"7inch","bike_numbers":"28662,28447,28318,27631,27551,26225,26205,25161,29003,28969,96401,96307,29248","bike_types":{"4":13},"place_type":"0","rack_locks":"1"},{"uid":"2585964","lat":"52.2613811","lng":"21.0305437","name":"Plac Hallera - Sawinkowa","spot":"1","number":"9654","bikes":"23","bike_racks":"28","free_racks":"5","terminal_type":"7inch","bike_numbers":"28689,28647,28575,28369,27868,27601,27171,27063,26702,26478,26455,26348,26327,26243,25872,25238,25139,25122,29108,29146,96339,29270,29258","bike_types":{"4":22,"0":1},"place_type":"0","rack_locks":"1"},{"uid":"2585967","lat":"52.263","lng":"21.03418","name":"Namys\u0142owska - Szymanowskiego","spot":"1","number":"9655","bikes":"12","bike_racks":"16","free_racks":"4","terminal_type":"7inch","bike_numbers":"24871,24592,28220,27714,27333,26985,26453,26302,26196,26037,25050,96430","bike_types":{"4":12},"place_type":"0","rack_locks":"1"},{"uid":"2585968","lat":"52.2538188","lng":"21.0231542","name":"Ratuszowa - ZOO","spot":"1","number":"9656","bikes":"17","bike_racks":"23","free_racks":"5","terminal_type":"7inch","bike_numbers":"24649,28568,28552,28358,28270,28126,27523,27419,27267,26927,26694,26686,25496,25357,25120,96530,29247","bike_types":{"4":17},"place_type":"0","rack_locks":"1"},{"uid":"2585971","lat":"52.256355","lng":"21.029538","name":"Jagiello\u0144ska - Ratuszowa","spot":"1","number":"9657","bikes":"15","bike_racks":"16","free_racks":"1","terminal_type":"7inch","bike_numbers":"28728,28462,28325,28312,27672,27399,27397,26463,26375,25775,25280,28816,96499,29260,29256","bike_types":{"4":15},"place_type":"0","rack_locks":"1"},{"uid":"2585972","lat":"52.261449","lng":"21.037614","name":"11 Listopada - Ratuszowa","spot":"1","number":"9658","bikes":"23","bike_racks":"30","free_racks":"7","terminal_type":"7inch","bike_numbers":"24558,28553,28329,27760,27667,27651,27570,27560,27284,27194,27180,27144,26949,26556,26276,26240,25810,25362,25154,29090,29132,28836,28830","bike_types":{"4":22,"0":1},"place_type":"0","rack_locks":"1"},{"uid":"2585974","lat":"52.263109","lng":"21.0381895","name":"11 listopada - \u015arodkowa","spot":"1","number":"9659","bikes":"13","bike_racks":"18","free_racks":"5","terminal_type":"7inch","bike_numbers":"24845,27920,27875,27840,27562,27405,26940,26450,26423,26384,25811,25085,29265","bike_types":{"4":13},"place_type":"0","rack_locks":"1"},{"uid":"2585975","lat":"52.25839","lng":"21.03537","name":"Stalowa - 11 Listopada","spot":"1","number":"9660","bikes":"17","bike_racks":"24","free_racks":"5","terminal_type":"7inch","bike_numbers":"24644,28764,27936,27520,26888,26505,26435,26229,26061,25902,25836,25601,96433,96325,29194,29278,29249","bike_types":{"4":17},"place_type":"0","rack_locks":"1"},{"uid":"2585978","lat":"52.234791","lng":"21.07905","name":"al. Stan\u00f3w Zjednoczonych - Ostrobramska","spot":"1","number":"9661","bikes":"11","bike_racks":"20","free_racks":"8","terminal_type":"7inch","bike_numbers":"28421,27886,27659,27542,27433,27157,27099,26634,25421,25271,25027","bike_types":{"4":11},"place_type":"0","rack_locks":"1"},{"uid":"2585981","lat":"52.2524758","lng":"21.0303479","name":"Floria\u0144ska - Park Praski","spot":"1","number":"9662","bikes":"18","bike_racks":"23","free_racks":"4","terminal_type":"7inch","bike_numbers":"24744,24631,27858,27629,26601,26362,26127,25938,25865,25853,25747,25655,25571,25393,29338,28956,29120,28844","bike_types":{"4":17,"0":1},"place_type":"0","rack_locks":"1"},{"uid":"2585982","lat":"52.2549757","lng":"21.0339005","name":"Plac Wile\u0144ski","spot":"1","number":"9663","bikes":"50","bike_racks":"30","free_racks":"0","terminal_type":"7inch","bike_numbers":"24878,24609,24601,24550,24484,25009,28745,28665,28658,28558,28471,28326,28087,28024,27914,27834,27337,27321,27304,27298,26906,26727,26617,26584,26507,26355,26321,26293,26095,26070,25946,25941,25822,25728,25688,25683,25664,25562,25243,25220,29368,29357,28893,28917,96464,96434,96264,96138,29212,29217","bike_types":{"4":49,"51":1},"place_type":"0","rack_locks":"1"},{"uid":"2585983","lat":"52.2579576","lng":"21.0399804","name":"Wile\u0144ska - Rzeszotarskiej","spot":"1","number":"9664","bikes":"14","bike_racks":"16","free_racks":"2","terminal_type":"7inch","bike_numbers":"24606,24502,28566,26472,26210,25942,25617,25053,29374,29641,96491,29151,96587,96586","bike_types":{"4":14},"place_type":"0","rack_locks":"1"},{"uid":"2585984","lat":"52.2475848","lng":"20.9568001","name":"al. Prymasa Tysi\u0105clecia - Obozowa","spot":"1","number":"9665","bikes":"7","bike_racks":"13","free_racks":"6","terminal_type":"7inch","bike_numbers":"28731,27214,26836,26296,26073,96471,96112","bike_types":{"4":7},"place_type":"0","rack_locks":"1"},{"uid":"2585985","lat":"52.248607","lng":"21.029647","name":"Okrzei - Panie\u0144ska","spot":"1","number":"9666","bikes":"7","bike_racks":"16","free_racks":"10","terminal_type":"7inch","bike_numbers":"24500,24490,24487,24481,24462,26848,26265","bike_types":{"51":5,"4":2},"place_type":"0","rack_locks":"1"},{"uid":"2585987","lat":"52.2506334","lng":"21.0311174","name":"Sierakowskiego - K\u0142opotowskiego","spot":"1","number":"9667","bikes":"14","bike_racks":"25","free_racks":"10","terminal_type":"7inch","bike_numbers":"28313,28302,28301,28061,27010,26433,26392,26220,25918,25881,25805,29659,96041,96165","bike_types":{"4":14},"place_type":"0","rack_locks":"1"},{"uid":"2585990","lat":"52.2520876","lng":"21.0381368","name":"Targowa - Z\u0105bkowska","spot":"1","number":"9668","bikes":"12","bike_racks":"18","free_racks":"6","terminal_type":"7inch","bike_numbers":"24459,28586,28531,28299,28084,27287,27199,26936,26456,25813,25568,28856","bike_types":{"51":1,"4":11},"place_type":"0","rack_locks":"1"},{"uid":"2585992","lat":"52.2544855","lng":"21.0433458","name":"Fabryka W\u00f3dek Koneser","spot":"1","number":"9669","bikes":"25","bike_racks":"25","free_racks":"0","terminal_type":"7inch","bike_numbers":"24584,24551,28295,28292,28012,27719,27712,27638,27580,27427,27401,27324,27261,27130,27014,26907,26733,26267,26183,25709,25182,29087,29004,29268,96588","bike_types":{"4":25},"place_type":"0","rack_locks":"1"},{"uid":"2585994","lat":"52.2559027","lng":"21.0495613","name":"Radzymi\u0144ska - Wiosenna","spot":"1","number":"9670","bikes":"21","bike_racks":"26","free_racks":"4","terminal_type":"7inch","bike_numbers":"24738,24632,24575,28296,28014,27350,27212,26823,26672,26572,26408,26385,26326,26259,25977,29116,29115,29143,28799,29283,24046","bike_types":{"4":19,"0":1,"26":1},"place_type":"0","rack_locks":"1"},{"uid":"2585995","lat":"52.25965","lng":"21.0529","name":"Radzymi\u0144ska - \u0141om\u017cy\u0144ska","spot":"1","number":"9671","bikes":"16","bike_racks":"24","free_racks":"7","terminal_type":"7inch","bike_numbers":"28427,28308,27980,27898,27502,27318,26987,26953,26649,26343,26138,25876,29056,96561,29262,29261","bike_types":{"4":16},"place_type":"0","rack_locks":"1"},{"uid":"2585996","lat":"52.2583512","lng":"21.0585337","name":"P\u0119tla Kaw\u0119czy\u0144ska-Bazylika","spot":"1","number":"9672","bikes":"12","bike_racks":"26","free_racks":"14","terminal_type":"7inch","bike_numbers":"24657,27805,27695,27482,27388,27331,27225,27166,25666,25642,25292,29269","bike_types":{"4":12},"place_type":"0","rack_locks":"1"},{"uid":"2585997","lat":"52.249864871462","lng":"21.042911410332","name":"Targowa - Kijowska","spot":"1","number":"9673","bikes":"17","bike_racks":"18","free_racks":"1","terminal_type":"7inch","bike_numbers":"24857,24642,28332,28262,27301,27029,26976,26929,26682,26336,26315,26271,25661,25524,25505,25269,96528","bike_types":{"4":17},"place_type":"0","rack_locks":"1"},{"uid":"2586000","lat":"52.252745","lng":"21.0510331","name":"Dworzec Wschodni - Kijowska","spot":"1","number":"9674","bikes":"24","bike_racks":"27","free_racks":"3","terminal_type":"7inch","bike_numbers":"24608,24486,24478,28632,28429,28420,28348,28330,27960,27675,27476,27440,27366,27288,26764,26706,26485,25921,25088,29348,29343,29388,96510,29219","bike_types":{"4":22,"51":2},"place_type":"0","rack_locks":"1"},{"uid":"2586001","lat":"52.247314","lng":"21.042731","name":"Metro Stadion Narodowy","spot":"1","number":"9675","bikes":"17","bike_racks":"15","free_racks":"0","terminal_type":"7inch","bike_numbers":"24901,24557,27775,27556,27367,27248,26737,26530,26513,25372,25150,25125,28934,96055,96001,96292,29152","bike_types":{"4":17},"place_type":"0","rack_locks":"1"},{"uid":"2586003","lat":"52.2472308","lng":"21.0476456","name":"al. Zieleniecka - Teatr Powszechny","spot":"1","number":"9676","bikes":"16","bike_racks":"14","free_racks":"0","terminal_type":"7inch","bike_numbers":"24940,24615,24465,28286,28112,28057,27036,26428,26325,26184,25654,25389,25159,29084,28840,96051","bike_types":{"4":15,"51":1},"place_type":"0","rack_locks":"1"},{"uid":"2586005","lat":"52.247346","lng":"21.055947","name":"Grochowska - Mi\u0144ska","spot":"1","number":"9677","bikes":"9","bike_racks":"22","free_racks":"12","terminal_type":"7inch","bike_numbers":"24881,24793,24687,28515,28274,27817,27361,26852,26174","bike_types":{"4":9},"place_type":"0","rack_locks":"1"},{"uid":"2586009","lat":"52.2464","lng":"21.06868","name":"Praga-Po\u0142udnie-Ratusz","spot":"1","number":"9678","bikes":"8","bike_racks":"15","free_racks":"7","terminal_type":"7inch","bike_numbers":"28614,28368,27589,27536,27203,26972,26840,28853","bike_types":{"4":8},"place_type":"0","rack_locks":"1"},{"uid":"2586011","lat":"52.2501129","lng":"21.0772011","name":"Dwernickiego - Siennicka","spot":"1","number":"9679","bikes":"18","bike_racks":"25","free_racks":"7","terminal_type":"7inch","bike_numbers":"28597,28509,28496,28438,28091,28027,27733,27730,27272,27101,27034,27020,26629,26595,26383,25607,25100,96589","bike_types":{"4":18},"place_type":"0","rack_locks":"1"},{"uid":"2586012","lat":"52.260428882956","lng":"21.041538119316","name":"Stalowa - Czynszowa","spot":"1","number":"9680","bikes":"12","bike_racks":"15","free_racks":"5","terminal_type":"7inch","bike_numbers":"28058,27892,27503,27015,26843,26354,26109,25530,25478,25352,96155,29155","bike_types":{"4":12},"place_type":"0","rack_locks":"1"},{"uid":"2586014","lat":"52.2372419","lng":"21.0437644","name":"Wybrze\u017ce Szczeci\u0144skie - Stadion Narodowy","spot":"1","number":"9681","bikes":"23","bike_racks":"23","free_racks":"4","terminal_type":"7inch","bike_numbers":"24469,28744,28741,28705,28581,28452,28367,28077,28076,27971,27947,27727,27466,27291,27256,27178,27061,26635,26232,25195,29005,28823,96500","bike_types":{"51":1,"4":22},"place_type":"0","rack_locks":"1"},{"uid":"2586018","lat":"52.2387103","lng":"21.0507515","name":"Rondo Waszyngtona - Stadion Narodowy","spot":"1","number":"9682","bikes":"15","bike_racks":"27","free_racks":"13","terminal_type":"7inch","bike_numbers":"24613,28660,28324,28100,28079,27930,27755,27627,27559,27372,26517,26511,26053,25369,25217","bike_types":{"4":15},"place_type":"0","rack_locks":"1"},{"uid":"2586019","lat":"52.242281006874","lng":"21.071160435677","name":"Waszyngtona - Kinowa","spot":"1","number":"9683","bikes":"8","bike_racks":"15","free_racks":"7","terminal_type":"7inch","bike_numbers":"27977,27297,27019,26795,25583,25429,25128,29255","bike_types":{"4":8},"place_type":"0","rack_locks":"1"},{"uid":"2586021","lat":"52.2445639","lng":"21.0838057","name":"Rondo Wiatraczna","spot":"1","number":"9684","bikes":"28","bike_racks":"30","free_racks":"2","terminal_type":"7inch","bike_numbers":"24947,24946,24938,24754,24518,24504,24457,24008,28476,27968,27699,27670,27650,27303,27278,27210,27140,27109,26963,26263,26125,26029,25470,25405,29051,28943,29127,28809","bike_types":{"4":25,"51":1,"26":1,"0":1},"place_type":"0","rack_locks":"1"},{"uid":"2586022","lat":"52.2347451","lng":"21.053651","name":"Francuska - Walecznych","spot":"1","number":"9685","bikes":"13","bike_racks":"15","free_racks":"2","terminal_type":"7inch","bike_numbers":"24875,28577,28267,27548,27527,27173,26995,26323,26292,96016,96267,96096,29259","bike_types":{"4":13},"place_type":"0","rack_locks":"1"},{"uid":"2586024","lat":"52.236598","lng":"21.064774","name":"Mi\u0119dzynarodowa - Walecznych","spot":"1","number":"9686","bikes":"14","bike_racks":"15","free_racks":"1","terminal_type":"7inch","bike_numbers":"24495,27782,27038,26207,26143,26085,25944,25923,25360,25129,29061,29133,96311,29172","bike_types":{"51":1,"4":12,"0":1},"place_type":"0","rack_locks":"1"},{"uid":"2586026","lat":"52.243020071904","lng":"21.102375984192","name":"Plac Szembeka","spot":"1","number":"9687","bikes":"10","bike_racks":"15","free_racks":"5","terminal_type":"7inch","bike_numbers":"24893,28802,28271,27686,26970,26582,26241,25982,25608,96277","bike_types":{"4":10},"place_type":"0","rack_locks":"1"},{"uid":"2586028","lat":"52.237559","lng":"21.120087","name":"P\u0119tla Goc\u0142awek","spot":"1","number":"9688","bikes":"9","bike_racks":"16","free_racks":"7","terminal_type":"7inch","bike_numbers":"28105,27953,27202,27082,25808,25538,25158,29458,25630","bike_types":{"4":9},"place_type":"0","rack_locks":"1"},{"uid":"2586030","lat":"52.2258359","lng":"21.0600907","name":"Brukselska - PROM","spot":"1","number":"9689","bikes":"14","bike_racks":"15","free_racks":"1","terminal_type":"7inch","bike_numbers":"24796,28675,28539,28432,28028,27780,27658,27489,26741,26726,26153,25830,25370,96019","bike_types":{"4":14},"place_type":"0","rack_locks":"1"},{"uid":"2586031","lat":"52.260205610017","lng":"21.046854257584","name":"al. Solidarno\u015bci - Szwedzka","spot":"1","number":"9690","bikes":"9","bike_racks":"18","free_racks":"9","terminal_type":"7inch","bike_numbers":"28026,27881,27383,25527,28948,96453,29266,29263,29252","bike_types":{"4":9},"place_type":"0","rack_locks":"1"},{"uid":"2586032","lat":"52.230088","lng":"21.067948","name":"al. Stan\u00f3w Zjednoczonych - Mi\u0119dzynarodowa","spot":"1","number":"9691","bikes":"21","bike_racks":"26","free_racks":"5","terminal_type":"7inch","bike_numbers":"24611,28756,28672,28589,28516,27998,27338,27220,27107,27030,26518,26301,26264,26200,26141,26096,25589,25327,25028,29373,96219","bike_types":{"4":21},"place_type":"0","rack_locks":"1"},{"uid":"2586034","lat":"52.23483","lng":"21.09975","name":"Ostrobramska - Zamieniecka","spot":"1","number":"9692","bikes":"14","bike_racks":"23","free_racks":"9","terminal_type":"7inch","bike_numbers":"24939,24512,28623,28257,27330,27087,26151,25899,25325,25267,25198,25149,29639,29144","bike_types":{"4":13,"0":1},"place_type":"0","rack_locks":"1"},{"uid":"2586037","lat":"52.2251969","lng":"21.0712892","name":"Afryka\u0144ska - Egipska","spot":"1","number":"9693","bikes":"13","bike_racks":"16","free_racks":"3","terminal_type":"7inch","bike_numbers":"24968,24858,24816,28080,26973,26148,26059,25690,25455,25244,28860,28851,96255","bike_types":{"4":13},"place_type":"0","rack_locks":"1"},