[{"region_info":{"lat":"52.2345","lng":"21.0024","zoom":"11","name":"VETURILO Poland","hotline":"+4819115","domain":"vp","language":"pl","email":"info@nextbike.pl","timezone":"Europe\/Warsaw","currency":"PLN","country_calling_code":"+48","system_operator_address":"Nextbike Polska S.A. ul. Przasnyska 6B, 01-756 Warszawa","country":"PL","country_name":"Poland","terms":"http:\/\/www.veturilo.waw.pl\/terms\/?v=201701","policy":"","website":"http:\/\/www.veturilo.waw.pl\/","show_free_racks":"1","booked_bikes":"0","set_point_bikes":"5282","available_bikes":"4304"},"places_summary":{"lngMin":20.8689688,"lngMax":21.14801,"latMin":52.117285,"latMax":52.3485329,"lngAvg":21.009268331921,"latAvg":52.230330989833},"places":[{"uid":"2585259","lat":"52.296298","lng":"20.9583575","name":"Dewajtis - UKSW","spot":"1","number":"9402","bikes":"7","bike_racks":"30","free_racks":"25","terminal_type":"7inch","bike_numbers":"27811,27594,27348,26301,25857,25221,60830","bike_types":{"4":7},"place_type":"0","rack_locks":"1"},{"uid":"2585263","lat":"52.2909738","lng":"20.9295559","name":"Metro M\u0142ociny","spot":"1","number":"9403","bikes":"21","bike_racks":"30","free_racks":"6","terminal_type":"7inch","bike_numbers":"24966,24699,24675,24567,28664,28444,28391,28147,27997,27930,26278,25907,25650,25406,25317,25264,29050,29428,96402,96109,29261","bike_types":{"4":21},"place_type":"0","rack_locks":"1"},{"uid":"2585265","lat":"52.2901732","lng":"20.9503698","name":"Marymoncka - Dewajtis","spot":"1","number":"9404","bikes":"27","bike_racks":"30","free_racks":"2","terminal_type":"7inch","bike_numbers":"24804,24799,28534,28354,27402,27291,27142,26862,26847,26835,26591,26242,26093,26038,25950,25928,25904,25306,25214,29089,28828,96439,96391,96326,29155,29254,96581","bike_types":{"4":27},"place_type":"0","rack_locks":"1"},{"uid":"2585267","lat":"52.285914","lng":"20.940561","name":"Metro Wawrzyszew","spot":"1","number":"9405","bikes":"13","bike_racks":"20","free_racks":"6","terminal_type":"7inch","bike_numbers":"24716,24483,28729,28641,28575,28547,27427,26097,25897,25483,29649,96235,29275","bike_types":{"4":12,"51":1},"place_type":"0","rack_locks":"1"},{"uid":"2585269","lat":"52.2336142","lng":"21.0146353","name":"G\u00f3rskiego - Szpitalna","spot":"1","number":"9406","bikes":"14","bike_racks":"16","free_racks":"5","terminal_type":"7inch","bike_numbers":"24874,28055,27815,27328,27287,26887,26401,26191,25391,25370,25091,96060,96459,96202","bike_types":{"4":14},"place_type":"0","rack_locks":"1"},{"uid":"2585271","lat":"52.2816265","lng":"20.9498871","name":"Metro Stare Bielany","spot":"1","number":"9407","bikes":"23","bike_racks":"30","free_racks":"6","terminal_type":"7inch","bike_numbers":"24876,24635,28757,28694,28619,28577,28340,28320,28282,27579,27433,27233,26938,26476,25987,25822,25818,25740,25612,25053,25013,96077,29241","bike_types":{"4":23},"place_type":"0","rack_locks":"1"},{"uid":"2585272","lat":"52.2361217","lng":"21.0219096","name":"Ordynacka - Uniwersytet Muzyczny","spot":"1","number":"9408","bikes":"13","bike_racks":"20","free_racks":"6","terminal_type":"7inch","bike_numbers":"24598,27901,27271,27134,26698,26025,25583,25333,25308,96572,96325,96130,29224","bike_types":{"4":13},"place_type":"0","rack_locks":"1"},{"uid":"2585273","lat":"52.2768774","lng":"20.9481302","name":"Bielany-Ratusz","spot":"1","number":"9409","bikes":"20","bike_racks":"28","free_racks":"8","terminal_type":"7inch","bike_numbers":"24931,24721,28371,27830,27514,27298,26936,26853,26291,26150,25358,29109,96036,96473,96285,96236,96106,96093,29197,96589","bike_types":{"4":20},"place_type":"0","rack_locks":"1"},{"uid":"2585275","lat":"52.2761569","lng":"20.9616673","name":"Metro S\u0142odowiec","spot":"1","number":"9410","bikes":"26","bike_racks":"30","free_racks":"3","terminal_type":"7inch","bike_numbers":"24930,24608,24588,28285,28096,27595,27316,27182,27086,26786,26646,26513,26495,25963,25870,25527,25292,25107,29110,28863,28991,96481,96393,96153,29253,29240","bike_types":{"4":26},"place_type":"0","rack_locks":"1"},{"uid":"2585278","lat":"52.2777751","lng":"20.9856999","name":"Potocka - OSiR \u017boliborz","spot":"1","number":"9411","bikes":"7","bike_racks":"15","free_racks":"8","terminal_type":"7inch","bike_numbers":"27938,27817,26682,26433,25655,28982,96348","bike_types":{"4":7},"place_type":"0","rack_locks":"1"},{"uid":"2585280","lat":"52.273527782989","lng":"20.994186401367","name":"Gwia\u017adzista - Promyka","spot":"1","number":"9412","bikes":"12","bike_racks":"16","free_racks":"5","terminal_type":"7inch","bike_numbers":"24538,28672,28579,28087,27765,27256,27231,27019,26466,25026,28911,29279","bike_types":{"4":12},"place_type":"0","rack_locks":"1"},{"uid":"2585281","lat":"52.270941","lng":"20.9326269","name":"al. Reymonta - Conrada","spot":"1","number":"9413","bikes":"25","bike_racks":"30","free_racks":"5","terminal_type":"7inch","bike_numbers":"24970,24751,28701,28601,28597,28138,28101,28022,27921,27841,27790,27685,27590,27273,27132,26905,26774,26447,25786,25203,25626,25624,96268,96248,96223","bike_types":{"4":25},"place_type":"0","rack_locks":"1"},{"uid":"2585283","lat":"52.2706441","lng":"20.9504181","name":"Broniewskiego - Perzy\u0144skiego","spot":"1","number":"9414","bikes":"11","bike_racks":"16","free_racks":"3","terminal_type":"7inch","bike_numbers":"28698,28271,28026,27466,26808,26135,25784,25305,96365,96102,29180","bike_types":{"4":11},"place_type":"0","rack_locks":"1"},{"uid":"2585284","lat":"52.2714203","lng":"20.9727099","name":"Metro Marymont","spot":"1","number":"9415","bikes":"12","bike_racks":"30","free_racks":"18","terminal_type":"7inch","bike_numbers":"28658,28622,28020,27450,26926,26901,26422,25400,28964,96284,29154,29220","bike_types":{"4":12},"place_type":"0","rack_locks":"1"},{"uid":"2585285","lat":"52.2694081","lng":"20.9833664","name":"Metro Plac Wilsona","spot":"1","number":"9416","bikes":"13","bike_racks":"21","free_racks":"3","terminal_type":"7inch","bike_numbers":"27707,27250,27074,26889,26828,26400,25983,25668,29042,29445,96529,96494,96449","bike_types":{"4":13},"place_type":"0","rack_locks":"1"},{"uid":"2585286","lat":"52.2668623","lng":"20.9637032","name":"Broniewskiego - W\u0142o\u015bcia\u0144ska","spot":"1","number":"9417","bikes":"8","bike_racks":"19","free_racks":"10","terminal_type":"7inch","bike_numbers":"27761,27381,26751,26326,26243,25989,25573,29051","bike_types":{"4":8},"place_type":"0","rack_locks":"1"},{"uid":"2585288","lat":"52.2643984","lng":"20.9723179","name":"Broniewskiego - Krasi\u0144skiego","spot":"1","number":"9418","bikes":"10","bike_racks":"16","free_racks":"5","maintenance":"1","terminal_type":"7inch","bike_numbers":"28728,28075,28003,27083,26764,26636,25517,25499,25165,96573","bike_types":{"4":10},"place_type":"0","rack_locks":"1"},{"uid":"2585289","lat":"52.267875","lng":"21.0020667","name":"Wybrze\u017ce Gdy\u0144skie - KS Sp\u00f3jnia","spot":"1","number":"9419","bikes":"12","bike_racks":"15","free_racks":"2","terminal_type":"7inch","bike_numbers":"24843,24042,28558,27967,27500,26611,25916,25902,25674,29088,96186,96165","bike_types":{"4":11,"26":1},"place_type":"0","rack_locks":"1"},{"uid":"2585291","lat":"52.2624054","lng":"20.9802551","name":"Plac Grunwaldzki","spot":"1","number":"9420","bikes":"21","bike_racks":"30","free_racks":"10","terminal_type":"7inch","bike_numbers":"24660,24649,24475,28755,28385,28256,27520,27432,27398,26450,26271,26256,25948,25884,25846,25635,25147,29092,29075,28859,96029","bike_types":{"4":20,"51":1},"place_type":"0","rack_locks":"1"},{"uid":"2585296","lat":"52.2612575","lng":"20.9863191","name":"Zaj\u0105czka - Bitwy Pod Rokitn\u0105","spot":"1","number":"9421","bikes":"11","bike_racks":"15","free_racks":"4","terminal_type":"7inch","bike_numbers":"24557,28111,27844,27259,27010,26844,25712,29434,29269,96577,96576","bike_types":{"4":11},"place_type":"0","rack_locks":"1"},{"uid":"2585297","lat":"52.2645018","lng":"20.9895998","name":"Plac Inwalid\u00f3w","spot":"1","number":"9422","bikes":"9","bike_racks":"15","free_racks":"5","terminal_type":"7inch","bike_numbers":"24569,28587,28429,28295,28193,26823,26704,25315,96101","bike_types":{"4":9},"place_type":"0","rack_locks":"1"},{"uid":"2585299","lat":"52.258245356688","lng":"20.898613929749","name":"P\u0119tla Stare Bemowo","spot":"1","number":"9423","bikes":"8","bike_racks":"21","free_racks":"13","terminal_type":"7inch","bike_numbers":"24658,28886,28763,28487,28474,26627,25116,96034","bike_types":{"4":8},"place_type":"0","rack_locks":"1"},{"uid":"2585301","lat":"52.260895125763","lng":"20.923923254013","name":"P\u0119tla Nowe Bemowo","spot":"1","number":"9424","bikes":"19","bike_racks":"25","free_racks":"6","terminal_type":"7inch","bike_numbers":"24752,24624,24487,28716,28662,28486,28483,27656,27565,27389,27125,26526,26475,25435,25420,25399,29458,96183,29173","bike_types":{"4":18,"51":1},"place_type":"0","rack_locks":"1"},{"uid":"2585304","lat":"52.2575903","lng":"20.9323374","name":"Obro\u0144c\u00f3w Tobruku - Pieni\u0105\u017cka","spot":"1","number":"9425","bikes":"14","bike_racks":"22","free_racks":"8","terminal_type":"7inch","bike_numbers":"24026,27877,27723,27684,27523,27345,27283,26525,26095,25872,25157,25096,96321,96092","bike_types":{"26":1,"4":13},"place_type":"0","rack_locks":"1"},{"uid":"2585305","lat":"52.2593225","lng":"20.9605511","name":"Pow\u0105zkowska - Krasi\u0144skiego","spot":"1","number":"9426","bikes":"4","bike_racks":"23","free_racks":"19","terminal_type":"7inch","bike_numbers":"24028,24020,24006,27878","bike_types":{"26":3,"4":1},"place_type":"0","rack_locks":"1"},{"uid":"2585306","lat":"52.2563145","lng":"20.9682307","name":"Pow\u0105zkowska - Plac Niemena","spot":"1","number":"9427","bikes":"13","bike_racks":"16","free_racks":"3","terminal_type":"7inch","bike_numbers":"24823,28128,26927,26836,26684,26045,25925,28960,28949,29132,28851,28895,96083","bike_types":{"4":12,"0":1},"place_type":"0","rack_locks":"1"},{"uid":"2585307","lat":"52.258524460024","lng":"20.970931649208","name":"Przasnyska - Rydygiera","spot":"1","number":"9428","bikes":"7","bike_racks":"15","free_racks":"8","terminal_type":"7inch","bike_numbers":"24525,27785,27697,26993,26461,26211,96152","bike_types":{"4":7},"place_type":"0","rack_locks":"1"},{"uid":"2585308","lat":"52.253594","lng":"20.9798744","name":"Pow\u0105zkowska - Burakowska","spot":"1","number":"9429","bikes":"11","bike_racks":"20","free_racks":"9","terminal_type":"7inch","bike_numbers":"24984,24024,28336,26357,26274,26238,25837,25241,25080,28941,96206","bike_types":{"4":10,"26":1},"place_type":"0","rack_locks":"1"},{"uid":"2585311","lat":"52.2576018","lng":"20.9944975","name":"Metro Dworzec Gda\u0144ski","spot":"1","number":"9430","bikes":"22","bike_racks":"30","free_racks":"9","terminal_type":"7inch","bike_numbers":"24714,24682,24634,28897,28885,27809,27769,27559,27539,27527,27373,27156,27124,26768,26380,25945,25199,25155,25044,29065,96041,96033","bike_types":{"4":22},"place_type":"0","rack_locks":"1"},{"uid":"2585315","lat":"52.2465952","lng":"20.9429216","name":"Obozowa - Cio\u0142ka","spot":"1","number":"9432","bikes":"10","bike_racks":"13","free_racks":"3","terminal_type":"7inch","bike_numbers":"24934,28457,27617,27449,27063,26406,25198,28908,96535,96112","bike_types":{"4":10},"place_type":"0","rack_locks":"1"},{"uid":"2585317","lat":"52.227621983552","lng":"20.956758856773","name":"al. Prymasa Tysi\u0105clecia - Kasprzaka","spot":"1","number":"9433","bikes":"13","bike_racks":"23","free_racks":"9","terminal_type":"7inch","bike_numbers":"24929,24742,28300,27866,27620,26921,26069,25967,25912,25591,25168,29121,96372","bike_types":{"4":12,"0":1},"place_type":"0","rack_locks":"1"},{"uid":"2585319","lat":"52.246037","lng":"20.962463","name":"Obozowa - Radziwie","spot":"1","number":"9434","bikes":"4","bike_racks":"13","free_racks":"8","terminal_type":"7inch","bike_numbers":"26822,26511,26019,29388","bike_types":{"4":4},"place_type":"0","rack_locks":"1"},{"uid":"2585321","lat":"52.2514708","lng":"20.9857053","name":"al. Jana Paw\u0142a II - Stawki","spot":"1","number":"9435","bikes":"14","bike_racks":"23","free_racks":"9","terminal_type":"7inch","bike_numbers":"24937,24509,28667,28555,27621,26456,26396,26304,26286,26154,26066,25342,29013,96396","bike_types":{"4":14},"place_type":"0","rack_locks":"1"},{"uid":"2585323","lat":"52.2535305","lng":"20.9924922","name":"Stawki - Dubois","spot":"1","number":"9436","bikes":"1","bike_racks":"13","free_racks":"12","terminal_type":"7inch","bike_numbers":"27089","bike_types":{"4":1},"place_type":"0","rack_locks":"1"},{"uid":"2585326","lat":"52.2541702","lng":"20.9980649","name":"Andersa - Muranowska","spot":"1","number":"9437","bikes":"12","bike_racks":"30","free_racks":"15","terminal_type":"7inch","bike_numbers":"24958,28731,28034,27392,26971,26277,25990,25772,25085,29115,29461,28989","bike_types":{"4":12},"place_type":"0","rack_locks":"1"},{"uid":"2585327","lat":"52.255877","lng":"21.0099819","name":"Sanguszki - Wybrze\u017ce Gda\u0144skie","spot":"1","number":"9438","bikes":"21","bike_racks":"28","free_racks":"7","terminal_type":"7inch","bike_numbers":"28602,28586,28151,28023,27698,27564,27157,26686,26486,26252,26201,26157,25988,25614,25469,25099,29646,28841,96492,29179,29167","bike_types":{"4":21},"place_type":"0","rack_locks":"1"},{"uid":"2585330","lat":"52.24418","lng":"20.97794","name":"Okopowa - Anielewicza","spot":"1","number":"9440","bikes":"12","bike_racks":"20","free_racks":"8","terminal_type":"7inch","bike_numbers":"24891,24505,28523,27948,27924,27732,27337,26929,26385,26020,29142,29251","bike_types":{"4":11,"0":1},"place_type":"0","rack_locks":"1"},{"uid":"2585333","lat":"52.2486","lng":"20.98352","name":"Smocza - Mi\u0142a","spot":"1","number":"9441","bikes":"11","bike_racks":"15","free_racks":"4","terminal_type":"7inch","bike_numbers":"28874,28710,28074,27808,27305,27118,26845,25796,96455,96214,96159","bike_types":{"4":11},"place_type":"0","rack_locks":"1"},{"uid":"2585334","lat":"52.24616","lng":"20.98538","name":"Smocza - Anielewicza","spot":"1","number":"9442","bikes":"5","bike_racks":"17","free_racks":"12","terminal_type":"7inch","bike_numbers":"27805,27701,26290,28856,28883","bike_types":{"4":5},"place_type":"0","rack_locks":"1"},{"uid":"2585335","lat":"52.247226","lng":"20.9893155","name":"al. Jana Paw\u0142a II - Anielewicza","spot":"1","number":"9443","bikes":"4","bike_racks":"22","free_racks":"16","terminal_type":"7inch","bike_numbers":"28561,28062,26542,25263","bike_types":{"4":4},"place_type":"0","rack_locks":"1"},{"uid":"2585337","lat":"52.249052","lng":"20.9948923","name":"Anielewicza - Zamenhofa","spot":"1","number":"9444","bikes":"3","bike_racks":"15","free_racks":"12","terminal_type":"7inch","bike_numbers":"27228,29064,96221","bike_types":{"4":3},"place_type":"0","rack_locks":"1"},{"uid":"2585338","lat":"52.2492196","lng":"20.9971878","name":"Anielewicza - Andersa","spot":"1","number":"9445","bikes":"8","bike_racks":"20","free_racks":"11","terminal_type":"7inch","bike_numbers":"24816,28394,28309,27900,26299,26269,29043,29265","bike_types":{"4":8},"place_type":"0","rack_locks":"1"},{"uid":"2585340","lat":"52.251549","lng":"21.002749","name":"Bonifraterska - Franciszka\u0144ska","spot":"1","number":"9446","bikes":"6","bike_racks":"18","free_racks":"15","terminal_type":"7inch","bike_numbers":"27546,26861,26432,26014,28844,29232","bike_types":{"4":6},"place_type":"0","rack_locks":"1"},{"uid":"2585342","lat":"52.2541119","lng":"21.0093342","name":"Ko\u015bcielna - Piesza","spot":"1","number":"9448","bikes":"10","bike_racks":"26","free_racks":"15","terminal_type":"7inch","bike_numbers":"24955,28324,27257,27236,26556,26533,29111,28840,28965,96085","bike_types":{"4":10},"place_type":"0","rack_locks":"1"},{"uid":"2585344","lat":"52.2392622","lng":"20.8987641","name":"P\u0119tla Os. G\u00f3rczewska","spot":"1","number":"9449","bikes":"8","bike_racks":"15","free_racks":"7","terminal_type":"7inch","bike_numbers":"24782,28288,27777,27598,26660,25685,96479,29262","bike_types":{"4":8},"place_type":"0","rack_locks":"1"},{"uid":"2585345","lat":"52.2389287","lng":"20.9139535","name":"Bemowo-Ratusz","spot":"1","number":"9450","bikes":"24","bike_racks":"20","free_racks":"0","terminal_type":"7inch","bike_numbers":"24953,24458,28898,28682,28440,27959,27893,27752,27614,27501,27413,27306,27221,27097,27002,26894,26749,26654,25939,25568,29454,28777,96539,96534","bike_types":{"4":23,"51":1},"place_type":"0","rack_locks":"1"},{"uid":"2585346","lat":"52.2387861","lng":"20.9424946","name":"Okocimska - Olbrachta","spot":"1","number":"9451","bikes":"19","bike_racks":"18","free_racks":"0","terminal_type":"7inch","bike_numbers":"24849,24501,28511,28459,28221,27823,27613,27572,26873,26663,26448,26185,25924,25771,25578,29056,29026,96518,96079","bike_types":{"4":19},"place_type":"0","rack_locks":"1"},{"uid":"2585349","lat":"52.2506241","lng":"21.0533611","name":"Dworzec Wschodni - Lubelska","spot":"1","number":"9452","bikes":"14","bike_racks":"15","free_racks":"0","terminal_type":"7inch","bike_numbers":"24583,28401,27505,27441,26935,26398,25604,25542,25193,25126,96361,96267,96091,29204","bike_types":{"4":14},"place_type":"0","rack_locks":"1"},{"uid":"2585351","lat":"52.2369249","lng":"20.9723559","name":"Leszno - M\u0142ynarska","spot":"1","number":"9453","bikes":"12","bike_racks":"30","free_racks":"16","terminal_type":"7inch","bike_numbers":"24029,27973,26987,26859,26571,26366,25518,25381,25253,25082,29552,29255","bike_types":{"26":1,"4":11},"place_type":"0","rack_locks":"1"},{"uid":"2585352","lat":"52.2430451","lng":"20.9803864","name":"Dzielna - Bellottiego","spot":"1","number":"9454","bikes":"2","bike_racks":"13","free_racks":"10","terminal_type":"7inch","bike_numbers":"27996,25789","bike_types":{"4":2},"place_type":"0","rack_locks":"1"},{"uid":"2585353","lat":"52.24108","lng":"20.98316","name":"Wolno\u015b\u0107 - Bellottiego","spot":"1","number":"9455","bikes":"9","bike_racks":"16","free_racks":"7","terminal_type":"7inch","bike_numbers":"24564,28477,26794,25714,25695,25422,28946,28846,29169","bike_types":{"4":9},"place_type":"0","rack_locks":"1"},{"uid":"2585354","lat":"52.2435448","lng":"20.9873507","name":"Smocza - Nowolipki","spot":"1","number":"9456","bikes":"5","bike_racks":"16","free_racks":"11","terminal_type":"7inch","bike_numbers":"28882,27073,27039,26273,28978","bike_types":{"4":5},"place_type":"0","rack_locks":"1"},{"uid":"2585356","lat":"52.2445767","lng":"20.99177","name":"al. Jana Paw\u0142a II - Nowolipki","spot":"1","number":"9457","bikes":"0","bike_racks":"16","free_racks":"10","terminal_type":"7inch","place_type":"0","rack_locks":"1","bike_numbers":null,"bike_types":[]},{"uid":"2585358","lat":"52.22868","lng":"20.91509","name":"Powsta\u0144c\u00f3w \u015al\u0105skich - Cz\u0142uchowska","spot":"1","number":"9458","bikes":"11","bike_racks":"16","free_racks":"2","terminal_type":"7inch","bike_numbers":"24885,24595,28549,27470,26857,26589,25919,25794,25665,96490,96371","bike_types":{"4":11},"place_type":"0","rack_locks":"1"},{"uid":"2585360","lat":"52.2342032","lng":"20.934689","name":"Jana Olbrachta - Antka Rozpylacza","spot":"1","number":"9459","bikes":"9","bike_racks":"13","free_racks":"4","terminal_type":"7inch","bike_numbers":"24773,24755,24573,24523,28419,28319,27390,26115,26092","bike_types":{"4":9},"place_type":"0","rack_locks":"1"},{"uid":"2585364","lat":"52.2401623","lng":"20.9877277","name":"Wola-Ratusz","spot":"1","number":"9460","bikes":"8","bike_racks":"15","free_racks":"6","terminal_type":"7inch","bike_numbers":"28325,27800,27341,26464,25466,25373,25236,96592","bike_types":{"4":8},"place_type":"0","rack_locks":"1"},{"uid":"2585368","lat":"52.2445326","lng":"20.99998","name":"Plac Bankowy - Kino Muran\u00f3w","spot":"1","number":"9462","bikes":"11","bike_racks":"17","free_racks":"5","terminal_type":"7inch","bike_numbers":"24522,28650,27581,27578,27496,26720,26381,25648,25252,28808,96403","bike_types":{"4":11},"place_type":"0","rack_locks":"1"},{"uid":"2585369","lat":"52.2449465","lng":"21.0012943","name":"Andersa - D\u0142uga","spot":"1","number":"9463","bikes":"5","bike_racks":"30","free_racks":"25","terminal_type":"7inch","bike_numbers":"24693,28562,26199,26111,96089","bike_types":{"4":5},"place_type":"0","rack_locks":"1"},{"uid":"2585370","lat":"52.2442666","lng":"21.0015893","name":"Marsza\u0142kowska - al. Solidarno\u015bci","spot":"1","number":"9464","bikes":"11","bike_racks":"30","free_racks":"18","terminal_type":"7inch","bike_numbers":"24580,24472,28661,28141,28041,28008,26747,25508,25134,29435,96480","bike_types":{"4":10,"51":1},"place_type":"0","rack_locks":"1"},{"uid":"2585371","lat":"52.2431975","lng":"21.0016603","name":"Plac Bankowy - Ratusz","spot":"1","number":"9465","bikes":"15","bike_racks":"30","free_racks":"15","terminal_type":"7inch","bike_numbers":"24792,24740,24728,24636,28011,27566,26643,26397,26224,25619,25468,25407,25251,63603,96423","bike_types":{"4":15},"place_type":"0","rack_locks":"1"},{"uid":"2585373","lat":"52.2435719","lng":"21.0066801","name":"Senatorska - Biela\u0144ska","spot":"1","number":"9466","bikes":"5","bike_racks":"17","free_racks":"11","terminal_type":"7inch","bike_numbers":"24960,28565,28297,96442,96324","bike_types":{"4":5},"place_type":"0","rack_locks":"1"},{"uid":"2585377","lat":"52.246314509834","lng":"21.0113042593","name":"Miodowa","spot":"1","number":"9467","bikes":"12","bike_racks":"24","free_racks":"12","terminal_type":"7inch","bike_numbers":"28441,28427,28293,28292,27396,26624,25504,25382,29081,28975,96149,96097","bike_types":{"4":12},"place_type":"0","rack_locks":"1"},{"uid":"2585378","lat":"52.2435965","lng":"21.0140803","name":"Krakowskie Przedmie\u015bcie - Tr\u0119backa","spot":"1","number":"9468","bikes":"15","bike_racks":"14","free_racks":"1","terminal_type":"7inch","bike_numbers":"28819,28762,28690,28680,28312,27923,27562,26710,26544,26048,25779,25681,25023,28875,96342","bike_types":{"4":15},"place_type":"0","rack_locks":"1"},{"uid":"2585379","lat":"52.2465625","lng":"21.0174345","name":"Mariensztat","spot":"1","number":"9469","bikes":"2","bike_racks":"15","free_racks":"12","terminal_type":"7inch","bike_numbers":"27252,29044","bike_types":{"4":2},"place_type":"0","rack_locks":"1"},{"uid":"2585381","lat":"52.224934","lng":"20.945489","name":"Jana Kazimierza - Giz\u00f3w","spot":"1","number":"9471","bikes":"7","bike_racks":"13","free_racks":"6","terminal_type":"7inch","bike_numbers":"28442,27799,26652,25798,96177,29187,29183","bike_types":{"4":7},"place_type":"0","rack_locks":"1"},{"uid":"2585385","lat":"52.23016","lng":"20.951558","name":"Wolska - Elekcyjna","spot":"1","number":"9472","bikes":"12","bike_racks":"20","free_racks":"7","terminal_type":"7inch","bike_numbers":"24528,28706,28473,28466,28410,28263,28064,27992,27315,27115,25237,96486","bike_types":{"4":12},"place_type":"0","rack_locks":"1"},{"uid":"2585387","lat":"52.237662392829","lng":"20.955492854118","name":"al. Prymasa Tysi\u0105clecia - G\u00f3rczewska","spot":"1","number":"9473","bikes":"16","bike_racks":"20","free_racks":"4","terminal_type":"7inch","bike_numbers":"24765,28750,28079,27979,27867,27807,27548,27468,26840,26756,26668,26518,25344,29080,28944,96515","bike_types":{"4":16},"place_type":"0","rack_locks":"1"},{"uid":"2585389","lat":"52.2333374","lng":"20.9652776","name":"Wolska - P\u0142ocka","spot":"1","number":"9474","bikes":"10","bike_racks":"20","free_racks":"9","terminal_type":"7inch","bike_numbers":"28712,28638,27899,27476,26947,26942,25689,25671,28866,96273","bike_types":{"4":10},"place_type":"0","rack_locks":"1"},{"uid":"2585391","lat":"52.228522296173","lng":"20.969638824463","name":"Kasprzaka - Skierniewicka","spot":"1","number":"9475","bikes":"8","bike_racks":"21","free_racks":"11","terminal_type":"7inch","bike_numbers":"24877,24769,28341,27151,26515,26309,28894,96488","bike_types":{"4":8},"place_type":"0","rack_locks":"1"},{"uid":"2585394","lat":"52.22898","lng":"20.97843","name":"Kasprzaka - Karolkowa","spot":"1","number":"9476","bikes":"12","bike_racks":"15","free_racks":"2","terminal_type":"7inch","bike_numbers":"24659,28525,28475,27694,27686,27435,27138,26904,26163,25449,29373,96146","bike_types":{"4":12},"place_type":"0","rack_locks":"1"},{"uid":"2585396","lat":"52.2328752","lng":"20.9805411","name":"Muzeum Powstania Warszawskiego","spot":"1","number":"9477","bikes":"3","bike_racks":"10","free_racks":"6","terminal_type":"7inch","bike_numbers":"28430,27942,26810","bike_types":{"4":3},"place_type":"0","rack_locks":"1"},{"uid":"2585398","lat":"52.22983","lng":"20.983123","name":"Metro Rondo Daszy\u0144skiego","spot":"1","number":"9478","bikes":"16","bike_racks":"26","free_racks":"10","terminal_type":"7inch","bike_numbers":"24504,28640,28452,27949,27718,27512,27208,26482,25323,25316,25142,25084,29125,96433,96199,96111","bike_types":{"4":15,"0":1},"place_type":"0","rack_locks":"1"},{"uid":"2585400","lat":"52.23145","lng":"20.98869","name":"Prosta - Wronia","spot":"1","number":"9479","bikes":"13","bike_racks":"15","free_racks":"10","terminal_type":"7inch","bike_numbers":"24774,24758,24719,28643,27445,27370,26999,26930,26777,26209,25414,96562,29221","bike_types":{"4":13},"place_type":"0","rack_locks":"1"},{"uid":"2585401","lat":"52.2373141","lng":"20.9888488","name":"\u017belazna - Ch\u0142odna","spot":"1","number":"9480","bikes":"0","bike_racks":"15","free_racks":"15","terminal_type":"7inch","place_type":"0","rack_locks":"1","bike_numbers":null,"bike_types":[]},{"uid":"2585402","lat":"52.2344946","lng":"20.9905117","name":"\u017belazna - Grzybowska","spot":"1","number":"9481","bikes":"12","bike_racks":"20","free_racks":"10","terminal_type":"7inch","bike_numbers":"25000,28752,28677,28468,28110,28065,27176,26538,26181,25610,29451,96163","bike_types":{"4":12},"place_type":"0","rack_locks":"1"},{"uid":"2585405","lat":"52.238666","lng":"20.9957314","name":"al. Jana Paw\u0142a II - Plac Mirowski","spot":"1","number":"9482","bikes":"6","bike_racks":"21","free_racks":"16","terminal_type":"7inch","bike_numbers":"24531,27665,27518,26488,26131,25813","bike_types":{"4":6},"place_type":"0","rack_locks":"1"},{"uid":"2585406","lat":"52.2357151","lng":"20.9966071","name":"al. Jana Paw\u0142a II - Grzybowska","spot":"1","number":"9483","bikes":"15","bike_racks":"30","free_racks":"11","terminal_type":"7inch","bike_numbers":"28659,28621,28554,28501,28351,27593,27521,27299,27174,26545,26276,26033,25229,29200,28799","bike_types":{"4":15},"place_type":"0","rack_locks":"1"},{"uid":"2585410","lat":"52.23958","lng":"21.00027","name":"Ptasia - Zimna","spot":"1","number":"9485","bikes":"11","bike_racks":"16","free_racks":"4","terminal_type":"7inch","bike_numbers":"28703,26719,26307,25565,25403,25248,25234,25030,29431,96167,96586","bike_types":{"4":11},"place_type":"0","rack_locks":"1"},{"uid":"2585412","lat":"52.2336314","lng":"21.0028795","name":"Emilii Plater - \u015awi\u0119tokrzyska","spot":"1","number":"9486","bikes":"3","bike_racks":"26","free_racks":"23","terminal_type":"7inch","bike_numbers":"28131,25534,25475","bike_types":{"4":3},"place_type":"0","rack_locks":"1"},{"uid":"2585413","lat":"52.2358704","lng":"21.0037806","name":"Plac Grzybowski","spot":"1","number":"9487","bikes":"7","bike_racks":"26","free_racks":"18","terminal_type":"7inch","bike_numbers":"27840,26753,26658,25224,25185,29062,29449","bike_types":{"4":7},"place_type":"0","rack_locks":"1"},{"uid":"2585416","lat":"52.2384853","lng":"21.0067552","name":"Marsza\u0142kowska - Kr\u00f3lewska","spot":"1","number":"9488","bikes":"4","bike_racks":"19","free_racks":"14","terminal_type":"7inch","bike_numbers":"24911,28820,27503,26226","bike_types":{"4":4},"place_type":"0","rack_locks":"1"},{"uid":"2585417","lat":"52.2364206","lng":"21.0072407","name":"Marsza\u0142kowska - Zielna","spot":"1","number":"9489","bikes":"14","bike_racks":"30","free_racks":"16","terminal_type":"7inch","bike_numbers":"24738,28365,28021,27860,27826,27640,27577,27575,26148,26145,25543,25169,29031,96195","bike_types":{"4":14},"place_type":"0","rack_locks":"1"},{"uid":"2585420","lat":"52.2397008","lng":"21.0119292","name":"Plac Ma\u0142achowskiego","spot":"1","number":"9491","bikes":"4","bike_racks":"16","free_racks":"13","terminal_type":"7inch","bike_numbers":"28596,26560,26449,25454","bike_types":{"4":4},"place_type":"0","rack_locks":"1"},{"uid":"2585422","lat":"52.2359114","lng":"21.0135654","name":"Plac Powsta\u0144c\u00f3w Warszawy","spot":"1","number":"9492","bikes":"10","bike_racks":"20","free_racks":"10","terminal_type":"7inch","bike_numbers":"24925,25001,27563,27261,27066,26596,26386,25031,60834,29256","bike_types":{"4":10},"place_type":"0","rack_locks":"1"},{"uid":"2585423","lat":"52.2393559","lng":"21.016603","name":"Krakowskie Przedmie\u015bcie - Traugutta","spot":"1","number":"9493","bikes":"13","bike_racks":"24","free_racks":"11","terminal_type":"7inch","bike_numbers":"24932,24797,28148,27926,27119,26945,26621,25541,29122,96319,96082,29201,29280","bike_types":{"4":12,"0":1},"place_type":"0","rack_locks":"1"},{"uid":"2585429","lat":"52.238298","lng":"21.0184014","name":"Obo\u017ana - Kopernika","spot":"1","number":"9495","bikes":"18","bike_racks":"22","free_racks":"2","terminal_type":"7inch","bike_numbers":"24032,28445,28058,27983,27929,27455,27239,26415,26289,26161,25704,25597,25512,25167,25059,28981,63620,96110","bike_types":{"26":1,"4":17},"place_type":"0","rack_locks":"1"},{"uid":"2585430","lat":"52.24190654256","lng":"21.024259328842","name":"Lipowa - Dobra","spot":"1","number":"9496","bikes":"26","bike_racks":"19","free_racks":"0","terminal_type":"7inch","bike_numbers":"24969,24881,24508,24467,28899,28678,28308,28016,27703,27538,27517,27000,26425,26284,26119,25854,25729,25268,29350,29046,29386,28973,63602,96359,96294,96264","bike_types":{"4":25,"51":1},"place_type":"0","rack_locks":"1"},{"uid":"2585431","lat":"52.2413087","lng":"21.0281727","name":"Centrum Nauki Kopernik","spot":"1","number":"9497","bikes":"20","bike_racks":"30","free_racks":"10","terminal_type":"7inch","bike_numbers":"24944,24766,24609,24546,28412,28133,27940,27859,27846,27759,27513,27323,27181,26957,26854,26179,25441,29656,28974,96135","bike_types":{"4":20},"place_type":"0","rack_locks":"1"},{"uid":"2585432","lat":"52.2264464","lng":"20.9837164","name":"Kolejowa","spot":"1","number":"9498","bikes":"3","bike_racks":"16","free_racks":"12","terminal_type":"7inch","bike_numbers":"24600,27941,25279","bike_types":{"4":3},"place_type":"0","rack_locks":"1"},{"uid":"2585433","lat":"52.22983","lng":"20.993996","name":"\u017belazna - Sienna","spot":"1","number":"9499","bikes":"3","bike_racks":"30","free_racks":"25","terminal_type":"7inch","bike_numbers":"28642,25331,96193","bike_types":{"4":3},"place_type":"0","rack_locks":"1"},{"uid":"2585435","lat":"52.230201297582","lng":"20.999550819397","name":"al. Jana Paw\u0142a II - Z\u0142ota","spot":"1","number":"9500","bikes":"12","bike_racks":"16","free_racks":"3","terminal_type":"7inch","bike_numbers":"24549,25004,27188,27062,26618,26558,26529,26237,25035,96230,29274,29215","bike_types":{"4":12},"place_type":"0","rack_locks":"1"},{"uid":"2585438","lat":"52.2309778","lng":"21.0036755","name":"Emilii Plater - Z\u0142ota","spot":"1","number":"9501","bikes":"11","bike_racks":"30","free_racks":"17","terminal_type":"7inch","bike_numbers":"24775,28903,27540,27497,27170,27165,25697,25227,28945,96561,96411","bike_types":{"4":11},"place_type":"0","rack_locks":"1"},{"uid":"2585440","lat":"52.232816601853","lng":"21.006980538368","name":"Pa\u0142ac Kultury i Nauki","spot":"1","number":"9502","bikes":"2","bike_racks":"17","free_racks":"15","terminal_type":"7inch","bike_numbers":"26949,29020","bike_types":{"4":2},"place_type":"0","rack_locks":"1"},{"uid":"2585442","lat":"52.232934","lng":"21.0101791","name":"Marsza\u0142kowska - Z\u0142ota","spot":"1","number":"9503","bikes":"2","bike_racks":"22","free_racks":"20","terminal_type":"7inch","bike_numbers":"27409,27091","bike_types":{"4":2},"place_type":"0","rack_locks":"1"},{"uid":"2585445","lat":"52.231987","lng":"21.016092","name":"Bracka - Krucza","spot":"1","number":"9504","bikes":"4","bike_racks":"20","free_racks":"16","terminal_type":"7inch","bike_numbers":"28524,27196,26319,25024","bike_types":{"4":4},"place_type":"0","rack_locks":"1"},{"uid":"2585446","lat":"52.2355713","lng":"21.0179642","name":"Nowy \u015awiat - Warecka","spot":"1","number":"9505","bikes":"9","bike_racks":"24","free_racks":"14","terminal_type":"7inch","bike_numbers":"24656,24621,28803,28102,26588,25808,25726,25330,25058","bike_types":{"4":9},"place_type":"0","rack_locks":"1"},{"uid":"2585447","lat":"52.2337571","lng":"21.0202789","name":"Ga\u0142czy\u0144skiego - Foksal","spot":"1","number":"9506","bikes":"7","bike_racks":"24","free_racks":"17","terminal_type":"7inch","bike_numbers":"27751,25719,25576,25210,29107,28915,96282","bike_types":{"4":7},"place_type":"0","rack_locks":"1"},{"uid":"2585450","lat":"52.2375934","lng":"21.0256487","name":"Topiel - Tamka","spot":"1","number":"9507","bikes":"11","bike_racks":"20","free_racks":"8","terminal_type":"7inch","bike_numbers":"24734,28522,28258,27069,27043,26261,26063,25585,25539,25175,96327","bike_types":{"4":11},"place_type":"0","rack_locks":"1"},{"uid":"2585452","lat":"52.2358752","lng":"21.0317323","name":"Solec - Jaracza","spot":"1","number":"9508","bikes":"7","bike_racks":"15","free_racks":"7","terminal_type":"7inch","bike_numbers":"24514,27584,25411,25171,25122,96004,96269","bike_types":{"4":7},"place_type":"0","rack_locks":"1"},{"uid":"2585453","lat":"52.2218874","lng":"20.9795301","name":"al. Jerozolimskie - Niemcewicza","spot":"1","number":"9509","bikes":"7","bike_racks":"19","free_racks":"12","terminal_type":"7inch","bike_numbers":"27568,27131,27104,26471,26220,25153,29011","bike_types":{"4":7},"place_type":"0","rack_locks":"1"},{"uid":"2585455","lat":"52.2222155","lng":"20.9866293","name":"Ochota-Ratusz","spot":"1","number":"9510","bikes":"2","bike_racks":"23","free_racks":"21","terminal_type":"7inch","bike_numbers":"24652,25885","bike_types":{"4":2},"place_type":"0","rack_locks":"1"},{"uid":"2585457","lat":"52.2249718","lng":"20.9897661","name":"Plac Zawiszy","spot":"1","number":"9511","bikes":"23","bike_racks":"24","free_racks":"0","terminal_type":"7inch","bike_numbers":"24938,24913,28512,28265,28119,27679,26934,26708,26671,26574,26302,26091,25971,25764,25309,25238,29426,96006,96533,96507,96491,96451,96119","bike_types":{"4":23},"place_type":"0","rack_locks":"1"},{"uid":"2585460","lat":"52.22626","lng":"20.9961309","name":"al. Jerozolimskie - Lindleya","spot":"1","number":"9512","bikes":"3","bike_racks":"15","free_racks":"11","terminal_type":"7inch","bike_numbers":"27784,26017,25632","bike_types":{"4":3},"place_type":"0","rack_locks":"1"},{"uid":"2585462","lat":"52.2241455","lng":"20.9975244","name":"Lindleya - szpital","spot":"1","number":"9513","bikes":"10","bike_racks":"28","free_racks":"17","terminal_type":"7inch","bike_numbers":"24590,27423,27243,26725,26580,26493,25850,25758,25711,28910","bike_types":{"4":10},"place_type":"0","rack_locks":"1"},{"uid":"2585464","lat":"52.227861","lng":"21.0008509","name":"Warszawa \u015ar\u00f3dmie\u015bcie WKD","spot":"1","number":"9514","bikes":"27","bike_racks":"18","free_racks":"0","terminal_type":"7inch","bike_numbers":"24780,24779,24638,28761,28634,28431,28135,27318,27186,27036,26970,26893,26727,26500,26164,26116,25936,25742,25219,25958,28813,96024,96023,96553,96462,96357,29157","bike_types":{"4":27},"place_type":"0","rack_locks":"1"},{"uid":"2585466","lat":"52.2249555","lng":"21.0031664","name":"Oczki - WUM","spot":"1","number":"9515","bikes":"6","bike_racks":"19","free_racks":"11","terminal_type":"7inch","bike_numbers":"28413,26506,25645,25282,29128,29277","bike_types":{"4":5,"0":1},"place_type":"0","rack_locks":"1"},{"uid":"2585469","lat":"52.2290464","lng":"21.0054544","name":"Emilii Plater - Al. Jerozolimskie","spot":"1","number":"9517","bikes":"25","bike_racks":"30","free_racks":"5","terminal_type":"7inch","bike_numbers":"24858,24739,24516,28873,28715,28040,27962,27934,27753,27489,27289,27110,26940,26524,26283,25514,25493,25464,25446,29021,28948,28924,96436,96346,96314","bike_types":{"4":25},"place_type":"0","rack_locks":"1"},{"uid":"2585470","lat":"52.2259343","lng":"21.0067537","name":"Emilii Plater - Wsp\u00f3lna","spot":"1","number":"9518","bikes":"6","bike_racks":"15","free_racks":"8","terminal_type":"7inch","bike_numbers":"24613,24478,28485,26027,96362,96113","bike_types":{"4":5,"51":1},"place_type":"0","rack_locks":"1"},{"uid":"2585472","lat":"52.23001","lng":"21.01088","name":"Metro Centrum","spot":"1","number":"9519","bikes":"18","bike_racks":"30","free_racks":"12","terminal_type":"7inch","bike_numbers":"24927,28608,28420,27743,27635,26990,26755,26642,26547,26350,26232,26197,26137,25935,25778,25341,25056,29654","bike_types":{"4":18},"place_type":"0","rack_locks":"1"},{"uid":"2585473","lat":"52.229347019086","lng":"21.011314988136","name":"Marsza\u0142kowska - Al. Jerozolimskie","spot":"1","number":"9520","bikes":"24","bike_racks":"24","free_racks":"0","terminal_type":"7inch","bike_numbers":"28573,28301,28018,27978,27484,27293,27171,27122,26711,26679,26403,26324,26113,26060,26047,25977,25880,25849,25359,25206,28812,28888,63630,96414","bike_types":{"4":24},"place_type":"0","rack_locks":"1"},{"uid":"2585476","lat":"52.230418150276","lng":"21.013610959053","name":"al. Jerozolimskie - rejon Rotundy","spot":"1","number":"9521","bikes":"8","bike_racks":"24","free_racks":"16","terminal_type":"7inch","bike_numbers":"24948,24713,24571,27160,26807,26064,25793,96468","bike_types":{"4":8},"place_type":"0","rack_locks":"1"},{"uid":"2585477","lat":"52.2262882","lng":"21.0135705","name":"Marsza\u0142kowska - Ho\u017ca","spot":"1","number":"9522","bikes":"8","bike_racks":"15","free_racks":"10","terminal_type":"7inch","bike_numbers":"28350,28085,27401,26393,26372,25657,28833,29172","bike_types":{"4":8},"place_type":"0","rack_locks":"1"},{"uid":"2585492","lat":"52.2282923","lng":"21.0178542","name":"Krucza - Wsp\u00f3lna","spot":"1","number":"9523","bikes":"12","bike_racks":"28","free_racks":"16","terminal_type":"7inch","bike_numbers":"24875,28589,27648,27338,26885,26099,25298,29448,96046,96570,96460,96383","bike_types":{"4":12},"place_type":"0","rack_locks":"1"},{"uid":"2585684","lat":"52.23144","lng":"21.0213036","name":"Rondo de Gaulle'a","spot":"1","number":"9524","bikes":"7","bike_racks":"22","free_racks":"14","terminal_type":"7inch","bike_numbers":"24964,28259,28142,26773,25649,25272,96276","bike_types":{"4":7},"place_type":"0","rack_locks":"1"},{"uid":"2585694","lat":"52.2278487","lng":"21.0235084","name":"Plac Trzech Krzy\u017cy","spot":"1","number":"9525","bikes":"19","bike_racks":"23","free_racks":"4","maintenance":"1","terminal_type":"7inch","bike_numbers":"24897,24853,24605,24537,28006,27658,26916,26816,26770,26582,25937,25691,25684,25337,25098,96390,96175,29189,29152","bike_types":{"4":19},"place_type":"0","rack_locks":"1"},{"uid":"2585695","lat":"52.23324","lng":"21.0261179","name":"Smolna - PKP Powi\u015ble","spot":"1","number":"9526","bikes":"12","bike_racks":"18","free_racks":"6","terminal_type":"7inch","bike_numbers":"28376,27741,27574,27404,27385,26914,26863,26016,25815,96566,96475,96197","bike_types":{"4":12},"place_type":"0","rack_locks":"1"},{"uid":"2585699","lat":"52.2340191","lng":"21.0300328","name":"Herberta - PKP Powi\u015ble","spot":"1","number":"9527","bikes":"19","bike_racks":"26","free_racks":"7","terminal_type":"7inch","bike_numbers":"24777,28311,28094,27869,27764,27545,27420,27414,27386,26480,26070,25973,25679,96047,96556,96496,96142,29242,96588","bike_types":{"4":19},"place_type":"0","rack_locks":"1"},{"uid":"2585704","lat":"52.2347879","lng":"21.0340991","name":"Solec - al. 3 Maja","spot":"1","number":"9528","bikes":"22","bike_racks":"24","free_racks":"2","terminal_type":"7inch","bike_numbers":"24754,24570,24541,28581,28570,28544,28214,28208,27945,26997,26830,26793,26675,26077,25997,25974,25858,25530,25079,25016,96026,29153","bike_types":{"4":22},"place_type":"0","rack_locks":"1"},{"uid":"2585708","lat":"52.2301405","lng":"21.0303694","name":"Ksi\u0105\u017c\u0119ca - Rozbrat","spot":"1","number":"9529","bikes":"16","bike_racks":"15","free_racks":"4","terminal_type":"7inch","bike_numbers":"28598,27149,26748,26728,26369,26358,26342,26189,25222,29644,96022,96549,96253,96194,29238,96580","bike_types":{"4":16},"place_type":"0","rack_locks":"1"},{"uid":"2585711","lat":"52.2172177","lng":"20.9713608","name":"Szcz\u0119\u015bliwicka - APS","spot":"1","number":"9530","bikes":"15","bike_racks":"22","free_racks":"7","terminal_type":"7inch","bike_numbers":"24847,24717,28760,28455,28278,28253,27111,26967,26691,26216,25914,25827,25183,25145,96571","bike_types":{"4":15},"place_type":"0","rack_locks":"1"},{"uid":"2585712","lat":"52.2179474","lng":"20.9775567","name":"Kopi\u0144ska - Bia\u0142obrzeska","spot":"1","number":"9531","bikes":"6","bike_racks":"15","free_racks":"8","terminal_type":"7inch","bike_numbers":"28422,28140,28024,25324,96476,96122","bike_types":{"4":6},"place_type":"0","rack_locks":"1"},{"uid":"2585714","lat":"52.2178554","lng":"20.9828138","name":"Plac Narutowicza","spot":"1","number":"9532","bikes":"18","bike_racks":"30","free_racks":"12","terminal_type":"7inch","bike_numbers":"24705,28530,28510,28321,28270,28251,27702,27493,26913,26813,26739,26502,26102,25734,25703,25196,25094,28842","bike_types":{"4":18},"place_type":"0","rack_locks":"1"},{"uid":"2585716","lat":"52.216641","lng":"20.9879476","name":"Raszy\u0144ska - Wawelska","spot":"1","number":"9533","bikes":"12","bike_racks":"20","free_racks":"8","terminal_type":"7inch","bike_numbers":"24871,24676,27812,27569,27216,25255,25195,96059,96332,96173,29195,29194","bike_types":{"4":12},"place_type":"0","rack_locks":"1"},{"uid":"2585717","lat":"52.2191029","lng":"20.9890149","name":"Raszy\u0144ska - Filtrowa","spot":"1","number":"9534","bikes":"7","bike_racks":"22","free_racks":"14","terminal_type":"7inch","bike_numbers":"27733,27127,26501,26339,25132,29049,96441","bike_types":{"4":7},"place_type":"0","rack_locks":"1"},{"uid":"2585720","lat":"52.220676","lng":"21.0045554","name":"al. Niepodleg\u0142o\u015bci - Nowowiejska","spot":"1","number":"9535","bikes":"5","bike_racks":"30","free_racks":"26","terminal_type":"7inch","bike_numbers":"28529,27856,27782,27483,96114","bike_types":{"4":5},"place_type":"0","rack_locks":"1"},{"uid":"2585721","lat":"52.2174693","lng":"21.0056537","name":"Kaczy\u0144skiego - al. Niepodleg\u0142o\u015bci","spot":"1","number":"9536","bikes":"1","bike_racks":"16","free_racks":"15","terminal_type":"7inch","bike_numbers":"26383","bike_types":{"4":1},"place_type":"0","rack_locks":"1"},{"uid":"2585722","lat":"52.2226831","lng":"21.0081097","name":"Noakowskiego - Koszykowa","spot":"1","number":"9537","bikes":"12","bike_racks":"24","free_racks":"12","terminal_type":"7inch","bike_numbers":"24786,28663,28254,28002,27757,27380,27235,26995,26187,25052,28977,29171","bike_types":{"4":12},"place_type":"0","rack_locks":"1"},{"uid":"2585724","lat":"52.219916","lng":"21.0116824","name":"Plac Politechniki","spot":"1","number":"9538","bikes":"20","bike_racks":"27","free_racks":"6","terminal_type":"7inch","bike_numbers":"24800,24697,24585,28741,28528,28414,28316,28149,28049,27599,27180,27053,26141,25979,25766,25336,25027,29551,25629,96467","bike_types":{"4":20},"place_type":"0","rack_locks":"1"},{"uid":"2585727","lat":"52.223503","lng":"21.0128519","name":"Pozna\u0144ska - Zesp\u00f3\u0142 Szk\u00f3\u0142 Gastronomicznych","spot":"1","number":"9539","bikes":"7","bike_racks":"18","free_racks":"10","terminal_type":"7inch","bike_numbers":"24494,28699,27531,25782,25383,96547,29186","bike_types":{"51":1,"4":6},"place_type":"0","rack_locks":"1"},{"uid":"2585728","lat":"52.2174857","lng":"21.0142949","name":"Rondo Jazdy Polskiej","spot":"1","number":"9540","bikes":"3","bike_racks":"24","free_racks":"22","terminal_type":"7inch","bike_numbers":"28720,27629,29264","bike_types":{"4":3},"place_type":"0","rack_locks":"1"},{"uid":"2585729","lat":"52.2197435","lng":"21.0157353","name":"ul. Wary\u0144skiego-ul. Nowowiejska-Metro Politechnika ","spot":"1","number":"9541","bikes":"6","bike_racks":"20","free_racks":"15","terminal_type":"7inch","bike_numbers":"28620,27768,27758,27522,27482,26470","bike_types":{"4":6},"place_type":"0","rack_locks":"1"},{"uid":"2585731","lat":"52.2197681","lng":"21.0172775","name":"Plac Zbawiciela","spot":"1","number":"9542","bikes":"10","bike_racks":"12","free_racks":"1","terminal_type":"7inch","bike_numbers":"27439,27415,26479,26162,25986,25804,25354,29433,28862,96107","bike_types":{"4":10},"place_type":"0","rack_locks":"1"},{"uid":"2585735","lat":"52.2229427","lng":"21.0158211","name":"Plac Konstytucji","spot":"1","number":"9543","bikes":"9","bike_racks":"30","free_racks":"20","terminal_type":"7inch","bike_numbers":"27818,27247,26900,25970,25421,25386,25374,29007,28986","bike_types":{"4":9},"place_type":"0","rack_locks":"1"},{"uid":"2585737","lat":"52.2238152","lng":"21.0207859","name":"Mokotowska - Pi\u0119kna","spot":"1","number":"9544","bikes":"8","bike_racks":"22","free_racks":"14","terminal_type":"7inch","bike_numbers":"28691,28584,27711,27544,27040,25693,25303,29225","bike_types":{"4":8},"place_type":"0","rack_locks":"1"},{"uid":"2585738","lat":"52.2200212","lng":"21.0256299","name":"Plac na Rozdro\u017cu","spot":"1","number":"9545","bikes":"3","bike_racks":"26","free_racks":"21","terminal_type":"7inch","bike_numbers":"24890,27253,25723","bike_types":{"4":3},"place_type":"0","rack_locks":"1"},{"uid":"2585742","lat":"52.2249504","lng":"21.0268155","name":"Matejki - Wiejska","spot":"1","number":"9546","bikes":"4","bike_racks":"20","free_racks":"15","terminal_type":"7inch","bike_numbers":"28345,28217,25345,25022","bike_types":{"4":4},"place_type":"0","rack_locks":"1"},{"uid":"2585747","lat":"52.2221129","lng":"21.0343873","name":"My\u015bliwiecka - Rozbrat","spot":"1","number":"9547","bikes":"30","bike_racks":"21","free_racks":"0","terminal_type":"7inch","bike_numbers":"24559,28314,28150,28143,28132,27956,27612,27554,27301,26977,26802,26783,26693,26673,26348,26213,26183,25733,25653,25239,25043,25032,29138,28993,96483,96416,96387,96330,96151,29252","bike_types":{"4":29,"0":1},"place_type":"0","rack_locks":"1"},{"uid":"2585748","lat":"52.2277124","lng":"21.0442955","name":"Port Czerniakowski","spot":"1","number":"9548","bikes":"30","bike_racks":"30","free_racks":"2","terminal_type":"7inch","bike_numbers":"24972,24848,24692,24620,24584,24490,24455,28902,28531,28216,28207,28054,27511,27471,26879,26800,26423,26248,26178,26051,25934,25860,25363,25083,25041,29349,28958,29362,29647,96150","bike_types":{"4":28,"51":2},"place_type":"0","rack_locks":"1"},{"uid":"2585749","lat":"52.2109711","lng":"20.9759125","name":"Gr\u00f3jecka - Bitwy Warszawskiej 1920 roku","spot":"1","number":"9549","bikes":"15","bike_racks":"20","free_racks":"5","terminal_type":"7inch","bike_numbers":"24943,28469,28397,28384,27786,27295,27071,26805,26435,26264,26085,25690,25533,25432,96379","bike_types":{"4":15},"place_type":"0","rack_locks":"1"},{"uid":"2585750","lat":"52.2130296","lng":"20.9819985","name":"Pasteura - Winnicka - UW","spot":"1","number":"9550","bikes":"3","bike_racks":"24","free_racks":"16","terminal_type":"7inch","bike_numbers":"28438,25487,96127","bike_types":{"4":3},"place_type":"0","rack_locks":"1"},{"uid":"2585762","lat":"52.2107722","lng":"20.9847557","name":"Stefana Banacha - UW","spot":"1","number":"9551","bikes":"1","bike_racks":"29","free_racks":"28","terminal_type":"7inch","bike_numbers":"28517","bike_types":{"4":1},"place_type":"0","rack_locks":"1"},{"uid":"2585764","lat":"52.212671","lng":"21.003437","name":"Biblioteka Narodowa","spot":"1","number":"9552","bikes":"1","bike_racks":"24","free_racks":"23","terminal_type":"7inch","bike_numbers":"28809","bike_types":{"4":1},"place_type":"0","rack_locks":"1"},{"uid":"2585766","lat":"52.21691","lng":"21.01997","name":"Marsza\u0142kowska - Litewska","spot":"1","number":"9553","bikes":"2","bike_racks":"15","free_racks":"12","terminal_type":"7inch","bike_numbers":"28904,25162","bike_types":{"4":2},"place_type":"0","rack_locks":"1"},{"uid":"2585770","lat":"52.2083858","lng":"20.9631103","name":"P\u0119tla Szcz\u0119\u015bliwice ","spot":"1","number":"9554","bikes":"9","bike_racks":"19","free_racks":"6","terminal_type":"7inch","bike_numbers":"28550,28383,27479,27081,26860,25931,25748,25721,25718","bike_types":{"4":9},"place_type":"0","rack_locks":"1"},{"uid":"2585771","lat":"52.206153650625","lng":"20.970287919044","name":"Dickensa - Geodet\u00f3w","spot":"1","number":"9555","bikes":"11","bike_racks":"16","free_racks":"4","terminal_type":"7inch","bike_numbers":"24995,24465,27509,26983,26864,26736,26297,26257,26071,26010,96208","bike_types":{"4":10,"51":1},"place_type":"0","rack_locks":"1"},{"uid":"2585772","lat":"52.205361371875","lng":"20.984664559364","name":"\u017bwirki i Wigury - Ksi\u0119cia Trojdena","spot":"1","number":"9556","bikes":"2","bike_racks":"17","free_racks":"11","terminal_type":"7inch","bike_numbers":"27876,26527","bike_types":{"4":2},"place_type":"0","rack_locks":"1"},{"uid":"2585774","lat":"52.205801893754","lng":"20.998928546906","name":"Rakowiecka - \u015aw. A. Boboli","spot":"1","number":"9557","bikes":"9","bike_racks":"17","free_racks":"10","terminal_type":"7inch","bike_numbers":"24920,28495,28377,28099,27638,25835,25732,29452,24049","bike_types":{"4":8,"26":1},"place_type":"0","rack_locks":"1"},{"uid":"2585776","lat":"52.209916","lng":"21.0067794","name":"al. Niepodleg\u0142o\u015bci - Batorego","spot":"1","number":"9558","bikes":"20","bike_racks":"26","free_racks":"4","terminal_type":"7inch","bike_numbers":"24502,28036,27457,27376,27220,27140,27098,26553,26196,25699,25559,25461,25425,25128,28956,60842,28997,63608,96229,96196","bike_types":{"4":20},"place_type":"0","rack_locks":"1"},{"uid":"2585779","lat":"52.2132375","lng":"21.0210568","name":"Plac Unii Lubelskiej","spot":"1","number":"9559","bikes":"6","bike_racks":"24","free_racks":"19","terminal_type":"7inch","bike_numbers":"24581,28533,28093,27536,27308,29198","bike_types":{"4":6},"place_type":"0","rack_locks":"1"},{"uid":"2585781","lat":"52.2027557","lng":"20.9508951","name":"W\u0142odarzewska - Maszynowa","spot":"1","number":"9560","bikes":"9","bike_racks":"18","free_racks":"7","terminal_type":"7inch","bike_numbers":"27965,27440,27268,27189,27042,25596,25232,25067,96344","bike_types":{"4":9},"place_type":"0","rack_locks":"1"},{"uid":"2585782","lat":"52.2017647","lng":"20.9820897","name":"Sanocka - Pruszkowska","spot":"1","number":"9561","bikes":"12","bike_racks":"15","free_racks":"1","terminal_type":"7inch","bike_numbers":"28887,28084,28052,27832,27693,26437,26399,26158,26129,28847,96245,29151","bike_types":{"4":12},"place_type":"0","rack_locks":"1"},{"uid":"2585785","lat":"52.1981365","lng":"20.9833717","name":"\u017bwirki i Wigury - Rac\u0142awicka","spot":"1","number":"9562","bikes":"20","bike_racks":"18","free_racks":"0","terminal_type":"7inch","bike_numbers":"24895,24750,28676,28585,28406,28146,28051,27939,27696,27534,27126,27032,26110,25603,25111,29083,28992,96370,96275,96256","bike_types":{"4":20},"place_type":"0","rack_locks":"1"},{"uid":"2585787","lat":"52.20177","lng":"20.99969","name":"Wo\u0142oska - Kulskiego","spot":"1","number":"9563","bikes":"2","bike_racks":"15","free_racks":"13","terminal_type":"7inch","bike_numbers":"28409,28333","bike_types":{"4":2},"place_type":"0","rack_locks":"1"},{"uid":"2585788","lat":"52.2042638","lng":"21.014428","name":"Madali\u0144skiego - Kazimierzowska","spot":"1","number":"9564","bikes":"17","bike_racks":"24","free_racks":"7","terminal_type":"7inch","bike_numbers":"24902,24576,28453,28450,28261,28252,28112,27279,26377,25817,25702,28934,25627,96495,96484,96352,29216","bike_types":{"4":17},"place_type":"0","rack_locks":"1"},{"uid":"2585789","lat":"52.2055175","lng":"21.0231033","name":"Pu\u0142awska - Dworkowa","spot":"1","number":"9565","bikes":"1","bike_racks":"19","free_racks":"14","terminal_type":"7inch","bike_numbers":"26352","bike_types":{"4":1},"place_type":"0","rack_locks":"1"},{"uid":"2585790","lat":"52.2071756","lng":"21.0312643","name":"Belwederska - Gagarina","spot":"1","number":"9566","bikes":"42","bike_racks":"30","free_racks":"1","terminal_type":"7inch","bike_numbers":"24489,28644,28635,28331,27966,27750,27748,27745,27706,27639,27611,27477,27351,27226,27162,27082,26858,26855,26514,26463,26078,26074,25960,25863,25615,25319,25311,25068,25049,25028,29112,29033,28980,28916,28855,96501,96474,96430,96306,96301,96262,96115","bike_types":{"51":1,"4":41},"place_type":"0","rack_locks":"1"},{"uid":"2585791","lat":"52.2074193","lng":"21.0479621","name":"Czerniakowska - Gagarina","spot":"1","number":"9567","bikes":"23","bike_racks":"25","free_racks":"3","terminal_type":"7inch","bike_numbers":"24680,28718,28631,28461,28307,27881,27452,26829,26752,26446,25908,25701,25387,25384,25321,25273,25260,25114,28971,96018,96017,96381,29231","bike_types":{"4":23},"place_type":"0","rack_locks":"1"},{"uid":"2585794","lat":"52.1938131","lng":"20.9914431","name":"Etiudy Rewolucyjnej - Mi\u0105czy\u0144ska","spot":"1","number":"9568","bikes":"8","bike_racks":"18","free_racks":"9","terminal_type":"7inch","bike_numbers":"24798,24707,24642,28802,26104,25151,25040,96587","bike_types":{"4":8},"place_type":"0","rack_locks":"1"},{"uid":"2585799","lat":"52.1994156","lng":"21.0121384","name":"Metro Rac\u0142awicka","spot":"1","number":"9570","bikes":"5","bike_racks":"30","free_racks":"24","terminal_type":"7inch","bike_numbers":"25940,25873,25589,25584,25494","bike_types":{"4":5},"place_type":"0","rack_locks":"1"},{"uid":"2585800","lat":"52.199505","lng":"21.0240975","name":"Pu\u0142awska - Dolna","spot":"1","number":"9571","bikes":"9","bike_racks":"18","free_racks":"6","terminal_type":"7inch","bike_numbers":"24914,28647,27215,26865,26585,26561,25839,25730,25038","bike_types":{"4":9},"place_type":"0","rack_locks":"1"},{"uid":"2585802","lat":"52.2014754","lng":"21.0360047","name":"Sobieskiego - Che\u0142mska","spot":"1","number":"9572","bikes":"14","bike_racks":"15","free_racks":"4","terminal_type":"7inch","bike_numbers":"24809,24495,28580,28363,27734,27366,27290,26831,26712,26694,26559,28990,96428,96303","bike_types":{"4":13,"51":1},"place_type":"0","rack_locks":"1"},{"uid":"2585804","lat":"52.1998446","lng":"21.05095","name":"Czerniakowska - ZUS","spot":"1","number":"9573","bikes":"5","bike_racks":"15","free_racks":"9","terminal_type":"7inch","bike_numbers":"27834,27133,26925,28906,96009","bike_types":{"4":5},"place_type":"0","rack_locks":"1"},{"uid":"2585807","lat":"52.1916776","lng":"20.8689688","name":"PKP Ursus-Nied\u017awiadek","spot":"1","number":"9574","bikes":"11","bike_racks":"15","free_racks":"4","terminal_type":"7inch","bike_numbers":"24855,28083,27659,27438,26797,26215,25840,25161,96007,96398,29278","bike_types":{"4":11},"place_type":"0","rack_locks":"1"},{"uid":"2585808","lat":"52.1960469","lng":"20.8849347","name":"PKP Ursus","spot":"1","number":"9575","bikes":"8","bike_racks":"16","free_racks":"7","terminal_type":"7inch","bike_numbers":"28514,28287,26143,25833,25826,25599,25500,25380","bike_types":{"4":8},"place_type":"0","rack_locks":"1"},{"uid":"2585809","lat":"52.1869936","lng":"20.8906478","name":"Sosnkowskiego - OSiR Ursus","spot":"1","number":"9576","bikes":"5","bike_racks":"15","free_racks":"11","terminal_type":"7inch","bike_numbers":"28747,28721,25261,29095,96048","bike_types":{"4":5},"place_type":"0","rack_locks":"1"},{"uid":"2585811","lat":"52.2005548","lng":"20.8937538","name":"Ursus-Ratusz","spot":"1","number":"9577","bikes":"8","bike_racks":"15","free_racks":"6","terminal_type":"7inch","bike_numbers":"24748,24744,28029,27720,26876,26258,26126,25620","bike_types":{"4":8},"place_type":"0","rack_locks":"1"},{"uid":"2585814","lat":"52.1906376","lng":"20.8999443","name":"Skoroszewska - Prystora","spot":"1","number":"9578","bikes":"18","bike_racks":"17","free_racks":"2","terminal_type":"7inch","bike_numbers":"24968,24685,24462,28905,28460,27388,26758,26362,25593,25477,25340,25320,25304,25092,96051,96461,96363,96251","bike_types":{"4":17,"51":1},"place_type":"0","rack_locks":"1"},{"uid":"2585817","lat":"52.1882609","lng":"20.9603771","name":"G\u0142adka - OSiR W\u0142ochy","spot":"1","number":"9579","bikes":"11","bike_racks":"16","free_racks":"5","terminal_type":"7inch","bike_numbers":"24860,28723,28538,27076,26896,26645,25947,25811,25540,25481,96574","bike_types":{"4":11},"place_type":"0","rack_locks":"1"},{"uid":"2585820","lat":"52.2056441","lng":"20.9159142","name":"PKP W\u0142ochy","spot":"1","number":"9580","bikes":"8","bike_racks":"17","free_racks":"7","terminal_type":"7inch","bike_numbers":"24862,24631,28134,27855,26880,25856,25613,96427","bike_types":{"4":8},"place_type":"0","rack_locks":"1"},{"uid":"2585821","lat":"52.2012157","lng":"20.9353145","name":"al. Jerozolimskie - Popularna","spot":"1","number":"9581","bikes":"6","bike_racks":"19","free_racks":"13","terminal_type":"7inch","bike_numbers":"24996,24030,27974,26960,26743,26249","bike_types":{"4":5,"26":1},"place_type":"0","rack_locks":"1"},{"uid":"2585824","lat":"52.1924709","lng":"20.9596664","name":"W\u0142ochy-Ratusz","spot":"1","number":"9582","bikes":"9","bike_racks":"15","free_racks":"6","terminal_type":"7inch","bike_numbers":"28551,28210,27989,27608,26040,25636,25413,96178,96582","bike_types":{"4":9},"place_type":"0","rack_locks":"1"},{"uid":"2585825","lat":"52.1946888","lng":"20.9667823","name":"1 Sierpnia - DK W\u0142ochy","spot":"1","number":"9583","bikes":"12","bike_racks":"15","free_racks":"3","terminal_type":"7inch","bike_numbers":"28105,27837,27824,27774,26982,26972,26798,26615,26200,29117,96520,29266","bike_types":{"4":12},"place_type":"0","rack_locks":"1"},{"uid":"2585827","lat":"52.1888962","lng":"21.0175887","name":"Metro Wierzbno","spot":"1","number":"9584","bikes":"8","bike_racks":"20","free_racks":"11","terminal_type":"7inch","bike_numbers":"27865,27065,26784,25720,28936,28872,29156,29248","bike_types":{"4":8},"place_type":"0","rack_locks":"1"},{"uid":"2585830","lat":"52.18648","lng":"21.02538","name":"Pu\u0142awska - Idzikowskiego","spot":"1","number":"9585","bikes":"8","bike_racks":"17","free_racks":"9","terminal_type":"7inch","bike_numbers":"24021,27591,27056,27008,28805,96464,96252,29270","bike_types":{"26":1,"4":7},"place_type":"0","rack_locks":"1"},{"uid":"2585835","lat":"52.1882861","lng":"21.0498825","name":"Sobieskiego - Mangalia","spot":"1","number":"9586","bikes":"15","bike_racks":"15","free_racks":"0","terminal_type":"7inch","bike_numbers":"24627,28315,28047,28045,27526,27014,26562,26334,25814,25617,25465,25218,29140,96045,96343","bike_types":{"4":14,"0":1},"place_type":"0","rack_locks":"1"},{"uid":"2585837","lat":"52.178777","lng":"21.0016387","name":"Wo\u0142oska - Marynarska","spot":"1","number":"9588","bikes":"8","bike_racks":"26","free_racks":"18","terminal_type":"7inch","bike_numbers":"24461,27070,26767,26229,25404,25118,96128,29282","bike_types":{"51":1,"4":7},"place_type":"0","rack_locks":"1"},{"uid":"2585838","lat":"52.1800882","lng":"21.0207403","name":"al. Niepodleg\u0142o\u015bci - al. Wilanowska","spot":"1","number":"9589","bikes":"3","bike_racks":"22","free_racks":"18","terminal_type":"7inch","bike_numbers":"24828,25966,96525","bike_types":{"4":3},"place_type":"0","rack_locks":"1"},{"uid":"2585839","lat":"52.1779163","lng":"21.049562","name":"P\u0119tla Stegny","spot":"1","number":"9590","bikes":"29","bike_racks":"23","free_racks":"0","terminal_type":"7inch","bike_numbers":"24700,24691,28738,28507,28476,28028,27884,27797,27699,27448,27399,27009,26965,26522,25932,25875,25731,25710,25595,25556,25418,25412,25194,25100,29003,28877,96413,96279,29208","bike_types":{"4":29},"place_type":"0","rack_locks":"1"},{"uid":"2585843","lat":"52.1818472","lng":"21.0562822","name":"Sobieskiego - \u015bw. Bonifacego","spot":"1","number":"9591","bikes":"23","bike_racks":"22","free_racks":"4","terminal_type":"7inch","bike_numbers":"24974,24909,24463,28623,28599,28490,28398,27384,26613,26563,26531,26168,26037,25830,25717,25424,25152,25015,28811,96513,96227,96145,24054","bike_types":{"4":21,"51":1,"26":1},"place_type":"0","rack_locks":"1"},{"uid":"2585844","lat":"52.1702836","lng":"20.9959132","name":"P\u0119tla Bokserska","spot":"1","number":"9592","bikes":"7","bike_racks":"15","free_racks":"4","terminal_type":"7inch","bike_numbers":"28092,28015,26364,26004,28857,96504,96164","bike_types":{"4":7},"place_type":"0","rack_locks":"1"},{"uid":"2585846","lat":"52.1710498","lng":"21.0059144","name":"Gintrowskiego - Gotarda","spot":"1","number":"9593","bikes":"13","bike_racks":"15","free_racks":"0","terminal_type":"7inch","bike_numbers":"24040,28439,28280,28264,27909,27034,26961,25953,25890,25602,25371,29427,96212","bike_types":{"26":1,"4":12},"place_type":"0","rack_locks":"1"},{"uid":"2585848","lat":"52.174435","lng":"21.0128814","name":"al. Lotnik\u00f3w - Kaczmarskiego","spot":"1","number":"9594","bikes":"1","bike_racks":"30","free_racks":"28","terminal_type":"7inch","bike_numbers":"28639","bike_types":{"4":1},"place_type":"0","rack_locks":"1"},{"uid":"2585850","lat":"52.1733132","lng":"21.0257305","name":"Metro S\u0142u\u017cew","spot":"1","number":"9595","bikes":"9","bike_racks":"24","free_racks":"15","terminal_type":"7inch","bike_numbers":"24946,24801,27117,26569,26458,26144,25955,25588,25266","bike_types":{"4":9},"place_type":"0","rack_locks":"1"},{"uid":"2585853","lat":"52.17343","lng":"21.03179","name":"Wa\u0142brzyska - Wr\u00f3bla","spot":"1","number":"9596","bikes":"16","bike_racks":"30","free_racks":"15","terminal_type":"7inch","bike_numbers":"24741,24664,28471,28374,27080,27041,26907,26888,26351,25886,25881,25682,25295,29339,96426,96169","bike_types":{"4":16},"place_type":"0","rack_locks":"1"},{"uid":"2585856","lat":"52.170135","lng":"21.0685748","name":"Jana III Sobieskiego - al. Wilanowska","spot":"1","number":"9597","bikes":"11","bike_racks":"15","free_racks":"4","terminal_type":"7inch","bike_numbers":"24732,28743,28392,27583,27515,27227,26998,26833,25223,96144,96105","bike_types":{"4":11},"place_type":"0","rack_locks":"1"},{"uid":"2585860","lat":"52.1655879","lng":"21.0839331","name":"al. Wilanowska - Przycz\u00f3\u0142kowa","spot":"1","number":"9598","bikes":"18","bike_racks":"16","free_racks":"0","terminal_type":"7inch","bike_numbers":"24999,24835,24824,28660,28368,27913,27106,26454,26390,26245,26042,25993,25713,96415,96334,96205,96140,96583","bike_types":{"4":18},"place_type":"0","rack_locks":"1"},{"uid":"2585863","lat":"52.16479","lng":"21.10925","name":"Vogla - Syta","spot":"1","number":"9599","bikes":"14","bike_racks":"16","free_racks":"12","terminal_type":"7inch","bike_numbers":"24709,28494,27993,27781,27556,27346,26434,26011,25910,25476,25431,25314,25287,28999","bike_types":{"4":14},"place_type":"0","rack_locks":"1"},{"uid":"2585868","lat":"52.1606257","lng":"21.0723245","name":"al. Rzeczypospolitej - Klimczaka","spot":"1","number":"9600","bikes":"16","bike_racks":"16","free_racks":"0","terminal_type":"7inch","bike_numbers":"24985,28817,28513,27508,27429,27419,27240,26912,26883,26180,25664,25562,25025,29342,28854,96333","bike_types":{"4":16},"place_type":"0","rack_locks":"1"},{"uid":"2585871","lat":"52.1569168","lng":"21.0760903","name":"al. Rzeczypospolitej - Branickiego","spot":"1","number":"9601","bikes":"13","bike_racks":"16","free_racks":"3","terminal_type":"7inch","bike_numbers":"24459,28262,28136,27695,26637,26420,26193,25351,63629,63628,63605,96395,96220","bike_types":{"51":1,"4":12},"place_type":"0","rack_locks":"1"},{"uid":"2585872","lat":"52.1593735","lng":"21.086449","name":"Przycz\u00f3\u0142kowa - Branickiego","spot":"1","number":"9602","bikes":"4","bike_racks":"16","free_racks":"11","terminal_type":"7inch","bike_numbers":"28464,28005,27716,26376","bike_types":{"4":4},"place_type":"0","rack_locks":"1"},{"uid":"2585873","lat":"52.1618136","lng":"21.0277355","name":"Metro Ursyn\u00f3w II","spot":"1","number":"9603","bikes":"13","bike_racks":"30","free_racks":"17","terminal_type":"7inch","bike_numbers":"24950,28499,27831,27631,27506,27178,26428,26388,26146,25978,25462,24819,96541","bike_types":{"4":13},"place_type":"0","rack_locks":"1"},{"uid":"2585875","lat":"52.1622579","lng":"21.0280761","name":"Metro Ursyn\u00f3w I","spot":"1","number":"9604","bikes":"16","bike_racks":"30","free_racks":"11","terminal_type":"7inch","bike_numbers":"24878,24794,24543,28700,28626,27704,27114,27025,26490,25394,29432,28826,63618,63614,96174,96088","bike_types":{"4":16},"place_type":"0","rack_locks":"1"},{"uid":"2585876","lat":"52.162401","lng":"21.0383811","name":"Jastrz\u0119bowskiego - SGGW","spot":"1","number":"9605","bikes":"17","bike_racks":"28","free_racks":"11","terminal_type":"7inch","bike_numbers":"24661,28821,28740,27184,27153,27139,27027,27011,26975,26923,26375,25898,25426,25416,25178,28940,28881","bike_types":{"4":17},"place_type":"0","rack_locks":"1"},{"uid":"2585880","lat":"52.1557534","lng":"21.0232776","name":"Romera - Pieciolinii","spot":"1","number":"9606","bikes":"8","bike_racks":"16","free_racks":"7","terminal_type":"7inch","bike_numbers":"26205,25581,25117,25081,29096,29035,96307,96289","bike_types":{"4":8},"place_type":"0","rack_locks":"1"},{"uid":"2585883","lat":"52.1568674","lng":"21.0338401","name":"Metro Stok\u0142osy","spot":"1","number":"9607","bikes":"34","bike_racks":"27","free_racks":"0","terminal_type":"7inch","bike_numbers":"24981,28756,28666,28434,27968,27953,27875,27861,27488,27159,27050,27029,26716,26605,26426,26411,26311,26207,26172,25964,25892,25770,25756,25343,25297,25204,25177,29361,63606,96544,96329,96299,96076,29267","bike_types":{"4":34},"place_type":"0","rack_locks":"1"},{"uid":"2585885","lat":"52.1572887","lng":"21.0440084","name":"Roso\u0142a - Ciszewskiego - SGGW","spot":"1","number":"9608","bikes":"1","bike_racks":"30","free_racks":"29","terminal_type":"7inch","bike_numbers":"60867","bike_types":{"4":1},"place_type":"0","rack_locks":"1"},{"uid":"2585888","lat":"52.1521429","lng":"21.0181224","name":"Pu\u0142awska - Pileckiego","spot":"1","number":"9609","bikes":"3","bike_racks":"22","free_racks":"17","terminal_type":"7inch","bike_numbers":"24524,28056,96154","bike_types":{"4":3},"place_type":"0","rack_locks":"1"},{"uid":"2585893","lat":"52.1495064","lng":"21.0332527","name":"Ciszewskiego - Pileckiego","spot":"1","number":"9610","bikes":"8","bike_racks":"22","free_racks":"13","terminal_type":"7inch","bike_numbers":"24990,24575,26487,26195,25832,25728,29053,28979","bike_types":{"4":8},"place_type":"0","rack_locks":"1"},{"uid":"2585894","lat":"52.1549453","lng":"21.0492977","name":"Roso\u0142a - Gandhi","spot":"1","number":"9611","bikes":"12","bike_racks":"22","free_racks":"10","terminal_type":"7inch","bike_numbers":"24625,28303,28048,27431,27154,27141,26279,25725,25174,28824,96043,96243","bike_types":{"4":12},"place_type":"0","rack_locks":"1"},{"uid":"2585897","lat":"52.1493105","lng":"21.0453361","name":"Metro Imielin","spot":"1","number":"9612","bikes":"22","bike_racks":"22","free_racks":"0","terminal_type":"7inch","bike_numbers":"24892,24776,24604,25007,28726,28552,27524,26468,26246,25816,25706,25579,25269,25254,60836,29141,25628,28868,96181,29158,24046,96579","bike_types":{"4":20,"0":1,"26":1},"place_type":"0","rack_locks":"1"},{"uid":"2585899","lat":"52.1522333","lng":"21.0563922","name":"Roso\u0142a - Weso\u0142a","spot":"1","number":"9613","bikes":"3","bike_racks":"23","free_racks":"19","terminal_type":"7inch","bike_numbers":"24552,26557,29106","bike_types":{"4":3},"place_type":"0","rack_locks":"1"},{"uid":"2585901","lat":"52.1427201","lng":"21.0383624","name":"Pileckiego - Alternatywy","spot":"1","number":"9614","bikes":"5","bike_racks":"30","free_racks":"23","terminal_type":"7inch","bike_numbers":"28326,27379,60815,29144,96265","bike_types":{"4":4,"0":1},"place_type":"0","rack_locks":"1"},{"uid":"2585902","lat":"52.142735","lng":"21.0448131","name":"Dereniowa - P\u0142askowickiej","spot":"1","number":"9615","bikes":"10","bike_racks":"22","free_racks":"11","terminal_type":"7inch","bike_numbers":"24646,28299,27829,27793,26609,26341,25045,28870,63612,96388","bike_types":{"4":10},"place_type":"0","rack_locks":"1"},{"uid":"2585904","lat":"52.1376039","lng":"21.0505531","name":"Stryje\u0144skich - Belgradzka","spot":"1","number":"9616","bikes":"8","bike_racks":"15","free_racks":"10","terminal_type":"7inch","bike_numbers":"24977,24942,28372,28069,25683,25353,28800,96188","bike_types":{"4":8},"place_type":"0","rack_locks":"1"},{"uid":"2585905","lat":"52.1403909","lng":"21.0568187","name":"Metro Natolin","spot":"1","number":"9617","bikes":"14","bike_racks":"30","free_racks":"16","terminal_type":"7inch","bike_numbers":"24866,24690,24553,28675,28298,27655,26532,26507,25401,25377,60854,96312,96231,96222","bike_types":{"4":14},"place_type":"0","rack_locks":"1"},{"uid":"2585906","lat":"52.1420749","lng":"21.0659905","name":"Belgradzka - Roso\u0142a","spot":"1","number":"9618","bikes":"11","bike_racks":"23","free_racks":"11","terminal_type":"7inch","bike_numbers":"24038,24017,27880,27407,26584,25917,25646,96567,96241,96184,29258","bike_types":{"26":2,"4":9},"place_type":"0","rack_locks":"1"},{"uid":"2585908","lat":"52.1314333","lng":"21.0561562","name":"Stryje\u0144skich - W\u0105wozowa","spot":"1","number":"9619","bikes":"20","bike_racks":"23","free_racks":"5","terminal_type":"7inch","bike_numbers":"24986,24954,24701,24554,24481,28260,28068,28027,27223,27207,26612,26499,26407,26306,26114,26098,25737,25310,60855,60828","bike_types":{"4":19,"51":1},"place_type":"0","rack_locks":"1"},{"uid":"2585911","lat":"52.3326052","lng":"20.9418404","name":"Ordon\u00f3wny - \u015awiatowida","spot":"1","number":"9620","bikes":"17","bike_racks":"22","free_racks":"5","terminal_type":"7inch","bike_numbers":"28433,28076,27982,27847,27721,27486,26986,26953,26651,26620,25608,25489,25197,29077,96008,96185,29185","bike_types":{"4":17},"place_type":"0","rack_locks":"1"},{"uid":"2585913","lat":"52.1310925","lng":"21.0654795","name":"Metro Kabaty","spot":"1","number":"9621","bikes":"21","bike_racks":"22","free_racks":"0","terminal_type":"7inch","bike_numbers":"24973,24629,28689,28361,28360,28215,27981,27485,27205,27103,26928,26818,26665,25923,25575,25553,25491,25054,29131,28871,96347","bike_types":{"4":20,"0":1},"place_type":"0","rack_locks":"1"},{"uid":"2585916","lat":"52.1332642","lng":"21.0747962","name":"W\u0105wozowa - Roso\u0142a","spot":"1","number":"9622","bikes":"12","bike_racks":"18","free_racks":"7","terminal_type":"7inch","bike_numbers":"24997,28818,27975,26075,25927,25519,25467,25347,25104,25050,96040,96218","bike_types":{"4":12},"place_type":"0","rack_locks":"1"},{"uid":"2585917","lat":"52.324116","lng":"21.05663","name":"Skarbka z G\u00f3r - Berensona","spot":"1","number":"9623","bikes":"12","bike_racks":"26","free_racks":"14","terminal_type":"7inch","bike_numbers":"28657,28526,28277,27882,27465,26669,26413,26259,26142,25755,96431,96204","bike_types":{"4":12},"place_type":"0","rack_locks":"1"},{"uid":"2585919","lat":"52.3485329","lng":"20.9418336","name":"Aluzyjna - Tr\u0105by","spot":"1","number":"9624","bikes":"10","bike_racks":"16","free_racks":"5","terminal_type":"7inch","bike_numbers":"24896,27806,27787,27158,26655,25905,25609,96531,96401,96317","bike_types":{"4":10},"place_type":"0","rack_locks":"1"},{"uid":"2585920","lat":"52.3226982","lng":"20.9448107","name":"\u015awiatowida - Mehoffera","spot":"1","number":"9625","bikes":"13","bike_racks":"16","free_racks":"2","terminal_type":"7inch","bike_numbers":"24918,24882,24859,24470,27895,26408,26338,26030,28950,28850,96015,96005,29160","bike_types":{"4":12,"51":1},"place_type":"0","rack_locks":"1"},{"uid":"2585921","lat":"52.3212548","lng":"20.9477347","name":"Bia\u0142o\u0142\u0119cki O\u015brodek Sportu","spot":"1","number":"9626","bikes":"21","bike_racks":"30","free_racks":"9","terminal_type":"7inch","bike_numbers":"24993,24900,24886,24802,28749,27964,27897,27833,27664,26941,26667,26265,26263,25900,25859,25480,29105,28864,96044,96010,96137","bike_types":{"4":21},"place_type":"0","rack_locks":"1"},{"uid":"2585922","lat":"52.3211272","lng":"20.9712964","name":"Bia\u0142o\u0142\u0119ka-Ratusz","spot":"1","number":"9627","bikes":"17","bike_racks":"19","free_racks":"3","terminal_type":"7inch","bike_numbers":"28154,27986,27529,27219,27172,26915,26834,26735,26623,26472,26024,25356,25135,29023,28966,96434,96138","bike_types":{"4":17},"place_type":"0","rack_locks":"1"},{"uid":"2585924","lat":"52.3132981","lng":"20.9655324","name":"My\u015bliborska - al. Kukli\u0144skiego","spot":"1","number":"9628","bikes":"20","bike_racks":"22","free_racks":"2","terminal_type":"7inch","bike_numbers":"24486,28437,28404,28390,27919,27705,27504,27327,27030,27004,26989,26210,26171,26018,25156,29108,28938,28995,96337,96335","bike_types":{"51":1,"4":19},"place_type":"0","rack_locks":"1"},{"uid":"2585925","lat":"52.3031984","lng":"20.9891666","name":"Modli\u0144ska - \u017bera\u0144ska","spot":"1","number":"9629","bikes":"25","bike_racks":"30","free_racks":"5","terminal_type":"7inch","bike_numbers":"24743,24622,28590,28127,27912,27868,27108,26763,26760,26738,26692,26489,26236,26184,25738,25538,25528,25479,25408,29135,29133,96521,96263,96247,96094","bike_types":{"4":23,"0":2},"place_type":"0","rack_locks":"1"},{"uid":"2585926","lat":"52.3150181","lng":"21.0610807","name":"Skarbka z G\u00f3r - Magiczna","spot":"1","number":"9630","bikes":"25","bike_racks":"30","free_racks":"4","terminal_type":"7inch","bike_numbers":"24562,24526,24011,28645,28583,28456,27870,27626,27321,27147,26815,26757,26707,26685,26641,26346,25376,25071,28865,28878,28994,96038,96505,96200,29272","bike_types":{"4":24,"26":1},"place_type":"0","rack_locks":"1"},{"uid":"2585928","lat":"52.3000268","lng":"21.0425266","name":"P\u0119tla Br\u00f3dno - Podgrodzie","spot":"1","number":"9631","bikes":"11","bike_racks":"20","free_racks":"9","terminal_type":"7inch","bike_numbers":"24939,24484,24014,28686,28610,28120,27916,27354,26270,26086,29127","bike_types":{"4":8,"51":1,"26":1,"0":1},"place_type":"0","rack_locks":"1"},{"uid":"2585929","lat":"52.2939957","lng":"21.0272258","name":"Rembieli\u0144ska - Kondratowicza","spot":"1","number":"9632","bikes":"22","bike_racks":"23","free_racks":"1","terminal_type":"7inch","bike_numbers":"28624,28607,28327,28213,28073,27681,27378,27288,27199,27020,26639,26281,25938,25350,25294,25106,28909,28835,96421,96369,96190,29222","bike_types":{"4":22},"place_type":"0","rack_locks":"1"},{"uid":"2585931","lat":"52.2917236","lng":"21.0481189","name":"Targ\u00f3wek-Ratusz","spot":"1","number":"9633","bikes":"10","bike_racks":"28","free_racks":"17","terminal_type":"7inch","bike_numbers":"28001,27908,26484,26457,96487,96394,96322,96162,96148,96103","bike_types":{"4":10},"place_type":"0","rack_locks":"1"},{"uid":"2585932","lat":"52.292208","lng":"21.0419554","name":"Kondratowicza - Chodecka","spot":"1","number":"9634","bikes":"17","bike_racks":"23","free_racks":"6","terminal_type":"7inch","bike_numbers":"24787,28772,28209,28153,27927,27776,27541,27282,26958,26951,26153,25348,29084,96538,96497,96482,29209","bike_types":{"4":17},"place_type":"0","rack_locks":"1"},{"uid":"2585934","lat":"52.2925145","lng":"21.0573949","name":"Kondratowicza - Przy Grodzisku","spot":"1","number":"9635","bikes":"17","bike_racks":"18","free_racks":"1","terminal_type":"7inch","bike_numbers":"24916,28652,28627,27677,27357,26718,26152,26103,25651,25150,29040,29036,29146,28891,96524,96353,96078","bike_types":{"4":16,"0":1},"place_type":"0","rack_locks":"1"},{"uid":"2585936","lat":"52.2878069","lng":"21.0213829","name":"Wysockiego - Poborza\u0144ska","spot":"1","number":"9636","bikes":"18","bike_racks":"23","free_racks":"5","terminal_type":"7inch","bike_numbers":"28137,27918,27835,27051,26744,26151,25666,25488,25470,25170,25146,29347,29034,25625,28806,96407,96392,96376","bike_types":{"4":18},"place_type":"0","rack_locks":"1"},{"uid":"2585937","lat":"52.2885915","lng":"21.0310087","name":"Rembieli\u0144ska - Wyszogrodzka","spot":"1","number":"9637","bikes":"24","bike_racks":"30","free_racks":"5","terminal_type":"7inch","bike_numbers":"24720,28876,28736,28707,28606,27854,27740,27725,27360,27300,27206,27077,26841,26453,26125,26087,25842,25760,25520,25415,25180,25075,96259,29161","bike_types":{"4":24},"place_type":"0","rack_locks":"1"},{"uid":"2585938","lat":"52.2864841","lng":"21.0401998","name":"Chodecka - \u017buromi\u0144ska","spot":"1","number":"9638","bikes":"9","bike_racks":"15","free_racks":"6","terminal_type":"7inch","bike_numbers":"24813,27616,27549,27454,27022,25243,29047,29039,96182","bike_types":{"4":9},"place_type":"0","rack_locks":"1"},{"uid":"2585939","lat":"52.281231017533","lng":"21.025852560997","name":"Wysockiego - Matki Teresy z Kalkuty","spot":"1","number":"9639","bikes":"11","bike_racks":"17","free_racks":"5","terminal_type":"7inch","bike_numbers":"24820,24811,28066,28017,27344,25985,25572,25235,25158,28969,96400","bike_types":{"4":11},"place_type":"0","rack_locks":"1"},{"uid":"2585941","lat":"52.2835693","lng":"21.0720858","name":"Blokowa - DK Zacisze","spot":"1","number":"9640","bikes":"10","bike_racks":"18","free_racks":"7","terminal_type":"7inch","bike_numbers":"28628,27502,26240,25926,25621,25088,96054,96020,96224,96081","bike_types":{"4":10},"place_type":"0","rack_locks":"1"},{"uid":"2585942","lat":"52.276259","lng":"21.0530748","name":"P\u0119tla Targ\u00f3wek","spot":"1","number":"9641","bikes":"18","bike_racks":"22","free_racks":"4","terminal_type":"7inch","bike_numbers":"24987,24949,24534,24527,28417,27717,27580,26955,26791,26491,26250,26214,26009,25445,25125,25124,28907,29218","bike_types":{"4":18},"place_type":"0","rack_locks":"1"},{"uid":"2585943","lat":"52.27139","lng":"21.01566","name":"Jagiello\u0144ska - ALK","spot":"1","number":"9642","bikes":"17","bike_racks":"16","free_racks":"0","terminal_type":"7inch","bike_numbers":"24657,24513,28822,28611,28061,27359,26504,26441,26015,25944,25395,25010,28912,29368,63615,96453,96420","bike_types":{"4":17},"place_type":"0","rack_locks":"1"},{"uid":"2585947","lat":"52.2694683","lng":"21.0499817","name":"Ossowskiego","spot":"1","number":"9644","bikes":"5","bike_racks":"17","free_racks":"12","terminal_type":"7inch","bike_numbers":"24783,28342,27092,26239,25456","bike_types":{"4":5},"place_type":"0","rack_locks":"1"},{"uid":"2585951","lat":"52.272602123161","lng":"21.063210368156","name":"Radzymi\u0144ska -Trocka","spot":"1","number":"9645","bikes":"11","bike_racks":"20","free_racks":"8","terminal_type":"7inch","bike_numbers":"24952,24614,24482,27951,27700,27660,26932,26850,26335,25070,28889","bike_types":{"4":10,"51":1},"place_type":"0","rack_locks":"1"},{"uid":"2585953","lat":"52.27347","lng":"21.07698","name":"Bukowiecka - Zamkowa","spot":"1","number":"9646","bikes":"12","bike_racks":"15","free_racks":"3","terminal_type":"7inch","bike_numbers":"24924,28722,28305,27998,26963,26868,26687,26041,25911,25455,25246,29443","bike_types":{"4":12},"place_type":"0","rack_locks":"1"},{"uid":"2585954","lat":"52.2668885","lng":"21.0585675","name":"Radzymi\u0144ska - Piotra Skargi","spot":"1","number":"9647","bikes":"13","bike_racks":"20","free_racks":"6","terminal_type":"7inch","bike_numbers":"24832,28656,28582,27672,27202,26776,26754,26722,26581,26356,26007,25933,25270","bike_types":{"4":13},"place_type":"0","rack_locks":"1"},{"uid":"2585955","lat":"52.2614369","lng":"21.0155744","name":"Wybrze\u017ce Helskie - ZOO","spot":"1","number":"9648","bikes":"13","bike_racks":"22","free_racks":"11","terminal_type":"7inch","bike_numbers":"24702,27907,27284,26939,26572,25744,25705,25390,29024,24498,96031,96192,29229","bike_types":{"4":12,"51":1},"place_type":"0","rack_locks":"1"},{"uid":"2585956","lat":"52.2632492","lng":"21.0212231","name":"Rondo Starzy\u0144skiego","spot":"1","number":"9649","bikes":"20","bike_racks":"24","free_racks":"2","terminal_type":"7inch","bike_numbers":"24831,24471,28347,28268,28030,27848,27820,27651,27582,27408,27087,26394,26174,26100,26094,25280,25097,28839,28880,28879","bike_types":{"4":19,"51":1},"place_type":"0","rack_locks":"1"},{"uid":"2585958","lat":"52.26421","lng":"21.02618","name":"Darwina - Nusbauma-Hilarowicza","spot":"1","number":"9650","bikes":"15","bike_racks":"21","free_racks":"5","terminal_type":"7inch","bike_numbers":"24607,24016,28735,27585,27377,27193,26895,26872,26640,26089,25981,25360,28853,29205,24048","bike_types":{"4":13,"26":2},"place_type":"0","rack_locks":"1"},{"uid":"2585960","lat":"52.26554","lng":"21.03122","name":"Namys\u0142owska - Darwina","spot":"1","number":"9651","bikes":"8","bike_racks":"15","free_racks":"7","terminal_type":"7inch","bike_numbers":"28578,28560,28458,27016,25447,29652,28858,96171","bike_types":{"4":8},"place_type":"0","rack_locks":"1"},{"uid":"2585961","lat":"52.2690405","lng":"21.0379493","name":"Rondo \u017baba","spot":"1","number":"9652","bikes":"22","bike_racks":"22","free_racks":"1","terminal_type":"7inch","bike_numbers":"24630,25006,28775,28774,28617,27990,27922,27828,27747,27652,27225,27094,27058,26546,25663,25226,29019,28967,96552,29162,29219,24053","bike_types":{"4":21,"26":1},"place_type":"0","rack_locks":"1"},{"uid":"2585963","lat":"52.2591682","lng":"21.0262224","name":"Jagiello\u0144ska - Plac Hallera","spot":"1","number":"9653","bikes":"5","bike_racks":"20","free_racks":"16","terminal_type":"7inch","bike_numbers":"28616,27551,27356,25018,29012","bike_types":{"4":5},"place_type":"0","rack_locks":"1"},{"uid":"2585964","lat":"52.2613811","lng":"21.0305437","name":"Plac Hallera - Sawinkowa","spot":"1","number":"9654","bikes":"12","bike_racks":"28","free_racks":"16","terminal_type":"7inch","bike_numbers":"24737,28484,28447,28080,27645,27550,27387,27313,27017,26079,96242,96233","bike_types":{"4":12},"place_type":"0","rack_locks":"1"},{"uid":"2585967","lat":"52.263","lng":"21.03418","name":"Namys\u0142owska - Szymanowskiego","spot":"1","number":"9655","bikes":"11","bike_racks":"16","free_racks":"5","terminal_type":"7inch","bike_numbers":"24778,28674,27461,27161,27096,26809,25547,25490,29447,96399,96358","bike_types":{"4":11},"place_type":"0","rack_locks":"1"},{"uid":"2585968","lat":"52.2538188","lng":"21.0231542","name":"Ratuszowa - ZOO","spot":"1","number":"9656","bikes":"16","bike_racks":"23","free_racks":"6","terminal_type":"7inch","bike_numbers":"24898,24708,24612,24022,25005,27028,26537,25877,25851,25792,25667,25525,29048,28972,96099,29271","bike_types":{"4":15,"26":1},"place_type":"0","rack_locks":"1"},{"uid":"2585971","lat":"52.256355","lng":"21.029538","name":"Jagiello\u0144ska - Ratuszowa","spot":"1","number":"9657","bikes":"14","bike_racks":"16","free_racks":"2","terminal_type":"7inch","bike_numbers":"24903,28687,27995,27994,27676,27481,27026,25915,25478,25029,29041,29120,60862,96386","bike_types":{"4":13,"0":1},"place_type":"0","rack_locks":"1"},{"uid":"2585972","lat":"52.261449","lng":"21.037614","name":"11 Listopada - Ratuszowa","spot":"1","number":"9658","bikes":"16","bike_racks":"30","free_racks":"16","terminal_type":"7inch","bike_numbers":"24723,28467,28362,28310,28104,27796,27744,27597,27018,26814,26801,26156,26012,29352,63625,96118","bike_types":{"4":16},"place_type":"0","rack_locks":"1"},{"uid":"2585974","lat":"52.263109","lng":"21.0381895","name":"11 listopada - \u015arodkowa","spot":"1","number":"9659","bikes":"10","bike_racks":"18","free_racks":"8","terminal_type":"7inch","bike_numbers":"28081,27810,27195,26919,26732,26275,25398,25257,28996,96419","bike_types":{"4":10},"place_type":"0","rack_locks":"1"},{"uid":"2585975","lat":"52.25839","lng":"21.03537","name":"Stalowa - 11 Listopada","spot":"1","number":"9660","bikes":"11","bike_racks":"24","free_racks":"14","terminal_type":"7inch","bike_numbers":"24556,27634,25831,25736,25567,29090,29143,96443,96315,96272,96124","bike_types":{"4":10,"0":1},"place_type":"0","rack_locks":"1"},{"uid":"2585978","lat":"52.234791","lng":"21.07905","name":"al. Stan\u00f3w Zjednoczonych - Ostrobramska","spot":"1","number":"9661","bikes":"2","bike_racks":"20","free_racks":"18","terminal_type":"7inch","bike_numbers":"28103,96155","bike_types":{"4":2},"place_type":"0","rack_locks":"1"},{"uid":"2585981","lat":"52.2524758","lng":"21.0303479","name":"Floria\u0144ska - Park Praski","spot":"1","number":"9662","bikes":"14","bike_racks":"23","free_racks":"6","terminal_type":"7inch","bike_numbers":"24722,28537,28050,28010,27803,27530,27217,26842,26740,25918,25121,29002,29660,96568","bike_types":{"4":14},"place_type":"0","rack_locks":"1"},{"uid":"2585982","lat":"52.2549757","lng":"21.0339005","name":"Plac Wile\u0144ski","spot":"1","number":"9663","bikes":"47","bike_racks":"30","free_racks":"0","terminal_type":"7inch","bike_numbers":"28869,28693,28603,28502,28496,28454,28405,28393,28117,28053,27976,27911,27778,27519,27312,27229,27192,27079,26964,26843,26638,26617,26594,26592,26552,26549,26404,26167,26140,25707,25577,25560,25405,25267,25249,25064,29097,29004,28951,28939,28933,29139,96232,96209,29193,29246,29228","bike_types":{"4":46,"0":1},"place_type":"0","rack_locks":"1"},{"uid":"2585983","lat":"52.2579576","lng":"21.0399804","name":"Wile\u0144ska - Rzeszotarskiej","spot":"1","number":"9664","bikes":"10","bike_racks":"16","free_racks":"9","terminal_type":"7inch","bike_numbers":"24838,27663,27274,27241,26795,26610,26333,26159,25781,25230","bike_types":{"4":10},"place_type":"0","rack_locks":"1"},{"uid":"2585984","lat":"52.2475848","lng":"20.9568001","name":"al. Prymasa Tysi\u0105clecia - Obozowa","spot":"1","number":"9665","bikes":"4","bike_racks":"13","free_racks":"7","terminal_type":"7inch","bike_numbers":"28013,26595,25810,25285","bike_types":{"4":4},"place_type":"0","rack_locks":"1"},{"uid":"2585985","lat":"52.248607","lng":"21.029647","name":"Okrzei - Panie\u0144ska","spot":"1","number":"9666","bikes":"8","bike_racks":"16","free_racks":"9","terminal_type":"7inch","bike_numbers":"28574,27330,26742,25724,29073,96448,96143,24055","bike_types":{"4":7,"26":1},"place_type":"0","rack_locks":"1"},{"uid":"2585987","lat":"52.2506334","lng":"21.0311174","name":"Sierakowskiego - K\u0142opotowskiego","spot":"1","number":"9667","bikes":"16","bike_racks":"25","free_racks":"7","terminal_type":"7inch","bike_numbers":"24926,28714,28548,28114,28072,27397,27275,27116,26771,25943,25696,25658,25334,96472,96166,96132","bike_types":{"4":16},"place_type":"0","rack_locks":"1"},{"uid":"2585990","lat":"52.2520876","lng":"21.0381368","name":"Targowa - Z\u0105bkowska","spot":"1","number":"9668","bikes":"19","bike_racks":"18","free_racks":"6","terminal_type":"7inch","bike_numbers":"24827,24602,28892,28646,28629,28446,27727,26781,26657,26597,26440,25820,25747,25536,25327,96013,96540,96281,96219","bike_types":{"4":19},"place_type":"0","rack_locks":"1"},{"uid":"2585992","lat":"52.2544855","lng":"21.0433458","name":"Fabryka W\u00f3dek Koneser","spot":"1","number":"9669","bikes":"20","bike_racks":"25","free_racks":"5","terminal_type":"7inch","bike_numbers":"24992,24861,24814,28683,28568,28520,28077,27920,27372,27362,27262,27255,27148,26714,26649,26554,26530,26222,26166,26117","bike_types":{"4":20},"place_type":"0","rack_locks":"1"},{"uid":"2585994","lat":"52.2559027","lng":"21.0495613","name":"Radzymi\u0144ska - Wiosenna","spot":"1","number":"9670","bikes":"22","bike_racks":"26","free_racks":"5","terminal_type":"7inch","bike_numbers":"24961,24770,24725,28764,28491,28408,27683,27343,27331,27246,27212,26837,26359,26282,26076,25965,25896,25448,25101,96477,96457,29168","bike_types":{"4":22},"place_type":"0","rack_locks":"1"},{"uid":"2585995","lat":"52.25965","lng":"21.0529","name":"Radzymi\u0144ska - \u0141om\u017cy\u0144ska","spot":"1","number":"9671","bikes":"24","bike_racks":"24","free_racks":"0","terminal_type":"7inch","bike_numbers":"24921,28615,28567,28532,28356,28211,27798,27687,27459,27416,27411,27394,27224,26996,26734,26508,26344,26225,26118,25893,25855,25802,25474,25284","bike_types":{"4":24},"place_type":"0","rack_locks":"1"},{"uid":"2585996","lat":"52.2583512","lng":"21.0585337","name":"P\u0119tla Kaw\u0119czy\u0144ska-Bazylika","spot":"1","number":"9672","bikes":"14","bike_racks":"26","free_racks":"9","terminal_type":"7inch","bike_numbers":"24893,24857,24586,25009,28382,28275,27650,27137,25998,60845,96469,96364,96287,96116","bike_types":{"4":14},"place_type":"0","rack_locks":"1"},{"uid":"2585997","lat":"52.249864871462","lng":"21.042911410332","name":"Targowa - Kijowska","spot":"1","number":"9673","bikes":"13","bike_racks":"18","free_racks":"4","terminal_type":"7inch","bike_numbers":"24947,24844,24788,24623,24496,27772,26902,26709,25660,25522,25471,96478,96120","bike_types":{"4":12,"51":1},"place_type":"0","rack_locks":"1"},{"uid":"2586000","lat":"52.252745","lng":"21.0510331","name":"Dworzec Wschodni - Kijowska","spot":"1","number":"9674","bikes":"33","bike_racks":"27","free_racks":"7","terminal_type":"7inch","bike_numbers":"24907,24880,24796,24791,24010,25008,28482,28332,27932,27902,27731,27661,27654,27421,27352,27100,27068,27035,26827,26579,26315,26204,26059,26028,25906,25570,25366,25200,29359,29639,96564,96452,29245","bike_types":{"4":32,"26":1},"place_type":"0","rack_locks":"1"},{"uid":"2586001","lat":"52.247314","lng":"21.042731","name":"Metro Stadion Narodowy","spot":"1","number":"9675","bikes":"9","bike_racks":"15","free_racks":"5","terminal_type":"7inch","bike_numbers":"24768,28553,28535,27155,27031,25878,25800,25259,96356","bike_types":{"4":9},"place_type":"0","rack_locks":"1"},{"uid":"2586003","lat":"52.2472308","lng":"21.0476456","name":"al. Zieleniecka - Teatr Powszechny","spot":"1","number":"9676","bikes":"9","bike_racks":"14","free_racks":"3","terminal_type":"7inch","bike_numbers":"28369,28156,28019,27211,26622,26313,29102,96028,96412","bike_types":{"4":9},"place_type":"0","rack_locks":"1"},{"uid":"2586005","lat":"52.247136","lng":"21.056658","name":"Grochowska - Mi\u0144ska","spot":"1","number":"9677","bikes":"26","bike_racks":"30","free_racks":"1","terminal_type":"7inch","bike_numbers":"28632,28515,27755,27730,27673,27434,27403,27353,27260,27045,26517,26343,26192,26136,26043,25996,25795,25746,25439,25182,25148,25129,25046,28954,29281,29237","bike_types":{"4":26},"place_type":"0","rack_locks":"1"},{"uid":"2586009","lat":"52.2464","lng":"21.06868","name":"Praga-Po\u0142udnie-Ratusz","spot":"1","number":"9678","bikes":"12","bike_racks":"15","free_racks":"2","terminal_type":"7inch","bike_numbers":"24736,24550,27827,27589,26427,25773,25594,25274,96058,96548,96380,96244","bike_types":{"4":12},"place_type":"0","rack_locks":"1"},{"uid":"2586011","lat":"52.2501129","lng":"21.0772011","name":"Dwernickiego - Siennicka","spot":"1","number":"9679","bikes":"18","bike_racks":"25","free_racks":"13","terminal_type":"7inch","bike_numbers":"24577,24539,28697,28014,27802,27770,27474,27194,26696,26583,25969,25836,25824,25587,25299,25047,96255,29249","bike_types":{"4":18},"place_type":"0","rack_locks":"1"},{"uid":"2586012","lat":"52.260428882956","lng":"21.041538119316","name":"Stalowa - Czynszowa","spot":"1","number":"9680","bikes":"10","bike_racks":"15","free_racks":"5","terminal_type":"7inch","bike_numbers":"27163,26633,26109,25882,25678,29030,28952,29124,96555,96283","bike_types":{"4":9,"0":1},"place_type":"0","rack_locks":"1"},{"uid":"2586014","lat":"52.2372419","lng":"21.0437644","name":"Wybrze\u017ce Szczeci\u0144skie - Stadion Narodowy","spot":"1","number":"9681","bikes":"21","bike_racks":"23","free_racks":"0","terminal_type":"7inch","bike_numbers":"24644,24515,28592,28274,27641,27480,27371,27272,26701,26653,26361,26155,26101,25894,25453,25339,25275,25233,29126,96025,96133","bike_types":{"4":20,"0":1},"place_type":"0","rack_locks":"1"},{"uid":"2586018","lat":"52.2387103","lng":"21.0507515","name":"Rondo Waszyngtona - Stadion Narodowy","spot":"1","number":"9682","bikes":"8","bike_racks":"27","free_racks":"11","terminal_type":"7inch","bike_numbers":"28286,27914,27395,26790,26672,25618,25293,96502","bike_types":{"4":8},"place_type":"0","rack_locks":"1"},{"uid":"2586019","lat":"52.242281006874","lng":"21.071160435677","name":"Waszyngtona - Kinowa","spot":"1","number":"9683","bikes":"18","bike_racks":"15","free_racks":"0","terminal_type":"7inch","bike_numbers":"24706,24640,28033,27604,27143,27130,26424,25838,25745,25694,25688,25457,25216,25186,29116,29027,96157,29174","bike_types":{"4":18},"place_type":"0","rack_locks":"1"},{"uid":"2586021","lat":"52.2445639","lng":"21.0838057","name":"Rondo Wiatraczna","spot":"1","number":"9684","bikes":"23","bike_racks":"30","free_racks":"7","terminal_type":"7inch","bike_numbers":"24668,24593,28304,27775,27276,27270,27222,27209,26839,26360,25607,25550,25438,25159,25095,25039,29213,96558,96514,96500,96271,96156,29149","bike_types":{"4":23},"place_type":"0","rack_locks":"1"},{"uid":"2586022","lat":"52.2347451","lng":"21.053651","name":"Francuska - Walecznych","spot":"1","number":"9685","bikes":"11","bike_racks":"15","free_racks":"4","terminal_type":"7inch","bike_numbers":"24908,24606,27561,26570,25976,25586,25523,25362,25160,29087,96117","bike_types":{"4":11},"place_type":"0","rack_locks":"1"},{"uid":"2586024","lat":"52.236598","lng":"21.064774","name":"Mi\u0119dzynarodowa - Walecznych","spot":"1","number":"9686","bikes":"4","bike_racks":"15","free_racks":"8","terminal_type":"7inch","bike_numbers":"27460,26387,25355,29119","bike_types":{"4":4},"place_type":"0","rack_locks":"1"},{"uid":"2586026","lat":"52.243020071904","lng":"21.102375984192","name":"Plac Szembeka","spot":"1","number":"9687","bikes":"11","bike_racks":"15","free_racks":"5","terminal_type":"7inch","bike_numbers":"24009,27883,26796,25458,25430,25338,29078,96543,96228,96203,29148","bike_types":{"26":1,"4":10},"place_type":"0","rack_locks":"1"},{"uid":"2586028","lat":"52.237559","lng":"21.120087","name":"P\u0119tla Goc\u0142awek","spot":"1","number":"9688","bikes":"9","bike_racks":"16","free_racks":"7","terminal_type":"7inch","bike_numbers":"28465,27709,27615,27164,27129,27088,26505,25874,29446","bike_types":{"4":9},"place_type":"0","rack_locks":"1"},{"uid":"2586030","lat":"52.2258359","lng":"21.0600907","name":"Brukselska - PROM","spot":"1","number":"9689","bikes":"10","bike_racks":"15","free_racks":"6","terminal_type":"7inch","bike_numbers":"28801,28116,27674,27533,27424,27248,26496,26124,25844,25524","bike_types":{"4":10},"place_type":"0","rack_locks":"1"},{"uid":"2586031","lat":"52.260205610017","lng":"21.046854257584","name":"al. Solidarno\u015bci - Szwedzka","spot":"1","number":"9690","bikes":"13","bike_racks":"18","free_racks":"4","terminal_type":"7inch","bike_numbers":"24975,24457,28378,28004,27024,26948,26780,26745,26354,25946,29436,25631,96003","bike_types":{"4":12,"51":1},"place_type":"0","rack_locks":"1"},{"uid":"2586032","lat":"52.230088","lng":"21.067948","name":"al. Stan\u00f3w Zjednoczonych - Mi\u0119dzynarodowa","spot":"1","number":"9691","bikes":"8","bike_racks":"26","free_racks":"18","terminal_type":"7inch","bike_numbers":"24665,28367,27044,25300,25119,29113,28976,96292","bike_types":{"4":8},"place_type":"0","rack_locks":"1"},{"uid":"2586034","lat":"52.23483","lng":"21.09975","name":"Ostrobramska - Zamieniecka","spot":"1","number":"9692","bikes":"21","bike_racks":"23","free_racks":"0","terminal_type":"7inch","bike_numbers":"24940,24731,24669,24545,24491,28352,27763,27422,27201,26906,26817,26520,26292,26122,25385,25368,25176,25110,96559,96437,96375","bike_types":{"4":20,"51":1},"place_type":"0","rack_locks":"1"},{"uid":"2586037","lat":"52.2251969","lng":"21.0712892","name":"Afryka\u0144ska - Egipska","spot":"1","number":"9693","bikes":"10","bike_racks":"16","free_racks":"7","terminal_type":"7inch","bike_numbers":"24004,28717,27382,26217,26067,26052,25956,25639,28914,96575","bike_types":{"26":1,"4":9},"place_type":"0","rack_locks":"1"},{"uid":"2586039","lat":"52.22837","lng":"21.08581","name":"Abrahama - Kapelan\u00f3w AK","spot":"1","number":"9694","bikes":"9","bike_racks":"15","free_racks":"6","terminal_type":"7inch","bike_numbers":"28773,28152,27145,27005,25513,25217,96565,96456,96291","bike_types":{"4":9},"place_type":"0","rack_locks":"1"},{"uid":"2586042","lat":"52.2296088","lng":"21.0945572","name":"Fieldorfa - Bukowskiego","spot":"1","number":"9695","bikes":"18","bike_racks":"20","free_racks":"2","terminal_type":"7inch","bike_numbers":"28636,28493,28290,28144,28118,28037,28032,27889,27713,27669,26898,26044,25495,25433,29103,28849,28845,96450","bike_types":{"4":18},"place_type":"0","rack_locks":"1"},{"uid":"2586044","lat":"52.22974","lng":"21.10624","name":"Rechniewskiego - Nowaka-Jeziora\u0144skiego","spot":"1","number":"9696","bikes":"17","bike_racks":"30","free_racks":"14","terminal_type":"7inch","bike_numbers":"24884,24793,28389,27464,27367,26013,25829,25722,25496,25332,25189,29038,29364,96377,96201,96108,29243","bike_types":{"4":17},"place_type":"0","rack_locks":"1"},{"uid":"2586045","lat":"52.2223071","lng":"21.0907259","name":"Meissnera - Fieldorfa","spot":"1","number":"9697","bikes":"17","bike_racks":"15","free_racks":"0","terminal_type":"7inch","bike_numbers":"24530,24517,28630,28418,28366,28106,27980,27542,27368,27099,26985,26355,26058,25640,25419,28970,63613","bike_types":{"4":17},"place_type":"0","rack_locks":"1"},{"uid":"2586268","lat":"52.23938046828","lng":"21.016716957092","name":"Krakowskie Przedmie\u015bcie - Traugutta 2","spot":"1","number":"94931","bikes":"12","bike_racks":"24","free_racks":"12","terminal_type":"7inch","bike_numbers":"24842,24839,24678,28364,28089,28038,26498,25790,25564,29079,60831,28852","bike_types":{"4":12},"place_type":"0","rack_locks":"1"},{"uid":"2586270","lat":"52.241814568386","lng":"21.024039387703","name":"Lipowa - Dobra 2","spot":"1","number":"94961","bikes":"11","bike_racks":"19","free_racks":"11","terminal_type":"7inch","bike_numbers":"24044,28653,28426,26918,26680,26382,25073,29057,96328,96293,29164","bike_types":{"26":1,"4":10},"place_type":"0","rack_locks":"1"},{"uid":"2586272","lat":"52.219916006513","lng":"21.011733412743","name":"Plac Politechniki 2","spot":"1","number":"95381","bikes":"20","bike_racks":"27","free_racks":"7","terminal_type":"7inch","bike_numbers":"24474,28196,27406,27179,27152,27072,26772,26478,25867,25644,25220,25113,29346,29114,29017,29455,28823,96355,96341,96302","bike_types":{"51":1,"4":19},"place_type":"0","rack_locks":"1"},{"uid":"2675985","lat":"52.21759","lng":"21.0096855","name":"Kaczy\u0144skiego - Rektorska","spot":"1","number":"9587","bikes":"16","bike_racks":"19","free_racks":"3","terminal_type":"7inch","bike_numbers":"24747,24619,24582,24492,28435,28317,28289,27232,27015,26866,26715,26465,26379,25452,25630,63627","bike_types":{"4":15,"51":1},"place_type":"0","rack_locks":"1"},{"uid":"2676298","lat":"52.255871","lng":"21.010043","name":"Veturilko - Sanguszki - Wybrze\u017ce Gda\u0144skie","spot":"1","number":"9716","bikes":"11","bike_racks":"14","free_racks":"4","terminal_type":"7inch","bike_numbers":"24377,24372,24367,24358,24264,24254,24395,24299,24292,24288,24282","bike_types":{"35":5,"34":6},"place_type":"11","rack_locks":"1"},{"uid":"2685255","lat":"52.278754","lng":"20.991692","name":"Veturilko - K\u0119pa Potocka","spot":"1","number":"9711","bikes":"10","bike_racks":"14","free_racks":"4","terminal_type":"7inch","bike_numbers":"24354,24280,24277,24269,24253,24387,24385,24400,24301,24290","bike_types":{"35":4,"34":6},"place_type":"11","rack_locks":"1"},{"uid":"2685262","lat":"52.2918548","lng":"21.0354469","name":"Veturilko - Park Br\u00f3dnowski","spot":"1","number":"9712","bikes":"10","bike_racks":"14","free_racks":"5","terminal_type":"7inch","bike_numbers":"24359,24355,24275,24268,24257,24389,24388,24386,24382,24283","bike_types":{"35":6,"34":4},"place_type":"11","rack_locks":"1"},{"uid":"2685263","lat":"52.252572","lng":"21.02896","name":"Veturilko - Park Praski","spot":"1","number":"9713","bikes":"12","bike_racks":"14","free_racks":"3","terminal_type":"7inch","bike_numbers":"24378,24369,24351,24258,24390,24381,24399,24396,24296,24295,24287,24285","bike_types":{"35":7,"34":5},"place_type":"11","rack_locks":"1"},