[{"region_info":{"lat":"52.2345","lng":"21.0024","zoom":"11","name":"VETURILO Poland","hotline":"+4819115","domain":"vp","country":"PL","country_name":"Poland","terms":"http:\/\/www.veturilo.waw.pl\/terms\/?v=201701","policy":"","website":"http:\/\/www.veturilo.waw.pl\/","show_free_racks":"1","booked_bikes":"0","set_point_bikes":"5277","available_bikes":"4610"},"places_summary":{"lngMin":20.8689688,"lngMax":21.120087,"latMin":52.117285,"latMax":52.3485329,"lngAvg":21.00781180628,"latAvg":52.230676799541},"places":[{"uid":"2585259","lat":"52.296298","lng":"20.9583575","name":"Dewajtis - UKSW","spot":"1","number":"9402","bikes":"27","bike_racks":"30","free_racks":"11","terminal_type":"7inch","bike_numbers":"24931,24846,24682,24608,24574,28442,28271,27929,27631,26991,26968,26860,26786,26774,25956,25734,25472,25461,25433,25407,25394,28958,96374,96164,96136,96112,29188","bike_types":{"4":27},"place_type":"0","rack_locks":"1"},{"uid":"2585263","lat":"52.2909738","lng":"20.9295559","name":"Metro M\u0142ociny","spot":"1","number":"9403","bikes":"21","bike_racks":"30","free_racks":"8","terminal_type":"7inch","bike_numbers":"24714,24680,24529,28707,28682,28612,28526,27966,27844,27784,26696,26477,26330,26076,25914,25607,25599,29072,29061,28878,96391","bike_types":{"4":21},"place_type":"0","rack_locks":"1"},{"uid":"2585265","lat":"52.2901732","lng":"20.9503698","name":"Marymoncka - Dewajtis","spot":"1","number":"9404","bikes":"14","bike_racks":"30","free_racks":"16","terminal_type":"7inch","bike_numbers":"28768,28370,27540,27217,26798,26338,26294,25147,25044,29343,29010,29428,96379,96249","bike_types":{"4":14},"place_type":"0","rack_locks":"1"},{"uid":"2585267","lat":"52.285914","lng":"20.940561","name":"Metro Wawrzyszew","spot":"1","number":"9405","bikes":"8","bike_racks":"20","free_racks":"12","terminal_type":"7inch","bike_numbers":"24847,24004,28280,26632,26555,25544,29025,29011","bike_types":{"4":7,"26":1},"place_type":"0","rack_locks":"1"},{"uid":"2585269","lat":"52.2336142","lng":"21.0146353","name":"G\u00f3rskiego - Szpitalna","spot":"1","number":"9406","bikes":"10","bike_racks":"16","free_racks":"6","terminal_type":"7inch","bike_numbers":"24671,28683,28117,28031,27795,27463,26016,25410,29436,96156","bike_types":{"4":10},"place_type":"0","rack_locks":"1"},{"uid":"2585271","lat":"52.2816265","lng":"20.9498871","name":"Metro Stare Bielany","spot":"1","number":"9407","bikes":"17","bike_racks":"30","free_racks":"13","terminal_type":"7inch","bike_numbers":"24956,24824,28217,27887,27534,27254,27214,27196,26363,26290,26127,26044,25949,25463,25235,28959,29364","bike_types":{"4":17},"place_type":"0","rack_locks":"1"},{"uid":"2585272","lat":"52.2361217","lng":"21.0219096","name":"Ordynacka - Uniwersytet Muzyczny","spot":"1","number":"9408","bikes":"13","bike_racks":"20","free_racks":"6","terminal_type":"7inch","bike_numbers":"24525,27667,27006,26944,26912,26660,26208,26017,25974,25911,25533,28843,96109","bike_types":{"4":13},"place_type":"0","rack_locks":"1"},{"uid":"2585273","lat":"52.2768774","lng":"20.9481302","name":"Bielany-Ratusz","spot":"1","number":"9409","bikes":"18","bike_racks":"28","free_racks":"10","terminal_type":"7inch","bike_numbers":"24926,24875,24843,28743,28503,27480,27191,26717,26539,26100,25358,29066,29036,29007,29647,96047,96227,96170","bike_types":{"4":18},"place_type":"0","rack_locks":"1"},{"uid":"2585275","lat":"52.2761569","lng":"20.9616673","name":"Metro S\u0142odowiec","spot":"1","number":"9410","bikes":"8","bike_racks":"30","free_racks":"21","terminal_type":"7inch","bike_numbers":"27801,27097,26963,26278,25972,29101,63608,29263","bike_types":{"4":8},"place_type":"0","rack_locks":"1"},{"uid":"2585278","lat":"52.2777751","lng":"20.9856999","name":"Potocka - OSiR \u017boliborz","spot":"1","number":"9411","bikes":"19","bike_racks":"15","free_racks":"0","terminal_type":"7inch","bike_numbers":"24952,24523,28801,28715,28478,27980,27143,27072,26972,26888,26841,26463,26432,26192,25988,25796,29360,96032,96390","bike_types":{"4":19},"place_type":"0","rack_locks":"1"},{"uid":"2585280","lat":"52.273527782989","lng":"20.994186401367","name":"Gwia\u017adzista - Promyka","spot":"1","number":"9412","bikes":"13","bike_racks":"16","free_racks":"5","terminal_type":"7inch","bike_numbers":"24746,24549,28774,27678,27573,27359,27078,26834,26197,25916,25887,29649,96154","bike_types":{"4":13},"place_type":"0","rack_locks":"1"},{"uid":"2585281","lat":"52.270941","lng":"20.9326269","name":"al. Reymonta - Conrada","spot":"1","number":"9413","bikes":"34","bike_racks":"30","free_racks":"2","terminal_type":"7inch","bike_numbers":"24930,24806,24724,24695,28601,28191,28133,27955,27849,27686,27683,27346,27338,27273,26508,26506,26361,26199,26090,25869,25830,25306,25252,25178,25142,25052,29060,25961,28777,96518,96511,96376,96305,96298","bike_types":{"4":34},"place_type":"0","rack_locks":"1"},{"uid":"2585283","lat":"52.2706441","lng":"20.9504181","name":"Broniewskiego - Perzy\u0144skiego","spot":"1","number":"9414","bikes":"8","bike_racks":"16","free_racks":"8","terminal_type":"7inch","bike_numbers":"24730,24557,26135,25322,25253,29102,28936,96522","bike_types":{"4":8},"place_type":"0","rack_locks":"1"},{"uid":"2585284","lat":"52.2714203","lng":"20.9727099","name":"Metro Marymont","spot":"1","number":"9415","bikes":"25","bike_racks":"30","free_racks":"3","terminal_type":"7inch","bike_numbers":"24891,24854,24687,24643,24628,24538,28821,28600,28401,27824,27810,27768,27656,26620,26225,25738,25726,25520,25073,29090,96546,96418,96093,29173,29282","bike_types":{"4":25},"place_type":"0","rack_locks":"1"},{"uid":"2585285","lat":"52.2694081","lng":"20.9833664","name":"Metro Plac Wilsona","spot":"1","number":"9416","bikes":"16","bike_racks":"21","free_racks":"4","terminal_type":"7inch","bike_numbers":"24911,28763,28633,28412,28190,27744,27250,27160,27086,26887,25676,25660,29012,96505,96496,96293","bike_types":{"4":16},"place_type":"0","rack_locks":"1"},{"uid":"2585286","lat":"52.2668623","lng":"20.9637032","name":"Broniewskiego - W\u0142o\u015bcia\u0144ska","spot":"1","number":"9417","bikes":"3","bike_racks":"19","free_racks":"17","terminal_type":"7inch","bike_numbers":"27550,27104,96160","bike_types":{"4":3},"place_type":"0","rack_locks":"1"},{"uid":"2585288","lat":"52.2643984","lng":"20.9723179","name":"Broniewskiego - Krasi\u0144skiego","spot":"1","number":"9418","bikes":"7","bike_racks":"16","free_racks":"9","maintenance":"1","terminal_type":"7inch","bike_numbers":"24740,24558,28822,28213,27396,25413,25272","bike_types":{"4":7},"place_type":"0","rack_locks":"1"},{"uid":"2585289","lat":"52.267875","lng":"21.0020667","name":"Wybrze\u017ce Gdy\u0144skie - KS Sp\u00f3jnia","spot":"1","number":"9419","bikes":"9","bike_racks":"15","free_racks":"5","terminal_type":"7inch","bike_numbers":"28533,28318,27673,26967,26846,25230,25012,29088,29065","bike_types":{"4":9},"place_type":"0","rack_locks":"1"},{"uid":"2585291","lat":"52.2624054","lng":"20.9802551","name":"Plac Grunwaldzki","spot":"1","number":"9420","bikes":"28","bike_racks":"30","free_racks":"6","terminal_type":"7inch","bike_numbers":"24826,24621,28718,28712,28584,28408,28342,27949,27509,27380,26976,26946,26923,26563,26451,26343,26291,26083,25864,25217,25176,25080,29352,28919,29128,96393,96244,96131","bike_types":{"4":27,"0":1},"place_type":"0","rack_locks":"1"},{"uid":"2585296","lat":"52.2612575","lng":"20.9863191","name":"Zaj\u0105czka - Bitwy Pod Rokitn\u0105","spot":"1","number":"9421","bikes":"7","bike_racks":"15","free_racks":"8","terminal_type":"7inch","bike_numbers":"24758,28481,28021,26796,96275,96264,96225","bike_types":{"4":7},"place_type":"0","rack_locks":"1"},{"uid":"2585297","lat":"52.2645018","lng":"20.9895998","name":"Plac Inwalid\u00f3w","spot":"1","number":"9422","bikes":"4","bike_racks":"15","free_racks":"11","terminal_type":"7inch","bike_numbers":"27187,26971,26610,96370","bike_types":{"4":4},"place_type":"0","rack_locks":"1"},{"uid":"2585299","lat":"52.258245356688","lng":"20.898613929749","name":"P\u0119tla Stare Bemowo","spot":"1","number":"9423","bikes":"8","bike_racks":"21","free_racks":"12","terminal_type":"7inch","bike_numbers":"24764,28462,28072,27531,26380,25724,29068,96269","bike_types":{"4":8},"place_type":"0","rack_locks":"1"},{"uid":"2585301","lat":"52.260895125763","lng":"20.923923254013","name":"P\u0119tla Nowe Bemowo","spot":"1","number":"9424","bikes":"19","bike_racks":"25","free_racks":"6","terminal_type":"7inch","bike_numbers":"24790,24559,28514,28071,27771,27690,27154,26773,25633,25220,29107,96375,96367,96321,96314,96285,96279,96233,96206","bike_types":{"4":19},"place_type":"0","rack_locks":"1"},{"uid":"2585304","lat":"52.2575903","lng":"20.9323374","name":"Obro\u0144c\u00f3w Tobruku - Pieni\u0105\u017cka","spot":"1","number":"9425","bikes":"8","bike_racks":"12","free_racks":"5","terminal_type":"7inch","bike_numbers":"24906,28727,28694,28316,26608,26394,25404,28824","bike_types":{"4":8},"place_type":"0","rack_locks":"1"},{"uid":"2585305","lat":"52.2593225","lng":"20.9605511","name":"Pow\u0105zkowska - Krasi\u0144skiego","spot":"1","number":"9426","bikes":"24","bike_racks":"23","free_racks":"0","terminal_type":"7inch","bike_numbers":"24924,24898,28655,28483,28210,28054,27967,27459,26853,26377,26279,26223,26098,25878,25866,25278,25237,25137,29039,29654,96021,96506,29191,24050","bike_types":{"4":23,"26":1},"place_type":"0","rack_locks":"1"},{"uid":"2585306","lat":"52.2563145","lng":"20.9682307","name":"Pow\u0105zkowska - Plac Niemena","spot":"1","number":"9427","bikes":"9","bike_racks":"16","free_racks":"11","terminal_type":"7inch","bike_numbers":"24857,24681,24662,28438,27993,27860,27252,26739,26406","bike_types":{"4":9},"place_type":"0","rack_locks":"1"},{"uid":"2585307","lat":"52.258524460024","lng":"20.970931649208","name":"Przasnyska - Rydygiera","spot":"1","number":"9428","bikes":"16","bike_racks":"15","free_racks":"0","terminal_type":"7inch","bike_numbers":"24684,24530,24015,28589,28138,27995,27286,26868,26497,26140,25798,25642,25280,25013,96196,96591","bike_types":{"4":15,"26":1},"place_type":"0","rack_locks":"1"},{"uid":"2585308","lat":"52.253594","lng":"20.9798744","name":"Pow\u0105zkowska - Burakowska","spot":"1","number":"9429","bikes":"14","bike_racks":"20","free_racks":"6","terminal_type":"7inch","bike_numbers":"24917,24798,24564,28367,27597,27022,26932,26047,25853,25364,25074,96044,96004,96530","bike_types":{"4":14},"place_type":"0","rack_locks":"1"},{"uid":"2585311","lat":"52.2576018","lng":"20.9944975","name":"Metro Dworzec Gda\u0144ski","spot":"1","number":"9430","bikes":"6","bike_racks":"30","free_racks":"22","terminal_type":"7inch","bike_numbers":"27924,27506,27470,26117,29054,96499","bike_types":{"4":6},"place_type":"0","rack_locks":"1"},{"uid":"2585315","lat":"52.2465952","lng":"20.9429216","name":"Obozowa - Cio\u0142ka","spot":"1","number":"9432","bikes":"12","bike_racks":"13","free_racks":"3","terminal_type":"7inch","bike_numbers":"24028,28047,27854,27042,26997,25201,28948,29659,29144,28871,96219,29220","bike_types":{"26":1,"4":10,"0":1},"place_type":"0","rack_locks":"1"},{"uid":"2585317","lat":"52.227621983552","lng":"20.956758856773","name":"al. Prymasa Tysi\u0105clecia - Kasprzaka","spot":"1","number":"9433","bikes":"8","bike_racks":"23","free_racks":"15","terminal_type":"7inch","bike_numbers":"28516,27626,26938,26871,26393,25947,25349,96217","bike_types":{"4":8},"place_type":"0","rack_locks":"1"},{"uid":"2585319","lat":"52.246037","lng":"20.962463","name":"Obozowa - Radziwie","spot":"1","number":"9434","bikes":"13","bike_racks":"13","free_racks":"3","terminal_type":"7inch","bike_numbers":"24482,28098,28018,27236,27046,26705,26533,25890,25697,29023,28806,96222,29204","bike_types":{"51":1,"4":12},"place_type":"0","rack_locks":"1"},{"uid":"2585321","lat":"52.2514708","lng":"20.9857053","name":"al. Jana Paw\u0142a II - Stawki","spot":"1","number":"9435","bikes":"16","bike_racks":"23","free_racks":"6","terminal_type":"7inch","bike_numbers":"28885,28820,28574,27542,27515,27499,27192,26925,26187,26062,26052,25732,25565,25258,96411,96307","bike_types":{"4":16},"place_type":"0","rack_locks":"1"},{"uid":"2585323","lat":"52.2535305","lng":"20.9924922","name":"Stawki - Dubois","spot":"1","number":"9436","bikes":"1","bike_racks":"13","free_racks":"10","terminal_type":"7inch","bike_numbers":"24026","bike_types":{"26":1},"place_type":"0","rack_locks":"1"},{"uid":"2585326","lat":"52.2541702","lng":"20.9980649","name":"Andersa - Muranowska","spot":"1","number":"9437","bikes":"19","bike_racks":"30","free_racks":"11","terminal_type":"7inch","bike_numbers":"24592,24522,28259,27898,27893,27092,27037,26896,26880,26651,26590,25984,25937,25762,25188,29117,96488,96395,96229","bike_types":{"4":19},"place_type":"0","rack_locks":"1"},{"uid":"2585327","lat":"52.255877","lng":"21.0099819","name":"Sanguszki - Wybrze\u017ce Gda\u0144skie","spot":"1","number":"9438","bikes":"31","bike_racks":"28","free_racks":"2","terminal_type":"7inch","bike_numbers":"24944,24932,24848,28602,28527,28055,27922,27920,27827,27425,27343,26961,26785,26686,26455,26284,26011,25993,25950,25719,25713,25530,25477,25447,25118,29362,29449,28896,28973,28961,29267","bike_types":{"4":31},"place_type":"0","rack_locks":"1"},{"uid":"2585328","lat":"52.252175","lng":"20.923692","name":"Wroc\u0142awska \u2013 Bailly","spot":"1","number":"9439","bikes":"9","bike_racks":"27","free_racks":"18","terminal_type":"7inch","bike_numbers":"28638,27638,26265,26217,26123,25128,29111,28965,96031","bike_types":{"4":9},"place_type":"0","rack_locks":"1"},{"uid":"2585330","lat":"52.24418","lng":"20.97794","name":"Okopowa - Anielewicza","spot":"1","number":"9440","bikes":"2","bike_racks":"20","free_racks":"17","terminal_type":"7inch","bike_numbers":"26004,28850","bike_types":{"4":2},"place_type":"0","rack_locks":"1"},{"uid":"2585333","lat":"52.2486","lng":"20.98352","name":"Smocza - Mi\u0142a","spot":"1","number":"9441","bikes":"3","bike_racks":"15","free_racks":"13","terminal_type":"7inch","bike_numbers":"24978,26767,25930","bike_types":{"4":3},"place_type":"0","rack_locks":"1"},{"uid":"2585334","lat":"52.24616","lng":"20.98538","name":"Smocza - Anielewicza","spot":"1","number":"9442","bikes":"7","bike_racks":"17","free_racks":"10","terminal_type":"7inch","bike_numbers":"24659,24520,27900,27389,26420,26002,96239","bike_types":{"4":7},"place_type":"0","rack_locks":"1"},{"uid":"2585335","lat":"52.247226","lng":"20.9893155","name":"al. Jana Paw\u0142a II - Anielewicza","spot":"1","number":"9443","bikes":"12","bike_racks":"22","free_racks":"10","terminal_type":"7inch","bike_numbers":"24873,24737,24670,27975,27803,27253,27195,26611,26540,25986,25077,28832","bike_types":{"4":12},"place_type":"0","rack_locks":"1"},{"uid":"2585337","lat":"52.249052","lng":"20.9948923","name":"Anielewicza - Zamenhofa","spot":"1","number":"9444","bikes":"7","bike_racks":"15","free_racks":"8","terminal_type":"7inch","bike_numbers":"24652,28903,28635,25316,96438,96412,29250","bike_types":{"4":7},"place_type":"0","rack_locks":"1"},{"uid":"2585338","lat":"52.2492196","lng":"20.9971878","name":"Anielewicza - Andersa","spot":"1","number":"9445","bikes":"3","bike_racks":"18","free_racks":"15","terminal_type":"7inch","bike_numbers":"26811,25432,96152","bike_types":{"4":3},"place_type":"0","rack_locks":"1"},{"uid":"2585340","lat":"52.251549","lng":"21.002749","name":"Bonifraterska - Franciszka\u0144ska","spot":"1","number":"9446","bikes":"10","bike_racks":"16","free_racks":"5","terminal_type":"7inch","bike_numbers":"28899,28116,27502,26737,26701,26240,25924,25723,25572,25309","bike_types":{"4":10},"place_type":"0","rack_locks":"1"},{"uid":"2585342","lat":"52.2541119","lng":"21.0093342","name":"Ko\u015bcielna - Piesza","spot":"1","number":"9448","bikes":"10","bike_racks":"26","free_racks":"16","terminal_type":"7inch","bike_numbers":"28648,28265,28028,27029,26974,26745,26354,26153,25207,96169","bike_types":{"4":10},"place_type":"0","rack_locks":"1"},{"uid":"2585344","lat":"52.2392622","lng":"20.8987641","name":"P\u0119tla Os. G\u00f3rczewska","spot":"1","number":"9449","bikes":"25","bike_racks":"15","free_racks":"0","terminal_type":"7inch","bike_numbers":"24631,24619,28559,28192,27892,27710,27497,26955,26794,26553,25889,25831,25694,25661,25566,25538,25485,25216,25184,28992,28989,96384,96145,96102,29238","bike_types":{"4":25},"place_type":"0","rack_locks":"1"},{"uid":"2585345","lat":"52.2389287","lng":"20.9139535","name":"Bemowo-Ratusz","spot":"1","number":"9450","bikes":"10","bike_racks":"20","free_racks":"10","terminal_type":"7inch","bike_numbers":"25005,28325,27756,27028,26778,25612,25158,28924,96460,96439","bike_types":{"4":10},"place_type":"0","rack_locks":"1"},{"uid":"2585346","lat":"52.2387861","lng":"20.9424946","name":"Okocimska - Olbrachta","spot":"1","number":"9451","bikes":"8","bike_racks":"18","free_racks":"10","terminal_type":"7inch","bike_numbers":"24777,24507,25004,27806,25156,28988,96422,29211","bike_types":{"4":8},"place_type":"0","rack_locks":"1"},{"uid":"2585349","lat":"52.2506241","lng":"21.0533611","name":"Dworzec Wschodni - Lubelska","spot":"1","number":"9452","bikes":"10","bike_racks":"15","free_racks":"3","terminal_type":"7inch","bike_numbers":"24997,28603,28100,27440,26862,26276,25873,25134,25032,96571","bike_types":{"4":10},"place_type":"0","rack_locks":"1"},{"uid":"2585351","lat":"52.2369249","lng":"20.9723559","name":"Leszno - M\u0142ynarska","spot":"1","number":"9453","bikes":"12","bike_racks":"30","free_racks":"19","terminal_type":"7inch","bike_numbers":"24023,28147,27963,27957,27797,27145,26676,26136,25885,25332,96114,29212","bike_types":{"26":1,"4":11},"place_type":"0","rack_locks":"1"},{"uid":"2585352","lat":"52.2430451","lng":"20.9803864","name":"Dzielna - Bellottiego","spot":"1","number":"9454","bikes":"8","bike_racks":"13","free_racks":"6","terminal_type":"7inch","bike_numbers":"24966,28052,27387,26730,26026,25753,29103,96056","bike_types":{"4":8},"place_type":"0","rack_locks":"1"},{"uid":"2585353","lat":"52.24108","lng":"20.98316","name":"Wolno\u015b\u0107 - Bellottiego","spot":"1","number":"9455","bikes":"7","bike_racks":"16","free_racks":"11","terminal_type":"7inch","bike_numbers":"24688,28487,27720,27247,25605,29455,96415","bike_types":{"4":7},"place_type":"0","rack_locks":"1"},{"uid":"2585354","lat":"52.2435448","lng":"20.9873507","name":"Smocza - Nowolipki","spot":"1","number":"9456","bikes":"13","bike_racks":"16","free_racks":"3","terminal_type":"7inch","bike_numbers":"24881,24683,24571,28817,28290,27983,27371,26958,26839,25727,25330,29190,29156","bike_types":{"4":13},"place_type":"0","rack_locks":"1"},{"uid":"2585356","lat":"52.2445767","lng":"20.99177","name":"al. Jana Paw\u0142a II - Nowolipki","spot":"1","number":"9457","bikes":"4","bike_racks":"16","free_racks":"11","terminal_type":"7inch","bike_numbers":"24927,28525,27907,25641","bike_types":{"4":4},"place_type":"0","rack_locks":"1"},{"uid":"2585358","lat":"52.22868","lng":"20.91509","name":"Powsta\u0144c\u00f3w \u015al\u0105skich - Cz\u0142uchowska","spot":"1","number":"9458","bikes":"15","bike_racks":"16","free_racks":"5","terminal_type":"7inch","bike_numbers":"24742,24540,24453,28664,28263,27548,26452,26270,25640,25113,29657,24555,96215,96192,29185","bike_types":{"4":14,"51":1},"place_type":"0","rack_locks":"1"},{"uid":"2585360","lat":"52.2342032","lng":"20.934689","name":"Jana Olbrachta - Antka Rozpylacza","spot":"1","number":"9459","bikes":"6","bike_racks":"13","free_racks":"7","terminal_type":"7inch","bike_numbers":"24625,28677,27945,27099,25671,25590","bike_types":{"4":6},"place_type":"0","rack_locks":"1"},{"uid":"2585364","lat":"52.2401623","lng":"20.9877277","name":"Wola-Ratusz","spot":"1","number":"9460","bikes":"0","bike_racks":"15","free_racks":"14","terminal_type":"7inch","place_type":"0","rack_locks":"1","bike_numbers":null,"bike_types":[]},{"uid":"2585368","lat":"52.2445326","lng":"20.99998","name":"Plac Bankowy - Kino Muran\u00f3w","spot":"1","number":"9462","bikes":"15","bike_racks":"17","free_racks":"2","terminal_type":"7inch","bike_numbers":"24553,24506,27908,27696,27566,26890,25619,25440,25363,25024,25629,96544,96389,96252,96168","bike_types":{"4":15},"place_type":"0","rack_locks":"1"},{"uid":"2585369","lat":"52.2449465","lng":"21.0012943","name":"Andersa - D\u0142uga","spot":"1","number":"9463","bikes":"18","bike_racks":"30","free_racks":"11","terminal_type":"7inch","bike_numbers":"24633,25000,28904,28150,27687,27406,27034,26960,26863,26256,26057,25295,28960,25631,28809,28978,96317,29192","bike_types":{"4":18},"place_type":"0","rack_locks":"1"},{"uid":"2585370","lat":"52.2442666","lng":"21.0015893","name":"Marsza\u0142kowska - al. Solidarno\u015bci","spot":"1","number":"9464","bikes":"8","bike_racks":"30","free_racks":"22","terminal_type":"7inch","bike_numbers":"28276,27814,26921,26823,26081,26061,25471,96113","bike_types":{"4":8},"place_type":"0","rack_locks":"1"},{"uid":"2585371","lat":"52.2431975","lng":"21.0016603","name":"Plac Bankowy - Ratusz","spot":"1","number":"9465","bikes":"7","bike_racks":"30","free_racks":"21","terminal_type":"7inch","bike_numbers":"28364,28132,27083,26086,25279,25155,25124","bike_types":{"4":7},"place_type":"0","rack_locks":"1"},{"uid":"2585373","lat":"52.2435719","lng":"21.0066801","name":"Senatorska - Biela\u0144ska","spot":"1","number":"9466","bikes":"12","bike_racks":"17","free_racks":"5","terminal_type":"7inch","bike_numbers":"24920,28347,27965,27045,26936,26326,26079,25449,25378,28979,96475,96179","bike_types":{"4":12},"place_type":"0","rack_locks":"1"},{"uid":"2585377","lat":"52.246314509834","lng":"21.0113042593","name":"Miodowa","spot":"1","number":"9467","bikes":"14","bike_racks":"24","free_racks":"14","terminal_type":"7inch","bike_numbers":"24908,24755,28414,27700,26743,26735,26592,26184,26177,25960,25183,28877,96165,29276","bike_types":{"4":14},"place_type":"0","rack_locks":"1"},{"uid":"2585378","lat":"52.2435965","lng":"21.0140803","name":"Krakowskie Przedmie\u015bcie - Tr\u0119backa","spot":"1","number":"9468","bikes":"6","bike_racks":"14","free_racks":"9","terminal_type":"7inch","bike_numbers":"27737,27367,27351,26438,26108,26037","bike_types":{"4":6},"place_type":"0","rack_locks":"1"},{"uid":"2585379","lat":"52.2465625","lng":"21.0174345","name":"Mariensztat","spot":"1","number":"9469","bikes":"13","bike_racks":"15","free_racks":"2","terminal_type":"7inch","bike_numbers":"24036,28886,28708,27843,26895,26704,26313,25784,25371,29374,96019,96564,29224","bike_types":{"54":1,"4":12},"place_type":"0","rack_locks":"1"},{"uid":"2585381","lat":"52.224934","lng":"20.945489","name":"Jana Kazimierza - Giz\u00f3w","spot":"1","number":"9471","bikes":"7","bike_racks":"13","free_racks":"5","terminal_type":"7inch","bike_numbers":"24707,28272,26401,25976,25854,25223,28949","bike_types":{"4":7},"place_type":"0","rack_locks":"1"},{"uid":"2585385","lat":"52.2299137","lng":"20.9508179","name":"Wolska - Elekcyjna","spot":"1","number":"9472","bikes":"6","bike_racks":"20","free_racks":"13","terminal_type":"7inch","bike_numbers":"27774,26381,25397,28934,29138,96503","bike_types":{"4":5,"0":1},"place_type":"0","rack_locks":"1"},{"uid":"2585387","lat":"52.237662392829","lng":"20.955492854118","name":"al. Prymasa Tysi\u0105clecia - G\u00f3rczewska","spot":"1","number":"9473","bikes":"17","bike_racks":"20","free_racks":"3","terminal_type":"7inch","bike_numbers":"28400,28320,27050,26953,26780,26292,25970,25939,25621,25522,25484,25311,25019,29017,28831,96016,29270","bike_types":{"4":17},"place_type":"0","rack_locks":"1"},{"uid":"2585389","lat":"52.2333374","lng":"20.9652776","name":"Wolska - P\u0142ocka","spot":"1","number":"9474","bikes":"13","bike_racks":"15","free_racks":"6","terminal_type":"7inch","bike_numbers":"24782,24694,28644,28531,27455,27179,27027,26740,25717,25499,25189,29087,29195","bike_types":{"4":13},"place_type":"0","rack_locks":"1"},{"uid":"2585391","lat":"52.228522296173","lng":"20.969638824463","name":"Kasprzaka - Skierniewicka","spot":"1","number":"9475","bikes":"0","bike_racks":"21","free_racks":"21","terminal_type":"7inch","place_type":"0","rack_locks":"1","bike_numbers":null,"bike_types":[]},{"uid":"2585394","lat":"52.22898","lng":"20.97843","name":"Kasprzaka - Karolkowa","spot":"1","number":"9476","bikes":"11","bike_racks":"15","free_racks":"3","terminal_type":"7inch","bike_numbers":"24666,28717,28444,28049,26603,26428,26317,26046,29387,96440,96259","bike_types":{"4":11},"place_type":"0","rack_locks":"1"},{"uid":"2585396","lat":"52.2328752","lng":"20.9805411","name":"Muzeum Powstania Warszawskiego","spot":"1","number":"9477","bikes":"8","bike_racks":"10","free_racks":"3","terminal_type":"7inch","bike_numbers":"24976,28697,28453,27930,27526,26965,26372,25778","bike_types":{"4":8},"place_type":"0","rack_locks":"1"},{"uid":"2585398","lat":"52.22983","lng":"20.983123","name":"Metro Rondo Daszy\u0144skiego","spot":"1","number":"9478","bikes":"9","bike_racks":"26","free_racks":"16","terminal_type":"7inch","bike_numbers":"27224,26750,25494,25372,25021,96397,96347,96331,96310","bike_types":{"4":9},"place_type":"0","rack_locks":"1"},{"uid":"2585400","lat":"52.23145","lng":"20.98869","name":"Prosta - Wronia","spot":"1","number":"9479","bikes":"20","bike_racks":"15","free_racks":"0","terminal_type":"7inch","bike_numbers":"24599,24562,27889,27677,27447,27090,27012,26646,26633,26203,26054,25859,25548,25488,29116,28910,29372,96535,96371,96191","bike_types":{"4":20},"place_type":"0","rack_locks":"1"},{"uid":"2585401","lat":"52.2373141","lng":"20.9888488","name":"\u017belazna - Ch\u0142odna","spot":"1","number":"9480","bikes":"6","bike_racks":"15","free_racks":"10","terminal_type":"7inch","bike_numbers":"28728,27796,27073,26095,25023,96572","bike_types":{"4":6},"place_type":"0","rack_locks":"1"},{"uid":"2585402","lat":"52.2344946","lng":"20.9905117","name":"\u017belazna - Grzybowska","spot":"1","number":"9481","bikes":"2","bike_racks":"20","free_racks":"18","terminal_type":"7inch","bike_numbers":"25967,29086","bike_types":{"4":2},"place_type":"0","rack_locks":"1"},{"uid":"2585405","lat":"52.238666","lng":"20.9957314","name":"al. Jana Paw\u0142a II - Plac Mirowski","spot":"1","number":"9482","bikes":"2","bike_racks":"16","free_racks":"15","terminal_type":"7inch","bike_numbers":"27885,29151","bike_types":{"4":2},"place_type":"0","rack_locks":"1"},{"uid":"2585406","lat":"52.2357151","lng":"20.9966071","name":"al. Jana Paw\u0142a II - Grzybowska","spot":"1","number":"9483","bikes":"4","bike_racks":"23","free_racks":"19","terminal_type":"7inch","bike_numbers":"27016,26178,25725,96461","bike_types":{"4":4},"place_type":"0","rack_locks":"1"},{"uid":"2585410","lat":"52.23958","lng":"21.00027","name":"Ptasia - Zimna","spot":"1","number":"9485","bikes":"7","bike_racks":"16","free_racks":"8","terminal_type":"7inch","bike_numbers":"24805,28060,26913,26200,25132,96456,96090","bike_types":{"4":7},"place_type":"0","rack_locks":"1"},{"uid":"2585412","lat":"52.2336314","lng":"21.0028795","name":"Emilii Plater - \u015awi\u0119tokrzyska","spot":"1","number":"9486","bikes":"25","bike_racks":"26","free_racks":"0","terminal_type":"7inch","bike_numbers":"24903,28608,28539,28488,28473,28359,28079,27652,27435,27266,26983,26964,26301,25669,25294,25098,29077,29656,28868,96551,96419,96283,96158,29165,24048","bike_types":{"4":24,"26":1},"place_type":"0","rack_locks":"1"},{"uid":"2585413","lat":"52.2358704","lng":"21.0037806","name":"Plac Grzybowski","spot":"1","number":"9487","bikes":"8","bike_racks":"26","free_racks":"18","terminal_type":"7inch","bike_numbers":"24970,24949,27222,25114,29339,28835,96462,96139","bike_types":{"4":8},"place_type":"0","rack_locks":"1"},{"uid":"2585416","lat":"52.2384853","lng":"21.0067552","name":"Marsza\u0142kowska - Kr\u00f3lewska","spot":"1","number":"9488","bikes":"8","bike_racks":"19","free_racks":"11","terminal_type":"7inch","bike_numbers":"24739,27782,27423,27235,26614,26089,25554,96500","bike_types":{"4":8},"place_type":"0","rack_locks":"1"},{"uid":"2585417","lat":"52.2364206","lng":"21.0072407","name":"Marsza\u0142kowska - Zielna","spot":"1","number":"9489","bikes":"14","bike_racks":"30","free_racks":"15","terminal_type":"7inch","bike_numbers":"24771,24509,24043,24006,28330,27615,27610,27486,26319,26205,25097,25016,29014,29121","bike_types":{"4":11,"26":2,"0":1},"place_type":"0","rack_locks":"1"},{"uid":"2585420","lat":"52.2397008","lng":"21.0119292","name":"Plac Ma\u0142achowskiego","spot":"1","number":"9491","bikes":"14","bike_racks":"16","free_racks":"2","terminal_type":"7inch","bike_numbers":"27763,27669,26929,26346,25704,25683,25504,25462,25434,25340,25064,28964,96290,29168","bike_types":{"4":14},"place_type":"0","rack_locks":"1"},{"uid":"2585422","lat":"52.2359114","lng":"21.0135654","name":"Plac Powsta\u0144c\u00f3w Warszawy","spot":"1","number":"9492","bikes":"16","bike_racks":"20","free_racks":"4","terminal_type":"7inch","bike_numbers":"24570,24501,28710,28307,27875,27823,27240,27025,26879,26287,25609,25460,25317,25219,29180,29275","bike_types":{"4":16},"place_type":"0","rack_locks":"1"},{"uid":"2585423","lat":"52.2393559","lng":"21.016603","name":"Krakowskie Przedmie\u015bcie - Traugutta","spot":"1","number":"9493","bikes":"25","bike_racks":"24","free_racks":"11","terminal_type":"7inch","bike_numbers":"24965,24580,28721,28654,28535,28504,28154,28149,27565,27557,27431,27428,27395,27211,26762,26526,26407,26362,26128,26112,29427,28985,29186,29149,29231","bike_types":{"4":25},"place_type":"0","rack_locks":"1"},{"uid":"2585429","lat":"52.238298","lng":"21.0184014","name":"Obo\u017ana - Kopernika","spot":"1","number":"9495","bikes":"9","bike_racks":"22","free_racks":"13","terminal_type":"7inch","bike_numbers":"28108,27729,26170,25923,25651,25635,96573,96550,96224","bike_types":{"4":9},"place_type":"0","rack_locks":"1"},{"uid":"2585430","lat":"52.24190654256","lng":"21.024259328842","name":"Lipowa - Dobra","spot":"1","number":"9496","bikes":"33","bike_racks":"19","free_racks":"4","terminal_type":"7inch","bike_numbers":"24856,24835,24491,28572,28532,28517,28458,28380,28107,28089,27748,27699,27433,27057,26747,26718,26442,26252,26137,25708,25620,25551,25268,25262,25171,29106,29104,29652,28826,28962,96048,96554,96123","bike_types":{"4":32,"51":1},"place_type":"0","rack_locks":"1"},{"uid":"2585431","lat":"52.2413087","lng":"21.0281727","name":"Centrum Nauki Kopernik","spot":"1","number":"9497","bikes":"13","bike_racks":"30","free_racks":"13","terminal_type":"7inch","bike_numbers":"24867,28723,28596,28102,28020,27527,26933,26910,26677,26522,29554,28977,96202","bike_types":{"4":13},"place_type":"0","rack_locks":"1"},{"uid":"2585432","lat":"52.2264464","lng":"20.9837164","name":"Kolejowa","spot":"1","number":"9498","bikes":"2","bike_racks":"16","free_racks":"14","terminal_type":"7inch","bike_numbers":"27835,26898","bike_types":{"4":2},"place_type":"0","rack_locks":"1"},{"uid":"2585433","lat":"52.22983","lng":"20.993996","name":"\u017belazna - Sienna","spot":"1","number":"9499","bikes":"6","bike_racks":"24","free_racks":"18","terminal_type":"7inch","bike_numbers":"24914,28769,27188,29092,29178,96584","bike_types":{"4":6},"place_type":"0","rack_locks":"1"},{"uid":"2585435","lat":"52.230201297582","lng":"20.999550819397","name":"al. Jana Paw\u0142a II - Z\u0142ota","spot":"1","number":"9500","bikes":"14","bike_racks":"16","free_racks":"1","terminal_type":"7inch","bike_numbers":"24458,28761,28738,28216,28140,28078,27539,26358,26055,26031,25238,29648,96414,29198","bike_types":{"51":1,"4":13},"place_type":"0","rack_locks":"1"},{"uid":"2585438","lat":"52.2309778","lng":"21.0036755","name":"Emilii Plater - Z\u0142ota","spot":"1","number":"9501","bikes":"22","bike_racks":"30","free_racks":"8","terminal_type":"7inch","bike_numbers":"24773,24664,28446,27935,27468,27331,27232,27219,27213,26876,26509,26267,26164,26075,26029,25125,25116,25094,29056,28807,28857,96394","bike_types":{"4":22},"place_type":"0","rack_locks":"1"},{"uid":"2585440","lat":"52.232816601853","lng":"21.006980538368","name":"Pa\u0142ac Kultury i Nauki","spot":"1","number":"9502","bikes":"0","bike_racks":"17","free_racks":"17","terminal_type":"7inch","place_type":"0","rack_locks":"1","bike_numbers":null,"bike_types":[]},{"uid":"2585442","lat":"52.232934","lng":"21.0101791","name":"Marsza\u0142kowska - Z\u0142ota","spot":"1","number":"9503","bikes":"7","bike_racks":"22","free_racks":"15","terminal_type":"7inch","bike_numbers":"28257,28036,25946,25772,25409,96521,96366","bike_types":{"4":7},"place_type":"0","rack_locks":"1"},{"uid":"2585445","lat":"52.231987","lng":"21.016092","name":"Bracka - Krucza","spot":"1","number":"9504","bikes":"16","bike_racks":"20","free_racks":"0","terminal_type":"7inch","bike_numbers":"24565,28341,28335,28008,27374,26893,26738,26712,25681,25227,28935,28816,28829,96060,96404,29152","bike_types":{"4":16},"place_type":"0","rack_locks":"1"},{"uid":"2585446","lat":"52.2355713","lng":"21.0179642","name":"Nowy \u015awiat - Warecka","spot":"1","number":"9505","bikes":"2","bike_racks":"24","free_racks":"23","terminal_type":"7inch","bike_numbers":"27202,25058","bike_types":{"4":2},"place_type":"0","rack_locks":"1"},{"uid":"2585447","lat":"52.2337571","lng":"21.0202789","name":"Ga\u0142czy\u0144skiego - Foksal","spot":"1","number":"9506","bikes":"4","bike_racks":"24","free_racks":"19","terminal_type":"7inch","bike_numbers":"27809,27276,26658,96428","bike_types":{"4":4},"place_type":"0","rack_locks":"1"},{"uid":"2585450","lat":"52.2375934","lng":"21.0256487","name":"Topiel - Tamka","spot":"1","number":"9507","bikes":"22","bike_racks":"20","free_racks":"3","terminal_type":"7inch","bike_numbers":"24895,24539,24524,24462,28598,28329,28324,27973,27757,27517,27465,27087,27055,27015,26556,25932,25336,28883,28913,96014,96280,29208","bike_types":{"4":21,"51":1},"place_type":"0","rack_locks":"1"},{"uid":"2585452","lat":"52.2358752","lng":"21.0317323","name":"Solec - Jaracza","spot":"1","number":"9508","bikes":"14","bike_racks":"15","free_racks":"0","terminal_type":"7inch","bike_numbers":"24750,28050,28027,27675,27604,27386,27108,27030,26942,26386,26147,96507,96309,29159","bike_types":{"4":14},"place_type":"0","rack_locks":"1"},{"uid":"2585453","lat":"52.2218874","lng":"20.9795301","name":"al. Jerozolimskie - Niemcewicza","spot":"1","number":"9509","bikes":"7","bike_racks":"19","free_racks":"12","terminal_type":"7inch","bike_numbers":"24792,24657,24478,28262,27460,96278,96157","bike_types":{"4":6,"51":1},"place_type":"0","rack_locks":"1"},{"uid":"2585455","lat":"52.2222155","lng":"20.9866293","name":"Ochota-Ratusz","spot":"1","number":"9510","bikes":"9","bike_racks":"23","free_racks":"13","terminal_type":"7inch","bike_numbers":"27883,27244,27190,26875,26329,29426,28840,96491,29218","bike_types":{"4":9},"place_type":"0","rack_locks":"1"},{"uid":"2585457","lat":"52.2249718","lng":"20.9897661","name":"Plac Zawiszy","spot":"1","number":"9511","bikes":"3","bike_racks":"24","free_racks":"21","terminal_type":"7inch","bike_numbers":"27263,26201,29207","bike_types":{"4":3},"place_type":"0","rack_locks":"1"},{"uid":"2585460","lat":"52.22626","lng":"20.9961309","name":"al. Jerozolimskie - Lindleya","spot":"1","number":"9512","bikes":"8","bike_racks":"15","free_racks":"5","terminal_type":"7inch","bike_numbers":"24958,27989,27418,26516,25465,25145,96433,29226","bike_types":{"4":8},"place_type":"0","rack_locks":"1"},{"uid":"2585462","lat":"52.2241455","lng":"20.9975244","name":"Lindleya - szpital","spot":"1","number":"9513","bikes":"28","bike_racks":"28","free_racks":"0","terminal_type":"7inch","bike_numbers":"24992,24734,24718,28681,28563,28547,28522,28485,27702,27403,26916,26772,26662,26518,26396,26315,26286,25547,25480,25298,29113,29044,29365,96473,96344,96099,96095,96586","bike_types":{"4":28},"place_type":"0","rack_locks":"1"},{"uid":"2585464","lat":"52.227861","lng":"21.0008509","name":"Warszawa \u015ar\u00f3dmie\u015bcie WKD","spot":"1","number":"9514","bikes":"9","bike_racks":"18","free_racks":"9","terminal_type":"7inch","bike_numbers":"24010,26977,26714,26436,25803,96529,96292,96277,96097","bike_types":{"26":1,"4":8},"place_type":"0","rack_locks":"1"},{"uid":"2585466","lat":"52.2249555","lng":"21.0031664","name":"Oczki - WUM","spot":"1","number":"9515","bikes":"10","bike_racks":"19","free_racks":"8","terminal_type":"7inch","bike_numbers":"24877,28546,27890,27324,27296,27008,27004,26141,25748,25528","bike_types":{"4":10},"place_type":"0","rack_locks":"1"},{"uid":"2585469","lat":"52.2290464","lng":"21.0054544","name":"Emilii Plater - Al. Jerozolimskie","spot":"1","number":"9517","bikes":"2","bike_racks":"30","free_racks":"27","terminal_type":"7inch","bike_numbers":"25990,25907","bike_types":{"4":2},"place_type":"0","rack_locks":"1"},{"uid":"2585470","lat":"52.2259343","lng":"21.0067537","name":"Emilii Plater - Wsp\u00f3lna","spot":"1","number":"9518","bikes":"0","bike_racks":"15","free_racks":"15","terminal_type":"7inch","place_type":"0","rack_locks":"1","bike_numbers":null,"bike_types":[]},{"uid":"2585472","lat":"52.23001","lng":"21.01088","name":"Metro Centrum","spot":"1","number":"9519","bikes":"18","bike_racks":"30","free_racks":"12","terminal_type":"7inch","bike_numbers":"28554,28045,27306,27119,27110,26528,26456,25805,25618,25370,25339,29048,28810,28875,96286,29158,29260,29242","bike_types":{"4":18},"place_type":"0","rack_locks":"1"},{"uid":"2585473","lat":"52.229347019086","lng":"21.011314988136","name":"Marsza\u0142kowska - Al. Jerozolimskie","spot":"1","number":"9520","bikes":"20","bike_racks":"20","free_racks":"0","terminal_type":"7inch","bike_numbers":"24935,28537,28468,28358,28153,27129,27127,26999,26805,26746,26500,26364,26142,25513,25430,25204,25106,28888,96200,29219","bike_types":{"4":20},"place_type":"0","rack_locks":"1"},{"uid":"2585476","lat":"52.230418150276","lng":"21.013610959053","name":"al. Jerozolimskie - rejon Rotundy","spot":"1","number":"9521","bikes":"8","bike_racks":"24","free_racks":"16","terminal_type":"7inch","bike_numbers":"24921,28315,28283,27210,25782,25586,25049,96477","bike_types":{"4":8},"place_type":"0","rack_locks":"1"},{"uid":"2585477","lat":"52.2262882","lng":"21.0135705","name":"Marsza\u0142kowska - Ho\u017ca","spot":"1","number":"9522","bikes":"4","bike_racks":"15","free_racks":"11","terminal_type":"7inch","bike_numbers":"24801,27283,27059,96407","bike_types":{"4":4},"place_type":"0","rack_locks":"1"},{"uid":"2585492","lat":"52.2282923","lng":"21.0178542","name":"Krucza - Wsp\u00f3lna","spot":"1","number":"9523","bikes":"9","bike_racks":"28","free_racks":"19","terminal_type":"7inch","bike_numbers":"24738,28084,27524,26412,25199,25163,25027,96046,29255","bike_types":{"4":9},"place_type":"0","rack_locks":"1"},{"uid":"2585684","lat":"52.23144","lng":"21.0213036","name":"Rondo de Gaulle'a","spot":"1","number":"9524","bikes":"1","bike_racks":"22","free_racks":"21","terminal_type":"7inch","bike_numbers":"26003","bike_types":{"4":1},"place_type":"0","rack_locks":"1"},{"uid":"2585694","lat":"52.2278487","lng":"21.0235084","name":"Plac Trzech Krzy\u017cy","spot":"1","number":"9525","bikes":"20","bike_racks":"23","free_racks":"0","maintenance":"1","terminal_type":"7inch","bike_numbers":"24753,24668,24543,28696,28688,28604,28490,28010,27775,27637,27365,26776,26751,26688,26078,26063,25822,25175,25102,25069","bike_types":{"4":20},"place_type":"0","rack_locks":"1"},{"uid":"2585695","lat":"52.23324","lng":"21.0261179","name":"Smolna - PKP Powi\u015ble","spot":"1","number":"9526","bikes":"14","bike_racks":"18","free_racks":"3","terminal_type":"7inch","bike_numbers":"28033,27936,27876,27303,27269,27049,27032,26261,26183,25510,25029,28993,96545,24052","bike_types":{"4":13,"16":1,"26":1},"place_type":"0","rack_locks":"1"},{"uid":"2585699","lat":"52.2340191","lng":"21.0300328","name":"Herberta - PKP Powi\u015ble","spot":"1","number":"9527","bikes":"20","bike_racks":"26","free_racks":"6","terminal_type":"7inch","bike_numbers":"24859,24459,28775,28459,28121,27510,26800,26760,26729,25948,25849,25643,25604,25540,29038,29361,29419,25627,96237,96108","bike_types":{"4":19,"51":1},"place_type":"0","rack_locks":"1"},{"uid":"2585704","lat":"52.2347879","lng":"21.0340991","name":"Solec - al. 3 Maja","spot":"1","number":"9528","bikes":"20","bike_racks":"24","free_racks":"4","terminal_type":"7inch","bike_numbers":"24838,28685,28653,28486,28472,28155,27798,27633,27606,27181,27126,26699,26601,26259,25842,25721,25010,96197,96186,29172","bike_types":{"4":20},"place_type":"0","rack_locks":"1"},{"uid":"2585708","lat":"52.2301405","lng":"21.0303694","name":"Ksi\u0105\u017c\u0119ca - Rozbrat","spot":"1","number":"9529","bikes":"17","bike_racks":"15","free_racks":"1","terminal_type":"7inch","bike_numbers":"28749,28659,28565,28212,28019,27711,27676,27582,27420,27312,27079,26476,26028,25917,28838,96372,96081","bike_types":{"4":17},"place_type":"0","rack_locks":"1"},{"uid":"2585711","lat":"52.2172177","lng":"20.9713608","name":"Szcz\u0119\u015bliwicka - APS","spot":"1","number":"9530","bikes":"4","bike_racks":"22","free_racks":"18","terminal_type":"7inch","bike_numbers":"27968,25391,29458,96271","bike_types":{"4":4},"place_type":"0","rack_locks":"1"},{"uid":"2585712","lat":"52.2179474","lng":"20.9775567","name":"Kopi\u0144ska - Bia\u0142obrzeska","spot":"1","number":"9531","bikes":"2","bike_racks":"15","free_racks":"13","terminal_type":"7inch","bike_numbers":"26749,25848","bike_types":{"4":2},"place_type":"0","rack_locks":"1"},{"uid":"2585714","lat":"52.2178554","lng":"20.9828138","name":"Plac Narutowicza","spot":"1","number":"9532","bikes":"4","bike_racks":"30","free_racks":"26","terminal_type":"7inch","bike_numbers":"24726,24033,26552,29022","bike_types":{"4":3,"26":1},"place_type":"0","rack_locks":"1"},{"uid":"2585716","lat":"52.216641","lng":"20.9879476","name":"Raszy\u0144ska - Wawelska","spot":"1","number":"9533","bikes":"0","bike_racks":"12","free_racks":"11","terminal_type":"7inch","place_type":"0","rack_locks":"1","bike_numbers":null,"bike_types":[]},{"uid":"2585717","lat":"52.2191029","lng":"20.9890149","name":"Raszy\u0144ska - Filtrowa","spot":"1","number":"9534","bikes":"8","bike_racks":"18","free_racks":"8","terminal_type":"7inch","bike_numbers":"24946,24823,28338,27523,27355,26797,25695,29216","bike_types":{"4":8},"place_type":"0","rack_locks":"1"},{"uid":"2585720","lat":"52.220676","lng":"21.0045554","name":"al. Niepodleg\u0142o\u015bci - Nowowiejska","spot":"1","number":"9535","bikes":"13","bike_racks":"30","free_racks":"17","terminal_type":"7inch","bike_numbers":"24907,24661,24648,24642,24582,28704,28106,26843,26318,26266,29021,96243,96578","bike_types":{"4":13},"place_type":"0","rack_locks":"1"},{"uid":"2585721","lat":"52.2174693","lng":"21.0056537","name":"Kaczy\u0144skiego - al. Niepodleg\u0142o\u015bci","spot":"1","number":"9536","bikes":"5","bike_racks":"16","free_racks":"11","terminal_type":"7inch","bike_numbers":"25009,27023,26981,96022,96527","bike_types":{"4":5},"place_type":"0","rack_locks":"1"},{"uid":"2585722","lat":"52.2226831","lng":"21.0081097","name":"Noakowskiego - Koszykowa","spot":"1","number":"9537","bikes":"5","bike_racks":"24","free_racks":"18","terminal_type":"7inch","bike_numbers":"24655,27653,27390,26118,29079","bike_types":{"4":5},"place_type":"0","rack_locks":"1"},{"uid":"2585724","lat":"52.219916","lng":"21.0116824","name":"Plac Politechniki","spot":"1","number":"9538","bikes":"4","bike_racks":"27","free_racks":"23","terminal_type":"7inch","bike_numbers":"24943,28253,28215,25038","bike_types":{"4":4},"place_type":"0","rack_locks":"1"},{"uid":"2585727","lat":"52.223503","lng":"21.0128519","name":"Pozna\u0144ska - Zesp\u00f3\u0142 Szk\u00f3\u0142 Gastronomicznych","spot":"1","number":"9539","bikes":"6","bike_racks":"18","free_racks":"11","terminal_type":"7inch","bike_numbers":"28013,27934,27156,27031,26597,25390","bike_types":{"4":6},"place_type":"0","rack_locks":"1"},{"uid":"2585728","lat":"52.2174857","lng":"21.0142949","name":"Rondo Jazdy Polskiej","spot":"1","number":"9540","bikes":"14","bike_racks":"24","free_racks":"12","terminal_type":"7inch","bike_numbers":"24831,24469,28146,27956,27401,27329,26821,26694,25664,25496,25020,28830,28969,29206","bike_types":{"4":13,"51":1},"place_type":"0","rack_locks":"1"},{"uid":"2585729","lat":"52.2197435","lng":"21.0157353","name":"Metro Politechnika - Nowowiejska","spot":"1","number":"9541","bikes":"4","bike_racks":"18","free_racks":"13","terminal_type":"7inch","bike_numbers":"24987,26854,29050,96467","bike_types":{"4":4},"place_type":"0","rack_locks":"1"},{"uid":"2585731","lat":"52.2197681","lng":"21.0172775","name":"Plac Zbawiciela","spot":"1","number":"9542","bikes":"2","bike_racks":"12","free_racks":"9","terminal_type":"7inch","bike_numbers":"26385,29280","bike_types":{"4":2},"place_type":"0","rack_locks":"1"},{"uid":"2585735","lat":"52.2229427","lng":"21.0158211","name":"Plac Konstytucji","spot":"1","number":"9543","bikes":"9","bike_racks":"30","free_racks":"20","terminal_type":"7inch","bike_numbers":"26161,26087,25862,25802,25720,25594,28941,29448,29153","bike_types":{"4":9},"place_type":"0","rack_locks":"1"},{"uid":"2585737","lat":"52.2238152","lng":"21.0207859","name":"Mokotowska - Pi\u0119kna","spot":"1","number":"9544","bikes":"24","bike_racks":"20","free_racks":"1","terminal_type":"7inch","bike_numbers":"24820,28193,28011,27888,27586,27384,27369,26642,26466,26378,26160,26103,26069,25756,25686,25576,25243,28833,28918,96558,96553,96373,96153,29187","bike_types":{"4":24},"place_type":"0","rack_locks":"1"},{"uid":"2585738","lat":"52.2200212","lng":"21.0256299","name":"Plac na Rozdro\u017cu","spot":"1","number":"9545","bikes":"18","bike_racks":"26","free_racks":"6","terminal_type":"7inch","bike_numbers":"24871,24765,28332,27910,27693,27661,27096,27088,26682,26181,25837,25202,25086,96543,96469,96442,96315,29217","bike_types":{"4":18},"place_type":"0","rack_locks":"1"},{"uid":"2585742","lat":"52.2249504","lng":"21.0268155","name":"Matejki - Wiejska","spot":"1","number":"9546","bikes":"20","bike_racks":"20","free_racks":"2","terminal_type":"7inch","bike_numbers":"24874,28766,28558,28479,28464,27946,27882,27787,26930,26919,26630,26544,26481,26145,25824,25792,25393,25173,25018,29084","bike_types":{"4":20},"place_type":"0","rack_locks":"1"},{"uid":"2585747","lat":"52.2221129","lng":"21.0343873","name":"My\u015bliwiecka - Rozbrat","spot":"1","number":"9547","bikes":"24","bike_racks":"21","free_racks":"1","terminal_type":"7inch","bike_numbers":"24905,28747,28567,28120,28014,28004,27785,26926,26830,26248,26071,25755,25571,25489,25239,25228,29073,29445,29447,28805,96492,96381,96100,29259","bike_types":{"4":24},"place_type":"0","rack_locks":"1"},{"uid":"2585748","lat":"52.2277124","lng":"21.0442955","name":"Port Czerniakowski","spot":"1","number":"9548","bikes":"34","bike_racks":"30","free_racks":"0","terminal_type":"7inch","bike_numbers":"24973,24865,24861,24802,24502,24463,28802,28579,28573,28495,28375,28355,27836,27701,27640,27600,27218,27125,27061,26855,26571,26490,26478,25773,25299,29083,29459,25622,28836,28972,28970,96026,96565,96520","bike_types":{"4":33,"51":1},"place_type":"0","rack_locks":"1"},{"uid":"2585749","lat":"52.2109711","lng":"20.9759125","name":"Gr\u00f3jecka - Bitwy Warszawskiej 1920 roku","spot":"1","number":"9549","bikes":"20","bike_racks":"20","free_racks":"1","terminal_type":"7inch","bike_numbers":"24864,24577,28636,27874,27811,27684,26951,26725,26638,25826,25584,25476,25385,25241,96510,96330,96260,29252,29227,96592","bike_types":{"4":20},"place_type":"0","rack_locks":"1"},{"uid":"2585750","lat":"52.2130296","lng":"20.9819985","name":"Pasteura - Winnicka - UW","spot":"1","number":"9550","bikes":"5","bike_racks":"24","free_racks":"18","terminal_type":"7inch","bike_numbers":"27508,26741,26654,26342,96523","bike_types":{"4":5},"place_type":"0","rack_locks":"1"},{"uid":"2585762","lat":"52.2107722","lng":"20.9847557","name":"Stefana Banacha - UW","spot":"1","number":"9551","bikes":"24","bike_racks":"29","free_racks":"9","terminal_type":"7inch","bike_numbers":"24795,24748,24567,28759,28650,28457,28083,27776,27444,27419,27259,27255,27161,26917,26885,26878,26232,26019,60854,29136,28846,96362,29162,96585","bike_types":{"4":23,"0":1},"place_type":"0","rack_locks":"1"},{"uid":"2585764","lat":"52.212671","lng":"21.003437","name":"Biblioteka Narodowa","spot":"1","number":"9552","bikes":"13","bike_racks":"24","free_racks":"9","terminal_type":"7inch","bike_numbers":"24996,24722,28260,27703,27142,26752,26368,25922,25863,25655,29344,28808,96055","bike_types":{"4":13},"place_type":"0","rack_locks":"1"},{"uid":"2585766","lat":"52.21691","lng":"21.01997","name":"Marsza\u0142kowska - Litewska","spot":"1","number":"9553","bikes":"3","bike_racks":"15","free_racks":"11","terminal_type":"7inch","bike_numbers":"24550,26906,96193","bike_types":{"4":3},"place_type":"0","rack_locks":"1"},{"uid":"2585770","lat":"52.2083858","lng":"20.9631103","name":"P\u0119tla Szcz\u0119\u015bliwice","spot":"1","number":"9554","bikes":"10","bike_racks":"19","free_racks":"10","terminal_type":"7inch","bike_numbers":"24858,28112,27848,27066,26426,25844,25062,96006,96254,96161","bike_types":{"4":10},"place_type":"0","rack_locks":"1"},{"uid":"2585771","lat":"52.206153650625","lng":"20.970287919044","name":"Dickensa - Geodet\u00f3w","spot":"1","number":"9555","bikes":"11","bike_racks":"16","free_racks":"4","terminal_type":"7inch","bike_numbers":"24465,24455,25006,28639,27293,26742,26219,26158,25920,29124,96094","bike_types":{"51":2,"4":8,"0":1},"place_type":"0","rack_locks":"1"},{"uid":"2585772","lat":"52.205361371875","lng":"20.984664559364","name":"\u017bwirki i Wigury - Ksi\u0119cia Trojdena","spot":"1","number":"9556","bikes":"4","bike_racks":"17","free_racks":"11","terminal_type":"7inch","bike_numbers":"27477,26387,28815,96356","bike_types":{"4":4},"place_type":"0","rack_locks":"1"},{"uid":"2585774","lat":"52.205801893754","lng":"20.998928546906","name":"Rakowiecka - \u015aw. A. Boboli","spot":"1","number":"9557","bikes":"11","bike_racks":"17","free_racks":"3","terminal_type":"7inch","bike_numbers":"24850,24717,24471,27915,27563,27485,27289,27174,26001,25333,96457","bike_types":{"4":10,"51":1},"place_type":"0","rack_locks":"1"},{"uid":"2585776","lat":"52.209916","lng":"21.0067794","name":"al. Niepodleg\u0142o\u015bci - Batorego","spot":"1","number":"9558","bikes":"11","bike_racks":"26","free_racks":"16","terminal_type":"7inch","bike_numbers":"24887,28429,28038,27082,26766,26422,26409,25186,25022,96455,29244","bike_types":{"4":11},"place_type":"0","rack_locks":"1"},{"uid":"2585779","lat":"52.2132375","lng":"21.0210568","name":"Plac Unii Lubelskiej","spot":"1","number":"9559","bikes":"30","bike_racks":"24","free_racks":"2","terminal_type":"7inch","bike_numbers":"24813,24754,24476,28663,28482,28460,28041,27694,27546,27488,27130,26996,26545,26392,26104,25942,25938,25871,25851,25722,25455,25338,29338,29078,28938,96043,96450,96421,96357,96174","bike_types":{"4":29,"51":1},"place_type":"0","rack_locks":"1"},{"uid":"2585781","lat":"52.2027557","lng":"20.9508951","name":"W\u0142odarzewska - Maszynowa","spot":"1","number":"9560","bikes":"1","bike_racks":"18","free_racks":"17","terminal_type":"7inch","bike_numbers":"27074","bike_types":{"4":1},"place_type":"0","rack_locks":"1"},{"uid":"2585782","lat":"52.2017647","lng":"20.9820897","name":"Sanocka - Pruszkowska","spot":"1","number":"9561","bikes":"3","bike_racks":"15","free_racks":"12","terminal_type":"7inch","bike_numbers":"24591,25761,25474","bike_types":{"4":3},"place_type":"0","rack_locks":"1"},{"uid":"2585785","lat":"52.1981365","lng":"20.9833717","name":"\u017bwirki i Wigury - Rac\u0142awicka","spot":"1","number":"9562","bikes":"0","bike_racks":"18","free_racks":"18","terminal_type":"7inch","place_type":"0","rack_locks":"1","bike_numbers":null,"bike_types":[]},{"uid":"2585787","lat":"52.20177","lng":"20.99969","name":"Wo\u0142oska - Kulskiego","spot":"1","number":"9563","bikes":"12","bike_racks":"15","free_racks":"1","terminal_type":"7inch","bike_numbers":"24611,24483,25001,27802,27738,27611,26819,26323,26115,25346,28895,29148","bike_types":{"4":11,"51":1},"place_type":"0","rack_locks":"1"},{"uid":"2585788","lat":"52.2042638","lng":"21.014428","name":"Madali\u0144skiego - Kazimierzowska","spot":"1","number":"9564","bikes":"3","bike_racks":"24","free_racks":"21","terminal_type":"7inch","bike_numbers":"24716,25524,24053","bike_types":{"4":2,"26":1},"place_type":"0","rack_locks":"1"},{"uid":"2585789","lat":"52.2055175","lng":"21.0231033","name":"Pu\u0142awska - Dworkowa","spot":"1","number":"9565","bikes":"2","bike_racks":"19","free_racks":"18","terminal_type":"7inch","bike_numbers":"29641,29196","bike_types":{"4":2},"place_type":"0","rack_locks":"1"},{"uid":"2585790","lat":"52.2071756","lng":"21.0312643","name":"Belwederska - Gagarina","spot":"1","number":"9566","bikes":"23","bike_racks":"30","free_racks":"5","terminal_type":"7inch","bike_numbers":"24916,24735,24612,28069,27988,27831,27779,27719,27314,27262,27100,26975,26309,26258,26239,26073,26013,25790,25580,25408,29002,29359,96323","bike_types":{"4":23},"place_type":"0","rack_locks":"1"},{"uid":"2585791","lat":"52.2074193","lng":"21.0479621","name":"Czerniakowska - Gagarina","spot":"1","number":"9567","bikes":"20","bike_racks":"25","free_racks":"2","terminal_type":"7inch","bike_numbers":"24816,24645,24584,28136,27927,26285,26282,26042,26006,25992,25691,25634,25589,25457,25046,96034,96556,96447,96413,96325","bike_types":{"4":20},"place_type":"0","rack_locks":"1"},{"uid":"2585794","lat":"52.1938131","lng":"20.9914431","name":"Etiudy Rewolucyjnej - Mi\u0105czy\u0144ska","spot":"1","number":"9568","bikes":"6","bike_racks":"18","free_racks":"12","terminal_type":"7inch","bike_numbers":"27282,27148,25112,96033,96493,96342","bike_types":{"4":6},"place_type":"0","rack_locks":"1"},{"uid":"2585799","lat":"52.1994156","lng":"21.0121384","name":"Metro Rac\u0142awicka","spot":"1","number":"9570","bikes":"7","bike_racks":"30","free_racks":"22","terminal_type":"7inch","bike_numbers":"24832,27826,27051,26989,26613,25511,96480","bike_types":{"4":7},"place_type":"0","rack_locks":"1"},{"uid":"2585800","lat":"52.199505","lng":"21.0240975","name":"Pu\u0142awska - Dolna","spot":"1","number":"9571","bikes":"11","bike_racks":"18","free_racks":"6","terminal_type":"7inch","bike_numbers":"24894,24536,28735,28196,27541,27063,26246,26059,26039,26010,96127","bike_types":{"4":11},"place_type":"0","rack_locks":"1"},{"uid":"2585802","lat":"52.2014754","lng":"21.0360047","name":"Sobieskiego - Che\u0142mska","spot":"1","number":"9572","bikes":"15","bike_racks":"15","free_racks":"0","terminal_type":"7inch","bike_numbers":"25003,28469,28282,27153,27095,27065,27047,26889,26561,25341,25109,28909,96322,96270,96262","bike_types":{"4":15},"place_type":"0","rack_locks":"1"},{"uid":"2585804","lat":"52.1998446","lng":"21.05095","name":"Czerniakowska - ZUS","spot":"1","number":"9573","bikes":"15","bike_racks":"15","free_racks":"0","terminal_type":"7inch","bike_numbers":"24971,24929,28331,27741,27617,27139,26734,25491,25323,25255,29646,96037,96490,96184,29251","bike_types":{"4":15},"place_type":"0","rack_locks":"1"},{"uid":"2585807","lat":"52.1916776","lng":"20.8689688","name":"PKP Ursus-Nied\u017awiadek","spot":"1","number":"9574","bikes":"6","bike_racks":"15","free_racks":"9","terminal_type":"7inch","bike_numbers":"24744,27598,27205,26659,26397,96345","bike_types":{"4":6},"place_type":"0","rack_locks":"1"},{"uid":"2585808","lat":"52.1960469","lng":"20.8849347","name":"PKP Ursus","spot":"1","number":"9575","bikes":"7","bike_racks":"16","free_racks":"9","terminal_type":"7inch","bike_numbers":"24968,27464,26328,25888,25667,25221,29639","bike_types":{"4":7},"place_type":"0","rack_locks":"1"},{"uid":"2585809","lat":"52.1869936","lng":"20.8906478","name":"Sosnkowskiego - OSiR Ursus","spot":"1","number":"9576","bikes":"10","bike_racks":"15","free_racks":"5","terminal_type":"7inch","bike_numbers":"24576,28336,28122,27569,26431,26350,25897,25256,96470,96091","bike_types":{"4":10},"place_type":"0","rack_locks":"1"},{"uid":"2585811","lat":"52.2005548","lng":"20.8937538","name":"Ursus-Ratusz","spot":"1","number":"9577","bikes":"9","bike_racks":"15","free_racks":"6","terminal_type":"7inch","bike_numbers":"28905,27379,26708,26602,25892,25733,29452,29131,28996","bike_types":{"4":8,"0":1},"place_type":"0","rack_locks":"1"},{"uid":"2585814","lat":"52.1906376","lng":"20.8999443","name":"Skoroszewska - Prystora","spot":"1","number":"9578","bikes":"15","bike_racks":"17","free_racks":"0","terminal_type":"7inch","bike_numbers":"24016,28668,28591,28287,27942,27735,27665,27131,26024,25469,25436,25304,25194,28893,96525","bike_types":{"26":1,"4":14},"place_type":"0","rack_locks":"1"},{"uid":"2585817","lat":"52.1882609","lng":"20.9603771","name":"G\u0142adka - OSiR W\u0142ochy","spot":"1","number":"9579","bikes":"1","bike_racks":"16","free_racks":"14","terminal_type":"7inch","bike_numbers":"27272","bike_types":{"4":1},"place_type":"0","rack_locks":"1"},{"uid":"2585820","lat":"52.2056441","lng":"20.9159142","name":"PKP W\u0142ochy","spot":"1","number":"9580","bikes":"4","bike_racks":"17","free_racks":"13","terminal_type":"7inch","bike_numbers":"27918,27466,25728,96400","bike_types":{"4":4},"place_type":"0","rack_locks":"1"},{"uid":"2585821","lat":"52.2012157","lng":"20.9353145","name":"al. Jerozolimskie - Popularna","spot":"1","number":"9581","bikes":"0","bike_racks":"17","free_racks":"17","terminal_type":"7inch","place_type":"0","rack_locks":"1","bike_numbers":null,"bike_types":[]},{"uid":"2585824","lat":"52.1924709","lng":"20.9596664","name":"W\u0142ochy-Ratusz","spot":"1","number":"9582","bikes":"14","bike_racks":"14","free_racks":"0","terminal_type":"7inch","bike_numbers":"24673,24519,28804,28703,28540,27979,27309,27256,27141,26527,26339,25902,25081,29234","bike_types":{"4":14},"place_type":"0","rack_locks":"1"},{"uid":"2585825","lat":"52.1946888","lng":"20.9667823","name":"1 Sierpnia - DK W\u0142ochy","spot":"1","number":"9583","bikes":"4","bike_racks":"15","free_racks":"11","terminal_type":"7inch","bike_numbers":"28624,26307,25451,25425","bike_types":{"4":4},"place_type":"0","rack_locks":"1"},{"uid":"2585827","lat":"52.1888962","lng":"21.0175887","name":"Metro Wierzbno","spot":"1","number":"9584","bikes":"5","bike_racks":"20","free_racks":"12","terminal_type":"7inch","bike_numbers":"28869,27368,25925,28844,29169","bike_types":{"4":5},"place_type":"0","rack_locks":"1"},{"uid":"2585830","lat":"52.18648","lng":"21.02538","name":"Pu\u0142awska - Idzikowskiego","spot":"1","number":"9585","bikes":"12","bike_racks":"17","free_racks":"4","terminal_type":"7inch","bike_numbers":"24656,28698,28502,28040,28025,27453,26484,26308,25525,25384,29342,96020","bike_types":{"4":12},"place_type":"0","rack_locks":"1"},{"uid":"2585835","lat":"52.1882861","lng":"21.0498825","name":"Sobieskiego - Mangalia","spot":"1","number":"9586","bikes":"29","bike_racks":"15","free_racks":"1","terminal_type":"7inch","bike_numbers":"24697,28645,28576,28065,27962,27951,27846,27740,27727,27705,27641,27318,27149,26939,26904,26727,26668,26467,26465,26146,25893,25823,25508,28944,29141,28975,96562,96119,29203","bike_types":{"4":28,"0":1},"place_type":"0","rack_locks":"1"},{"uid":"2585837","lat":"52.178777","lng":"21.0016387","name":"Wo\u0142oska - Marynarska","spot":"1","number":"9588","bikes":"9","bike_racks":"26","free_racks":"17","terminal_type":"7inch","bike_numbers":"24569,28510,27745,27392,27039,26596,25800,29340,28933","bike_types":{"4":9},"place_type":"0","rack_locks":"1"},{"uid":"2585838","lat":"52.1800882","lng":"21.0207403","name":"al. Niepodleg\u0142o\u015bci - al. Wilanowska","spot":"1","number":"9589","bikes":"16","bike_racks":"22","free_racks":"6","terminal_type":"7inch","bike_numbers":"24556,28443,27780,27769,27659,27570,27568,26850,26822,26813,26615,26250,26005,29098,96304,96124","bike_types":{"4":16},"place_type":"0","rack_locks":"1"},{"uid":"2585839","lat":"52.1779163","lng":"21.049562","name":"P\u0119tla Stegny","spot":"1","number":"9590","bikes":"20","bike_racks":"23","free_racks":"11","terminal_type":"7inch","bike_numbers":"24934,24827,24723,27695,27391,27216,26861,26189,26038,25561,25161,25111,28828,28827,28906,96036,96515,96485,96459,96312","bike_types":{"4":20},"place_type":"0","rack_locks":"1"},{"uid":"2585843","lat":"52.1818472","lng":"21.0562822","name":"Sobieskiego - \u015bw. Bonifacego","spot":"1","number":"9591","bikes":"14","bike_racks":"22","free_racks":"7","terminal_type":"7inch","bike_numbers":"28898,28368,28334,27519,27402,26070,25846,25820,25730,25542,28912,96563,96268,96159","bike_types":{"4":14},"place_type":"0","rack_locks":"1"},{"uid":"2585844","lat":"52.1702836","lng":"20.9959132","name":"P\u0119tla Bokserska","spot":"1","number":"9592","bikes":"13","bike_racks":"15","free_racks":"2","terminal_type":"7inch","bike_numbers":"24974,24954,24674,28666,28029,27923,27268,26728,25898,25375,25040,29055,96049","bike_types":{"4":13},"place_type":"0","rack_locks":"1"},{"uid":"2585846","lat":"52.1710498","lng":"21.0059144","name":"Gintrowskiego - Gotarda","spot":"1","number":"9593","bikes":"20","bike_racks":"15","free_racks":"0","terminal_type":"7inch","bike_numbers":"24961,24778,28714,28391,27994,27896,27500,27327,27103,27081,26724,26507,26124,25464,25326,29435,28907,96458,96364,96079","bike_types":{"4":20},"place_type":"0","rack_locks":"1"},{"uid":"2585848","lat":"52.174435","lng":"21.0128814","name":"al. Lotnik\u00f3w - Kaczmarskiego","spot":"1","number":"9594","bikes":"1","bike_racks":"30","free_racks":"29","terminal_type":"7inch","bike_numbers":"27132","bike_types":{"4":1},"place_type":"0","rack_locks":"1"},{"uid":"2585850","lat":"52.1733132","lng":"21.0257305","name":"Metro S\u0142u\u017cew","spot":"1","number":"9595","bikes":"14","bike_racks":"24","free_racks":"9","terminal_type":"7inch","bike_numbers":"24791,24610,28901,28327,28104,27941,27297,26914,25735,25658,25422,25343,96570,29237","bike_types":{"4":14},"place_type":"0","rack_locks":"1"},{"uid":"2585853","lat":"52.17343","lng":"21.03179","name":"Wa\u0142brzyska - Wr\u00f3bla","spot":"1","number":"9596","bikes":"8","bike_racks":"30","free_racks":"23","terminal_type":"7inch","bike_numbers":"24637,24031,27248,26900,26280,26053,60855,29210","bike_types":{"4":7,"26":1},"place_type":"0","rack_locks":"1"},{"uid":"2585856","lat":"52.170135","lng":"21.0685748","name":"Jana III Sobieskiego - al. Wilanowska","spot":"1","number":"9597","bikes":"23","bike_racks":"15","free_racks":"0","terminal_type":"7inch","bike_numbers":"24981,24851,24786,24590,24011,28729,28413,28361,27759,27117,26458,26180,25818,25814,25737,25442,25274,25157,28870,96057,96050,96566,96251","bike_types":{"4":22,"26":1},"place_type":"0","rack_locks":"1"},{"uid":"2585860","lat":"52.1655879","lng":"21.0839331","name":"al. Wilanowska - Przycz\u00f3\u0142kowa","spot":"1","number":"9598","bikes":"13","bike_racks":"16","free_racks":"3","terminal_type":"7inch","bike_numbers":"24910,28365,28092,28051,27767,27407,26389,25501,25380,25361,29119,96343,96162","bike_types":{"4":13},"place_type":"0","rack_locks":"1"},{"uid":"2585863","lat":"52.16479","lng":"21.10925","name":"Vogla - Syta","spot":"1","number":"9599","bikes":"9","bike_racks":"16","free_racks":"7","terminal_type":"7inch","bike_numbers":"24489,24012,28538,27834,27474,26434,25439,29349,29095","bike_types":{"51":1,"26":1,"4":7},"place_type":"0","rack_locks":"1"},{"uid":"2585868","lat":"52.1606257","lng":"21.0723245","name":"al. Rzeczypospolitej - Klimczaka","spot":"1","number":"9600","bikes":"16","bike_racks":"16","free_racks":"1","terminal_type":"7inch","bike_numbers":"24614,27992,27770,27713,27461,27198,27128,26512,26230,26114,26072,25999,25776,25639,25352,96178","bike_types":{"4":16},"place_type":"0","rack_locks":"1"},{"uid":"2585871","lat":"52.1569168","lng":"21.0760903","name":"al. Rzeczypospolitej - Branickiego","spot":"1","number":"9601","bikes":"17","bike_racks":"16","free_racks":"11","terminal_type":"7inch","bike_numbers":"24925,24922,24484,28520,27855,27348,26664,26448,26304,26262,25870,25703,25678,25234,96405,96210,29170","bike_types":{"4":16,"51":1},"place_type":"0","rack_locks":"1"},{"uid":"2585872","lat":"52.1593735","lng":"21.086449","name":"Przycz\u00f3\u0142kowa - Branickiego","spot":"1","number":"9602","bikes":"13","bike_racks":"16","free_racks":"3","terminal_type":"7inch","bike_numbers":"24632,28615,28513,28497,27961,27241,26402,25829,25459,25185,25059,28848,28881","bike_types":{"4":13},"place_type":"0","rack_locks":"1"},{"uid":"2585873","lat":"52.1618136","lng":"21.0277355","name":"Metro Ursyn\u00f3w II","spot":"1","number":"9603","bikes":"22","bike_racks":"30","free_racks":"9","terminal_type":"7inch","bike_numbers":"24953,28803,28661,28433,28326,28144,28057,28002,27851,27599,27308,27114,27111,26245,26148,25894,25556,25271,25153,29040,29431,96084","bike_types":{"4":22},"place_type":"0","rack_locks":"1"},{"uid":"2585875","lat":"52.1622579","lng":"21.0280761","name":"Metro Ursyn\u00f3w I","spot":"1","number":"9604","bikes":"19","bike_racks":"30","free_racks":"11","terminal_type":"7inch","bike_numbers":"24975,24892,24741,24709,28640,28048,28023,27829,27739,27234,26883,26624,25886,25812,29348,28839,28900,96029,63621","bike_types":{"4":19},"place_type":"0","rack_locks":"1"},{"uid":"2585876","lat":"52.162401","lng":"21.0383811","name":"Jastrz\u0119bowskiego - SGGW","spot":"1","number":"9605","bikes":"13","bike_racks":"28","free_racks":"15","terminal_type":"7inch","bike_numbers":"24712,24708,28818,28556,27373,27352,27304,26722,26185,25877,25431,25426,96085","bike_types":{"4":13},"place_type":"0","rack_locks":"1"},{"uid":"2585880","lat":"52.1557534","lng":"21.0232776","name":"Romera - Pieciolinii","spot":"1","number":"9606","bikes":"15","bike_racks":"16","free_racks":"1","terminal_type":"7inch","bike_numbers":"24991,24977,24822,28366,27583,26523,26195,26155,26149,25839,25420,25210,29096,28994,96552","bike_types":{"4":15},"place_type":"0","rack_locks":"1"},{"uid":"2585883","lat":"52.1568674","lng":"21.0338401","name":"Metro Stok\u0142osy","spot":"1","number":"9607","bikes":"22","bike_racks":"27","free_racks":"5","terminal_type":"7inch","bike_numbers":"24544,28630,28356,28131,27820,27732,27495,27071,27053,26781,26557,26357,26186,25789,25514,25283,25065,28952,28945,28940,28845,96454","bike_types":{"4":22},"place_type":"0","rack_locks":"1"},{"uid":"2585885","lat":"52.1572887","lng":"21.0440084","name":"Roso\u0142a - Ciszewskiego - SGGW","spot":"1","number":"9608","bikes":"9","bike_racks":"30","free_racks":"20","terminal_type":"7inch","bike_numbers":"24853,28377,27426,26504,25135,29346,96025,96465,96358","bike_types":{"4":9},"place_type":"0","rack_locks":"1"},{"uid":"2585888","lat":"52.1521429","lng":"21.0181224","name":"Pu\u0142awska - Pileckiego","spot":"1","number":"9609","bikes":"17","bike_racks":"22","free_racks":"8","terminal_type":"7inch","bike_numbers":"24693,24624,28631,28445,27938,27884,27793,27093,26637,26612,26589,26525,25392,25045,29114,29024,63605","bike_types":{"4":17},"place_type":"0","rack_locks":"1"},{"uid":"2585893","lat":"52.1495064","lng":"21.0332527","name":"Ciszewskiego - Pileckiego","spot":"1","number":"9610","bikes":"8","bike_racks":"22","free_racks":"14","terminal_type":"7inch","bike_numbers":"24886,24715,24554,28416,26193,25015,63629,96338","bike_types":{"4":8},"place_type":"0","rack_locks":"1"},{"uid":"2585894","lat":"52.1549453","lng":"21.0492977","name":"Roso\u0142a - Gandhi","spot":"1","number":"9611","bikes":"7","bike_racks":"22","free_racks":"15","terminal_type":"7inch","bike_numbers":"24862,24475,28701,28689,28599,26695,25448","bike_types":{"4":6,"51":1},"place_type":"0","rack_locks":"1"},{"uid":"2585897","lat":"52.1493105","lng":"21.0453361","name":"Metro Imielin","spot":"1","number":"9612","bikes":"29","bike_racks":"22","free_racks":"0","terminal_type":"7inch","bike_numbers":"24702,24691,28622,28551,27825,27812,27781,27382,27288,27068,26993,26707,26671,26598,26574,26359,26345,26244,26094,26056,25718,25555,25550,25507,25273,29421,63613,29201,29268","bike_types":{"4":29},"place_type":"0","rack_locks":"1"},{"uid":"2585899","lat":"52.1522333","lng":"21.0563922","name":"Roso\u0142a - Weso\u0142a","spot":"1","number":"9613","bikes":"10","bike_racks":"23","free_racks":"13","terminal_type":"7inch","bike_numbers":"28505,27772,27036,26945,26639,25286,25236,25026,60845,96355","bike_types":{"4":10},"place_type":"0","rack_locks":"1"},{"uid":"2585901","lat":"52.1427201","lng":"21.0383624","name":"Pileckiego - Alternatywy","spot":"1","number":"9614","bikes":"18","bike_racks":"30","free_racks":"12","terminal_type":"7inch","bike_numbers":"28372,28340,27724,26748,26499,26333,25867,25557,25536,25377,25315,25117,60831,29660,28974,96053,63628,96388","bike_types":{"4":18},"place_type":"0","rack_locks":"1"},{"uid":"2585902","lat":"52.142735","lng":"21.0448131","name":"Dereniowa - P\u0142askowickiej","spot":"1","number":"9615","bikes":"12","bike_racks":"22","free_racks":"11","terminal_type":"7inch","bike_numbers":"28621,28448,28345,27790,27620,25665,25350,25246,25224,25068,29053,96182","bike_types":{"4":12},"place_type":"0","rack_locks":"1"},{"uid":"2585904","lat":"52.1376039","lng":"21.0505531","name":"Stryje\u0144skich - Belgradzka","spot":"1","number":"9616","bikes":"8","bike_racks":"15","free_racks":"12","terminal_type":"7inch","bike_numbers":"28748,28059,27878,26487,25964,25067,28982,96052","bike_types":{"4":8},"place_type":"0","rack_locks":"1"},{"uid":"2585905","lat":"52.1403909","lng":"21.0568187","name":"Metro Natolin","spot":"1","number":"9617","bikes":"17","bike_racks":"30","free_racks":"17","terminal_type":"7inch","bike_numbers":"28024,27830,27251,27189,27147,26341,26191,25874,25424,25319,28943,28811,28968,60867,96435,96399,29177","bike_types":{"4":17},"place_type":"0","rack_locks":"1"},{"uid":"2585906","lat":"52.1420749","lng":"21.0659905","name":"Belgradzka - Roso\u0142a","spot":"1","number":"9618","bikes":"14","bike_racks":"23","free_racks":"16","terminal_type":"7inch","bike_numbers":"24860,24640,28466,27859,26845,26494,25981,25675,25673,25331,25129,29064,96504,29184","bike_types":{"4":14},"place_type":"0","rack_locks":"1"},{"uid":"2585908","lat":"52.1314333","lng":"21.0561562","name":"Stryje\u0144skich - W\u0105wozowa","spot":"1","number":"9619","bikes":"20","bike_racks":"23","free_racks":"3","terminal_type":"7inch","bike_numbers":"28383,28221,28099,28068,27618,27585,27556,27471,27223,26212,26105,26096,25966,25559,25535,25490,25225,29035,60863,28854","bike_types":{"4":20},"place_type":"0","rack_locks":"1"},{"uid":"2585911","lat":"52.3326052","lng":"20.9418404","name":"Ordon\u00f3wny - \u015awiatowida","spot":"1","number":"9620","bikes":"14","bike_racks":"22","free_racks":"8","terminal_type":"7inch","bike_numbers":"24882,24743,24677,28314,27664,27350,27335,26915,26018,25936,25577,25030,96441,96265","bike_types":{"4":14},"place_type":"0","rack_locks":"1"},{"uid":"2585913","lat":"52.1310925","lng":"21.0654795","name":"Metro Kabaty","spot":"1","number":"9621","bikes":"26","bike_racks":"22","free_racks":"3","terminal_type":"7inch","bike_numbers":"24942,24817,28349,28311,28298,27976,27635,27613,27595,27549,27507,27091,26984,26873,26753,26726,26652,26421,25934,25908,25582,25267,25031,60836,96561,96175","bike_types":{"4":26},"place_type":"0","rack_locks":"1"},{"uid":"2585916","lat":"52.1332642","lng":"21.0747962","name":"W\u0105wozowa - Roso\u0142a","spot":"1","number":"9622","bikes":"15","bike_racks":"18","free_racks":"2","terminal_type":"7inch","bike_numbers":"24651,24638,28001,27987,27894,27278,27043,26669,26351,26126,25437,25218,28800,96038,96107","bike_types":{"4":15},"place_type":"0","rack_locks":"1"},{"uid":"2585917","lat":"52.324116","lng":"21.05663","name":"Skarbka z G\u00f3r - Berensona","spot":"1","number":"9623","bikes":"13","bike_racks":"26","free_racks":"13","terminal_type":"7inch","bike_numbers":"28657,28619,28607,28277,28090,27821,27680,26881,26768,25587,28812,96430,29246","bike_types":{"4":13},"place_type":"0","rack_locks":"1"},{"uid":"2585919","lat":"52.3485329","lng":"20.9418336","name":"Aluzyjna - Tr\u0105by","spot":"1","number":"9624","bikes":"10","bike_racks":"16","free_racks":"8","terminal_type":"7inch","bike_numbers":"27986,26759,26623,26000,25841,29045,29555,96327,96199,96190","bike_types":{"4":10},"place_type":"0","rack_locks":"1"},{"uid":"2585920","lat":"52.3226982","lng":"20.9448107","name":"\u015awiatowida - Mehoffera","spot":"1","number":"9625","bikes":"14","bike_racks":"16","free_racks":"3","terminal_type":"7inch","bike_numbers":"24818,28562,28511,27902,27721,27587,27415,27170,27152,26461,25646,25305,29373,29197","bike_types":{"4":14},"place_type":"0","rack_locks":"1"},{"uid":"2585921","lat":"52.3212548","lng":"20.9477347","name":"Bia\u0142o\u0142\u0119cki O\u015brodek Sportu","spot":"1","number":"9626","bikes":"21","bike_racks":"30","free_racks":"9","terminal_type":"7inch","bike_numbers":"24993,28671,28652,28628,28524,28426,28032,26954,26575,26551,26489,25736,28995,96042,96481,96448,96257,96078,29181,29272,29223","bike_types":{"4":21},"place_type":"0","rack_locks":"1"},{"uid":"2585922","lat":"52.3211272","lng":"20.9712964","name":"Bia\u0142o\u0142\u0119ka-Ratusz","spot":"1","number":"9627","bikes":"11","bike_racks":"19","free_racks":"9","terminal_type":"7inch","bike_numbers":"24900,24833,28771,28431,27167,25603,25506,25300,29108,96396,96248","bike_types":{"4":11},"place_type":"0","rack_locks":"1"},{"uid":"2585924","lat":"52.3132981","lng":"20.9655324","name":"My\u015bliborska - al. Kukli\u0144skiego","spot":"1","number":"9628","bikes":"17","bike_racks":"22","free_racks":"5","terminal_type":"7inch","bike_numbers":"28680,28395,28390,27952,27895,27868,27847,27733,26835,26645,26536,26475,25915,25139,25036,28997,96306","bike_types":{"4":17},"place_type":"0","rack_locks":"1"},{"uid":"2585925","lat":"52.3031984","lng":"20.9891666","name":"Modli\u0144ska - \u017bera\u0144ska","spot":"1","number":"9629","bikes":"31","bike_racks":"30","free_racks":"0","terminal_type":"7inch","bike_numbers":"24849,24675,24560,28308,28127,27982,27871,27725,27704,27657,27080,26941,26769,26763,26757,26692,26678,26188,25968,25710,25398,25297,25092,29125,29133,96524,96486,96138,96129,96117,29254","bike_types":{"4":29,"0":2},"place_type":"0","rack_locks":"1"},{"uid":"2585926","lat":"52.3150181","lng":"21.0610807","name":"Skarbka z G\u00f3r - Magiczna","spot":"1","number":"9630","bikes":"28","bike_racks":"30","free_racks":"0","terminal_type":"7inch","bike_numbers":"24830,24692,24042,25002,28587,28583,28440,28301,28067,27990,27538,27513,27487,27427,27360,27279,27115,26827,26820,26460,25591,25376,25146,29130,96451,96128,96120,29233","bike_types":{"4":26,"26":1,"0":1},"place_type":"0","rack_locks":"1"},{"uid":"2585928","lat":"52.3000268","lng":"21.0425266","name":"P\u0119tla Br\u00f3dno - Podgrodzie","spot":"1","number":"9631","bikes":"15","bike_racks":"16","free_racks":"0","terminal_type":"7inch","bike_numbers":"28750,28734,28566,28550,27650,27512,27484,27450,27274,26986,25929,25807,25701,96240,29157","bike_types":{"4":15},"place_type":"0","rack_locks":"1"},{"uid":"2585929","lat":"52.2939957","lng":"21.0272258","name":"Rembieli\u0144ska - Kondratowicza","spot":"1","number":"9632","bikes":"13","bike_racks":"23","free_racks":"10","terminal_type":"7inch","bike_numbers":"24713,24700,28705,28420,28261,27978,27794,26106,26058,25564,25419,25089,96368","bike_types":{"4":13},"place_type":"0","rack_locks":"1"},{"uid":"2585931","lat":"52.2917236","lng":"21.0481189","name":"Targ\u00f3wek-Ratusz","spot":"1","number":"9633","bikes":"28","bike_racks":"22","free_racks":"0","terminal_type":"7inch","bike_numbers":"24883,24845,24600,28702,28699,28686,28553,28404,28402,28387,28354,28352,28350,28022,27575,26764,26685,26275,25552,25470,25321,25180,29075,96369,96204,96103,29193,96577","bike_types":{"4":28},"place_type":"0","rack_locks":"1"},{"uid":"2585932","lat":"52.292208","lng":"21.0419554","name":"Kondratowicza - Chodecka","spot":"1","number":"9634","bikes":"13","bike_racks":"23","free_racks":"10","terminal_type":"7inch","bike_numbers":"24030,28378,28279,28151,28075,27807,27601,26231,25928,25458,25423,96526,96329","bike_types":{"26":1,"4":12},"place_type":"0","rack_locks":"1"},{"uid":"2585934","lat":"52.2925145","lng":"21.0573949","name":"Kondratowicza - Przy Grodzisku","spot":"1","number":"9635","bikes":"16","bike_racks":"18","free_racks":"2","terminal_type":"7inch","bike_numbers":"28658,28651,28278,27632,27342,26817,26433,26163,26048,25712,29082,29434,29143,96218,29247,29243","bike_types":{"4":15,"0":1},"place_type":"0","rack_locks":"1"},{"uid":"2585936","lat":"52.2878069","lng":"21.0213829","name":"Wysockiego - Poborza\u0144ska","spot":"1","number":"9636","bikes":"17","bike_racks":"23","free_racks":"7","terminal_type":"7inch","bike_numbers":"28758,28741,27742,27290,27138,27035,26979,26844,26756,26599,26138,25406,25170,29112,96539,96203,96080","bike_types":{"4":17},"place_type":"0","rack_locks":"1"},{"uid":"2585937","lat":"52.2885915","lng":"21.0310087","name":"Rembieli\u0144ska - Wyszogrodzka","spot":"1","number":"9637","bikes":"23","bike_racks":"30","free_racks":"5","terminal_type":"7inch","bike_numbers":"24979,24649,28897,28523,28285,27914,27543,27498,27462,27300,26672,26537,26505,26110,26060,29388,29386,28861,28849,96336,29160,29273,29253","bike_types":{"4":23},"place_type":"0","rack_locks":"1"},{"uid":"2585938","lat":"52.2864841","lng":"21.0401998","name":"Chodecka - \u017buromi\u0144ska","spot":"1","number":"9638","bikes":"6","bike_racks":"15","free_racks":"10","terminal_type":"7inch","bike_numbers":"24586,28373,27366,26824,26194,96023","bike_types":{"4":6},"place_type":"0","rack_locks":"1"},{"uid":"2585939","lat":"52.281231017533","lng":"21.025852560997","name":"Wysockiego - Matki Teresy z Kalkuty","spot":"1","number":"9639","bikes":"17","bike_racks":"17","free_racks":"5","terminal_type":"7inch","bike_numbers":"24644,24552,28498,27805,27663,27122,26857,26305,26221,25526,25351,29046,29003,29441,24498,96041,96574","bike_types":{"4":16,"51":1},"place_type":"0","rack_locks":"1"},{"uid":"2585941","lat":"52.2835693","lng":"21.0720858","name":"Blokowa - DK Zacisze","spot":"1","number":"9640","bikes":"30","bike_racks":"18","free_racks":"0","terminal_type":"7inch","bike_numbers":"24876,24776,24775,28634,28449,28267,27832,27609,27584,27561,27116,27007,26980,26634,26546,26501,26237,26214,25977,25821,25731,25435,25357,25100,28954,28863,96350,96261,96132,29249","bike_types":{"4":30},"place_type":"0","rack_locks":"1"},{"uid":"2585942","lat":"52.276259","lng":"21.0530748","name":"P\u0119tla Targ\u00f3wek","spot":"1","number":"9641","bikes":"17","bike_racks":"22","free_racks":"5","terminal_type":"7inch","bike_numbers":"28745,28643,28109,27792,27751,27376,26485,26459,26281,25793,25757,25689,25553,29115,29031,96051,29232","bike_types":{"4":17},"place_type":"0","rack_locks":"1"},{"uid":"2585943","lat":"52.27139","lng":"21.01566","name":"Jagiello\u0144ska - ALK","spot":"1","number":"9642","bikes":"12","bike_racks":"16","free_racks":"4","terminal_type":"7inch","bike_numbers":"27840,27593,27361,27353,27239,25592,25167,25091,25075,96443,96332,96281","bike_types":{"4":12},"place_type":"0","rack_locks":"1"},{"uid":"2585947","lat":"52.2694683","lng":"21.0499817","name":"Ossowskiego","spot":"1","number":"9644","bikes":"10","bike_racks":"17","free_racks":"8","terminal_type":"7inch","bike_numbers":"24928,24606,28456,26793,26530,26529,25882,29030,96288,29222","bike_types":{"4":10},"place_type":"0","rack_locks":"1"},{"uid":"2585951","lat":"52.272602123161","lng":"21.063210368156","name":"Radzymi\u0144ska -Trocka","spot":"1","number":"9645","bikes":"13","bike_racks":"20","free_racks":"7","terminal_type":"7inch","bike_numbers":"28362,28291,28137,28088,27799,27730,27422,27225,25855,29456,29135,29199,29241","bike_types":{"4":12,"0":1},"place_type":"0","rack_locks":"1"},{"uid":"2585953","lat":"52.27347","lng":"21.07698","name":"Bukowiecka - Zamkowa","spot":"1","number":"9646","bikes":"16","bike_racks":"15","free_racks":"0","terminal_type":"7inch","bike_numbers":"24918,24604,24487,27939,27916,27551,27405,27298,26808,25560,25527,25483,25144,29146,96453,96242","bike_types":{"4":14,"51":1,"0":1},"place_type":"0","rack_locks":"1"},{"uid":"2585954","lat":"52.2668885","lng":"21.0585675","name":"Radzymi\u0144ska - Piotra Skargi","spot":"1","number":"9647","bikes":"22","bike_racks":"20","free_racks":"3","terminal_type":"7inch","bike_numbers":"24901,24617,28629,28471,28293,27341,27261,27158,26918,26491,25919,25740,25359,25345,25248,25141,25025,29120,96494,96106,29202,29281","bike_types":{"4":21,"0":1},"place_type":"0","rack_locks":"1"},{"uid":"2585955","lat":"52.2614369","lng":"21.0155744","name":"Wybrze\u017ce Helskie - ZOO","spot":"1","number":"9648","bikes":"14","bike_racks":"22","free_racks":"9","terminal_type":"7inch","bike_numbers":"24870,24855,24811,28642,28376,28076,27199,26998,26949,26761,26667,26562,26257,25944","bike_types":{"4":14},"place_type":"0","rack_locks":"1"},{"uid":"2585956","lat":"52.2632492","lng":"21.0212231","name":"Rondo Starzy\u0144skiego","spot":"1","number":"9649","bikes":"14","bike_racks":"24","free_racks":"9","terminal_type":"7inch","bike_numbers":"24496,28530,28096,27644,27496,26901,26588,26582,26564,26390,25585,25444,96555,96536","bike_types":{"51":1,"4":13},"place_type":"0","rack_locks":"1"},{"uid":"2585958","lat":"52.26421","lng":"21.02618","name":"Darwina - Nusbauma-Hilarowicza","spot":"1","number":"9650","bikes":"14","bike_racks":"21","free_racks":"7","terminal_type":"7inch","bike_numbers":"24938,24696,28148,27162,26777,26758,26584,25775,25751,25466,25368,25182,25099,29154","bike_types":{"4":14},"place_type":"0","rack_locks":"1"},{"uid":"2585960","lat":"52.26554","lng":"21.03122","name":"Namys\u0142owska - Darwina","spot":"1","number":"9651","bikes":"14","bike_racks":"15","free_racks":"8","terminal_type":"7inch","bike_numbers":"24780,28719,27734,27019,27002,26554,26331,25896,25663,29429,29142,96549,96498,96581","bike_types":{"4":13,"0":1},"place_type":"0","rack_locks":"1"},{"uid":"2585961","lat":"52.2690405","lng":"21.0379493","name":"Rondo \u017baba","spot":"1","number":"9652","bikes":"8","bike_racks":"22","free_racks":"12","terminal_type":"7inch","bike_numbers":"28542,28305,27520,27323,26440,25356,29041,96302","bike_types":{"4":8},"place_type":"0","rack_locks":"1"},{"uid":"2585963","lat":"52.2591682","lng":"21.0262224","name":"Jagiello\u0144ska - Plac Hallera","spot":"1","number":"9653","bikes":"13","bike_racks":"20","free_racks":"7","terminal_type":"7inch","bike_numbers":"24842,24481,28134,28005,27622,26783,26666,26297,26033,25811,96387,96386,96181","bike_types":{"4":12,"51":1},"place_type":"0","rack_locks":"1"},{"uid":"2585964","lat":"52.2613811","lng":"21.0305437","name":"Plac Hallera - Sawinkowa","spot":"1","number":"9654","bikes":"19","bike_racks":"28","free_racks":"8","terminal_type":"7inch","bike_numbers":"24729,28647,28394,28258,28214,28103,27627,27412,26886,26644,26327,25739,25414,25400,25150,25076,25050,96328,96579","bike_types":{"4":19},"place_type":"0","rack_locks":"1"},{"uid":"2585967","lat":"52.263","lng":"21.03418","name":"Namys\u0142owska - Szymanowskiego","spot":"1","number":"9655","bikes":"13","bike_racks":"16","free_racks":"3","terminal_type":"7inch","bike_numbers":"24998,28432,28397,27899,27413,27183,26565,26480,25700,25402,25334,28963,28987","bike_types":{"4":13},"place_type":"0","rack_locks":"1"},{"uid":"2585968","lat":"52.2538188","lng":"21.0231542","name":"Ratuszowa - ZOO","spot":"1","number":"9656","bikes":"19","bike_racks":"23","free_racks":"4","terminal_type":"7inch","bike_numbers":"28732,28616,28560,28357,28303,27833,27446,27424,27385,27133,26150,26085,25989,25767,25130,29013,29644,28859,96401","bike_types":{"4":19},"place_type":"0","rack_locks":"1"},{"uid":"2585971","lat":"52.256355","lng":"21.029538","name":"Jagiello\u0144ska - Ratuszowa","spot":"1","number":"9657","bikes":"2","bike_racks":"16","free_racks":"14","terminal_type":"7inch","bike_numbers":"27862,26226","bike_types":{"4":2},"place_type":"0","rack_locks":"1"},{"uid":"2585972","lat":"52.261449","lng":"21.037614","name":"11 Listopada - Ratuszowa","spot":"1","number":"9658","bikes":"31","bike_racks":"30","free_racks":"0","terminal_type":"7inch","bike_numbers":"24793,28569,28439,28427,28302,28295,28209,28114,28026,27764,27761,27723,27616,27560,27449,27175,26922,26709,26503,26404,26366,26166,26036,25910,25810,25415,28799,96452,96431,96326,96163","bike_types":{"4":31},"place_type":"0","rack_locks":"1"},{"uid":"2585974","lat":"52.263109","lng":"21.0381895","name":"11 listopada - \u015arodkowa","spot":"1","number":"9659","bikes":"18","bike_racks":"18","free_racks":"3","terminal_type":"7inch","bike_numbers":"28369,28006,27818,27503,27275,26815,26732,26517,26224,26173,26022,25746,25596,25445,25198,29139,96337,96126","bike_types":{"4":17,"0":1},"place_type":"0","rack_locks":"1"},{"uid":"2585975","lat":"52.25839","lng":"21.03537","name":"Stalowa - 11 Listopada","spot":"1","number":"9660","bikes":"16","bike_racks":"24","free_racks":"8","terminal_type":"7inch","bike_numbers":"24456,28762,28564,28128,28082,27997,27800,27518,26847,25954,25926,25325,29080,96516,29155,29278","bike_types":{"51":1,"4":15},"place_type":"0","rack_locks":"1"},{"uid":"2585978","lat":"52.234791","lng":"21.07905","name":"al. Stan\u00f3w Zjednoczonych - Ostrobramska","spot":"1","number":"9661","bikes":"17","bike_racks":"20","free_racks":"3","terminal_type":"7inch","bike_numbers":"24902,24492,28632,28423,28363,28351,28274,26959,26643,26531,26293,26034,25973,25119,25028,29433,96258","bike_types":{"4":16,"51":1},"place_type":"0","rack_locks":"1"},{"uid":"2585981","lat":"52.2524758","lng":"21.0303479","name":"Floria\u0144ska - Park Praski","spot":"1","number":"9662","bikes":"20","bike_racks":"23","free_racks":"2","terminal_type":"7inch","bike_numbers":"24804,24663,28374,27249,27005,26897,26744,26690,26113,25918,25780,25754,25543,25290,25244,28966,96542,96429,96392,29183","bike_types":{"4":20},"place_type":"0","rack_locks":"1"},{"uid":"2585982","lat":"52.2549757","lng":"21.0339005","name":"Plac Wile\u0144ski","spot":"1","number":"9663","bikes":"40","bike_racks":"30","free_racks":"1","terminal_type":"7inch","bike_numbers":"24770,24720,24490,24479,25008,28675,28521,28421,28385,28044,27944,27778,27544,27165,27009,26987,26513,26379,26229,26204,26179,26168,26111,26064,25987,25666,25606,25593,25573,25570,25093,28879,28915,28971,96011,96474,96294,96266,96231,29174","bike_types":{"4":38,"51":2},"place_type":"0","rack_locks":"1"},{"uid":"2585983","lat":"52.2579576","lng":"21.0399804","name":"Wile\u0144ska - Rzeszotarskiej","spot":"1","number":"9664","bikes":"13","bike_racks":"16","free_racks":"3","terminal_type":"7inch","bike_numbers":"24983,24800,28139,27328,27169,26415,26206,25906,25539,28967,96382,96245,96205","bike_types":{"4":13},"place_type":"0","rack_locks":"1"},{"uid":"2585984","lat":"52.2475848","lng":"20.9568001","name":"al. Prymasa Tysi\u0105clecia - Obozowa","spot":"1","number":"9665","bikes":"4","bike_racks":"13","free_racks":"8","terminal_type":"7inch","bike_numbers":"24532,28009,26829,25269","bike_types":{"4":4},"place_type":"0","rack_locks":"1"},{"uid":"2585985","lat":"52.248607","lng":"21.029647","name":"Okrzei - Panie\u0144ska","spot":"1","number":"9666","bikes":"18","bike_racks":"16","free_racks":"1","terminal_type":"7inch","bike_numbers":"28673,28435,28297,28194,27817,27706,27612,27437,27330,26787,26450,26154,26066,25835,29105,29034,96133,24055","bike_types":{"4":17,"26":1},"place_type":"0","rack_locks":"1"},{"uid":"2585987","lat":"52.2506334","lng":"21.0311174","name":"Sierakowskiego - K\u0142opotowskiego","spot":"1","number":"9667","bikes":"12","bike_racks":"25","free_racks":"13","terminal_type":"7inch","bike_numbers":"24897,24890,27959,27106,26674,26622,26464,25969,25881,25787,96299,96284","bike_types":{"4":12},"place_type":"0","rack_locks":"1"},{"uid":"2585990","lat":"52.2520876","lng":"21.0381368","name":"Targowa - Z\u0105bkowska","spot":"1","number":"9668","bikes":"31","bike_racks":"18","free_racks":"5","terminal_type":"7inch","bike_numbers":"24913,24767,24605,28676,28461,28292,28053,28003,27974,27879,27856,27482,27451,27429,27184,27026,26848,26807,26572,26302,26122,25813,25766,25212,25053,29097,29063,29368,96002,96540,29261","bike_types":{"4":31},"place_type":"0","rack_locks":"1"},{"uid":"2585992","lat":"52.2544855","lng":"21.0433458","name":"Fabryka W\u00f3dek Koneser","spot":"1","number":"9669","bikes":"18","bike_racks":"25","free_racks":"7","terminal_type":"7inch","bike_numbers":"24947,24761,24551,28039,28037,27316,27135,27014,26706,26629,25856,25709,25284,25200,96189,96187,29283,29262","bike_types":{"4":18},"place_type":"0","rack_locks":"1"},{"uid":"2585994","lat":"52.2559027","lng":"21.0495613","name":"Radzymi\u0144ska - Wiosenna","spot":"1","number":"9670","bikes":"15","bike_racks":"26","free_racks":"11","terminal_type":"7inch","bike_numbers":"24995,24880,24725,28660,27869,27554,27212,26985,26947,26866,26273,26109,25034,96155,24049","bike_types":{"4":14,"26":1},"place_type":"0","rack_locks":"1"},{"uid":"2585995","lat":"52.25965","lng":"21.0529","name":"Radzymi\u0144ska - \u0141om\u017cy\u0144ska","spot":"1","number":"9671","bikes":"14","bike_racks":"24","free_racks":"10","terminal_type":"7inch","bike_numbers":"24815,24769,24575,28000,27421,27291,26894,26814,26716,25943,25876,29049,96468,24046","bike_types":{"4":13,"26":1},"place_type":"0","rack_locks":"1"},{"uid":"2585996","lat":"52.2583512","lng":"21.0585337","name":"P\u0119tla Kaw\u0119czy\u0144ska-Bazylika","spot":"1","number":"9672","bikes":"2","bike_racks":"26","free_racks":"23","terminal_type":"7inch","bike_numbers":"25567,96471","bike_types":{"4":2},"place_type":"0","rack_locks":"1"},{"uid":"2585997","lat":"52.249864871462","lng":"21.042911410332","name":"Targowa - Kijowska","spot":"1","number":"9673","bikes":"17","bike_racks":"18","free_racks":"3","terminal_type":"7inch","bike_numbers":"24796,24672,28371,27998,27755,27388,26874,26648,26441,26360,26247,25783,25260,25011,96005,96185,29225","bike_types":{"4":17},"place_type":"0","rack_locks":"1"},{"uid":"2586000","lat":"52.252745","lng":"21.0510331","name":"Dworzec Wschodni - Kijowska","spot":"1","number":"9674","bikes":"34","bike_racks":"27","free_racks":"6","terminal_type":"7inch","bike_numbers":"24794,24787,24669,24647,24542,24514,28627,28575,27614,27493,27381,27357,27301,27277,27124,27054,27044,26990,26684,26673,26573,26454,26263,25857,25785,25693,25617,25498,25159,25154,28956,96272,29229,96583","bike_types":{"4":34},"place_type":"0","rack_locks":"1"},{"uid":"2586001","lat":"52.247314","lng":"21.042731","name":"Metro Stadion Narodowy","spot":"1","number":"9675","bikes":"16","bike_racks":"15","free_racks":"0","terminal_type":"7inch","bike_numbers":"28700,28611,28484,28452,27712,27594,27448,27168,26587,26414,26015,25827,25636,25085,29057,96319","bike_types":{"4":16},"place_type":"0","rack_locks":"1"},{"uid":"2586003","lat":"52.2472308","lng":"21.0476456","name":"al. Zieleniecka - Teatr Powszechny","spot":"1","number":"9676","bikes":"5","bike_racks":"14","free_racks":"9","terminal_type":"7inch","bike_numbers":"24626,25353,25303,96501,96361","bike_types":{"4":5},"place_type":"0","rack_locks":"1"},{"uid":"2586005","lat":"52.247346","lng":"21.055947","name":"Grochowska - Mi\u0144ska","spot":"1","number":"9677","bikes":"10","bike_racks":"22","free_racks":"11","terminal_type":"7inch","bike_numbers":"24531,28087,27858,27469,26957,26151,25760,25745,25716,25652","bike_types":{"4":10},"place_type":"0","rack_locks":"1"},{"uid":"2586009","lat":"52.2464","lng":"21.06868","name":"Praga-Po\u0142udnie-Ratusz","spot":"1","number":"9678","bikes":"14","bike_racks":"15","free_racks":"4","terminal_type":"7inch","bike_numbers":"24783,24634,28300,28126,27439,26698,26653,26041,25957,25816,25467,28872,96009,96087","bike_types":{"4":14},"place_type":"0","rack_locks":"1"},{"uid":"2586011","lat":"52.2501129","lng":"21.0772011","name":"Dwernickiego - Siennicka","spot":"1","number":"9679","bikes":"18","bike_racks":"25","free_racks":"7","terminal_type":"7inch","bike_numbers":"24893,24548,24009,28724,28512,28406,27886,27877,27590,27473,27229,27094,26424,25475,25429,29461,96464,29265","bike_types":{"4":17,"26":1},"place_type":"0","rack_locks":"1"},{"uid":"2586012","lat":"52.260428882956","lng":"21.041538119316","name":"Stalowa - Czynszowa","spot":"1","number":"9680","bikes":"6","bike_racks":"15","free_racks":"9","terminal_type":"7inch","bike_numbers":"24486,28489,26789,26765,96427,29271","bike_types":{"51":1,"4":5},"place_type":"0","rack_locks":"1"},{"uid":"2586014","lat":"52.2372419","lng":"21.0437644","name":"Wybrze\u017ce Szczeci\u0144skie - Stadion Narodowy","spot":"1","number":"9681","bikes":"15","bike_racks":"23","free_racks":"13","terminal_type":"7inch","bike_numbers":"24494,28706,28597,28593,28077,27971,27178,27172,27084,25933,25779,25546,25084,25063,29182","bike_types":{"51":1,"4":14},"place_type":"0","rack_locks":"1"},{"uid":"2586018","lat":"52.2387103","lng":"21.0507515","name":"Rondo Waszyngtona - Stadion Narodowy","spot":"1","number":"9682","bikes":"21","bike_racks":"27","free_racks":"4","terminal_type":"7inch","bike_numbers":"24964,24960,24676,24474,28720,28494,27562,27208,26816,25872,25771,25749,25595,25169,29446,29451,28865,28862,96509,96402,96582","bike_types":{"4":20,"51":1},"place_type":"0","rack_locks":"1"},{"uid":"2586019","lat":"52.242281006874","lng":"21.071160435677","name":"Waszyngtona - Kinowa","spot":"1","number":"9683","bikes":"3","bike_racks":"15","free_racks":"11","terminal_type":"7inch","bike_numbers":"24545,27182,29367","bike_types":{"4":3},"place_type":"0","rack_locks":"1"},{"uid":"2586021","lat":"52.2445639","lng":"21.0838057","name":"Rondo Wiatraczna","spot":"1","number":"9684","bikes":"35","bike_racks":"30","free_racks":"0","terminal_type":"7inch","bike_numbers":"24955,24613,24528,24466,28693,28557,28436,28310,28074,28016,27865,27731,27589,27454,27363,26940,26934,26837,26511,26473,26211,26043,25953,25838,25610,25452,25282,25245,25206,25196,25056,29070,28798,96149,96116","bike_types":{"4":34,"51":1},"place_type":"0","rack_locks":"1"},{"uid":"2586022","lat":"52.2347451","lng":"21.053651","name":"Francuska - Walecznych","spot":"1","number":"9685","bikes":"9","bike_racks":"15","free_racks":"7","terminal_type":"7inch","bike_numbers":"24593,24005,27777,27270,25478,25446,25126,29422,29264","bike_types":{"4":8,"26":1},"place_type":"0","rack_locks":"1"},{"uid":"2586024","lat":"52.236598","lng":"21.064774","name":"Mi\u0119dzynarodowa - Walecznych","spot":"1","number":"9686","bikes":"3","bike_racks":"15","free_racks":"12","terminal_type":"7inch","bike_numbers":"27925,27642,26627","bike_types":{"4":3},"place_type":"0","rack_locks":"1"},{"uid":"2586026","lat":"52.243020071904","lng":"21.102375984192","name":"Plac Szembeka","spot":"1","number":"9687","bikes":"13","bike_racks":"15","free_racks":"2","terminal_type":"7inch","bike_numbers":"24779,27651,26606,26502,26371,26131,26093,26014,25381,25233,25160,25107,29175","bike_types":{"4":13},"place_type":"0","rack_locks":"1"},{"uid":"2586028","lat":"52.237559","lng":"21.120087","name":"P\u0119tla Goc\u0142awek","spot":"1","number":"9688","bikes":"10","bike_racks":"16","free_racks":"9","terminal_type":"7inch","bike_numbers":"24546,27608,27408,27118,25996,25905,25670,25598,96045,96449","bike_types":{"4":10},"place_type":"0","rack_locks":"1"},{"uid":"2586030","lat":"52.2258359","lng":"21.0600907","name":"Brukselska - PROM","spot":"1","number":"9689","bikes":"18","bike_racks":"15","free_racks":"0","terminal_type":"7inch","bike_numbers":"24982,28873,28690,28411,28211,27932,27718,27692,27505,27398,26691,26514,26469,26162,25043,29110,96017,96589","bike_types":{"4":18},"place_type":"0","rack_locks":"1"},{"uid":"2586031","lat":"52.260205610017","lng":"21.046854257584","name":"al. Solidarno\u015bci - Szwedzka","spot":"1","number":"9690","bikes":"20","bike_racks":"18","free_racks":"3","terminal_type":"7inch","bike_numbers":"28499,28348,28058,27864,27533,27489,27134,26956,26400,26032,26027,25985,25649,25088,25624,96569,96287,29269,29266,24051","bike_types":{"4":19,"26":1},"place_type":"0","rack_locks":"1"},{"uid":"2586032","lat":"52.230088","lng":"21.067948","name":"al. Stan\u00f3w Zjednoczonych - Mi\u0119dzynarodowa","spot":"1","number":"9691","bikes":"21","bike_racks":"26","free_racks":"6","terminal_type":"7inch","bike_numbers":"24685,24620,28892,28491,27634,27536,27530,27377,26826,26635,26243,26143,25523,25277,25211,25101,25072,29033,29015,28853,96436","bike_types":{"4":21},"place_type":"0","rack_locks":"1"},{"uid":"2586034","lat":"52.23483","lng":"21.09975","name":"Ostrobramska - Zamieniecka","spot":"1","number":"9692","bikes":"19","bike_racks":"23","free_racks":"6","terminal_type":"7inch","bike_numbers":"24915,28819,27747,27648,27432,27233,27215,27112,26493,26139,25941,25699,25581,25575,25534,25421,25149,96363,96291","bike_types":{"4":19},"place_type":"0","rack_locks":"1"},{"uid":"2586037","lat":"52.2251969","lng":"21.0712892","name":"Afryka\u0144ska - Egipska","spot":"1","number":"9693","bikes":"17","bike_racks":"16","free_racks":"2","terminal_type":"7inch","bike_numbers":"24969,24583,24518,28760,28389,28158,27870,27698,27246,26383,25386,25110,28864,96502,96476,96341,24054","bike_types":{"4":16,"26":1},"place_type":"0","rack_locks":"1"},{"uid":"2586039","lat":"52.22837","lng":"21.08581","name":"Abrahama - Kapelan\u00f3w AK","spot":"1","number":"9694","bikes":"24","bike_racks":"15","free_racks":"0","terminal_type":"7inch","bike_numbers":"24972,24909,24630,24607,28623,28515,28496,28454,27605,27483,27414,27243,26982,25899,25865,25819,25517,25379,25302,25083,25079,96324,96318,29240","bike_types":{"4":24},"place_type":"0","rack_locks":"1"},{"uid":"2586042","lat":"52.2296088","lng":"21.0945572","name":"Fieldorfa - Bukowskiego","spot":"1","number":"9695","bikes":"21","bike_racks":"20","free_racks":"19","terminal_type":"7inch","bike_numbers":"24766,24635,28765,28614,27521,27476,27410,27193,27146,26657,26542,26344,26091,25963,25904,25696,25127,29005,28946,28884,96018","bike_types":{"4":21},"place_type":"0","rack_locks":"1"},{"uid":"2586044","lat":"52.22974","lng":"21.10624","name":"Rechniewskiego - Nowaka-Jeziora\u0144skiego","spot":"1","number":"9696","bikes":"16","bike_racks":"30","free_racks":"17","terminal_type":"7inch","bike_numbers":"24888,24495,28662,28207,28105,28093,28085,27953,27411,27140,26641,26025,25275,28823,29176,29147","bike_types":{"4":15,"51":1},"place_type":"0","rack_locks":"1"},{"uid":"2586045","lat":"52.2223071","lng":"21.0907259","name":"Meissnera - Fieldorfa","spot":"1","number":"9697","bikes":"21","bike_racks":"15","free_racks":"5","terminal_type":"7inch","bike_numbers":"24705,24505,28534,28465,28322,28252,27853,27697,27555,27321,27267,27033,26655,26367,26253,26023,25296,29213,28860,28841,96296","bike_types":{"4":21},"place_type":"0","rack_locks":"1"},{"uid":"2586268","lat":"52.23938046828","lng":"21.016716957092","name":"Krakowskie Przedmie\u015bcie - Traugutta 2","spot":"1","number":"94931","bikes":"21","bike_racks":"24","free_racks":"4","terminal_type":"7inch","bike_numbers":"28773,28585,28319,28208,26995,26801,26733,26352,26299,26045,26020,25729,25578,25487,25441,25416,25070,29076,29553,96013,96531","bike_types":{"4":21},"place_type":"0","rack_locks":"1"},{"uid":"2586270","lat":"52.241814568386","lng":"21.024039387703","name":"Lipowa - Dobra 2","spot":"1","number":"94961","bikes":"20","bike_racks":"19","free_racks":"0","terminal_type":"7inch","bike_numbers":"28581,28549,28091,28086,28080,28012,27977,27789,27714,27580,27370,26810,26809,26209,25895,25240,29062,96311,96077,29256","bike_types":{"4":20},"place_type":"0","rack_locks":"1"},{"uid":"2586272","lat":"52.219916006513","lng":"21.011733412743","name":"Plac Politechniki 2","spot":"1","number":"95381","bikes":"8","bike_racks":"27","free_racks":"17","terminal_type":"7inch","bike_numbers":"24781,28493,27409,26928,26471,26065,25382,28837","bike_types":{"4":8},"place_type":"0","rack_locks":"1"},