[{"region_info":{"lat":"52.2345","lng":"21.0024","zoom":"11","name":"VETURILO Poland","hotline":"+4819115","domain":"vp","language":"pl","email":"info@nextbike.pl","timezone":"Europe\/Warsaw","currency":"PLN","country_calling_code":"+48","system_operator_address":"Nextbike Polska S.A. ul. Przasnyska 6B, 01-756 Warszawa","country":"PL","country_name":"Poland","terms":"http:\/\/www.veturilo.waw.pl\/terms\/?v=201701","policy":"","website":"http:\/\/www.veturilo.waw.pl\/","show_free_racks":"1","booked_bikes":"0","set_point_bikes":"5282","available_bikes":"4426"},"places_summary":{"lngMin":20.8689688,"lngMax":21.120087,"latMin":52.117285,"latMax":52.3485329,"lngAvg":21.008117591667,"latAvg":52.230678041088},"places":[{"uid":"2585259","lat":"52.296298","lng":"20.9583575","name":"Dewajtis - UKSW","spot":"1","number":"9402","bikes":"19","bike_racks":"30","free_racks":"12","terminal_type":"7inch","bike_numbers":"28354,27930,27811,27644,27594,27348,27142,26835,26301,26242,26093,25857,25221,25107,60830,96402,29155,29254,96581","bike_types":{"4":19},"place_type":"0","rack_locks":"1"},{"uid":"2585263","lat":"52.2909738","lng":"20.9295559","name":"Metro M\u0142ociny","spot":"1","number":"9403","bikes":"20","bike_racks":"30","free_racks":"8","terminal_type":"7inch","bike_numbers":"24966,24865,24699,24675,24567,28444,28391,28147,27997,26331,26065,25907,25650,25406,25317,25264,29050,29428,28814,28861","bike_types":{"4":20},"place_type":"0","rack_locks":"1"},{"uid":"2585265","lat":"52.2901732","lng":"20.9503698","name":"Marymoncka - Dewajtis","spot":"1","number":"9404","bikes":"19","bike_racks":"30","free_racks":"10","terminal_type":"7inch","bike_numbers":"24804,24799,27402,27291,26862,26847,26591,26278,26038,25950,25904,25306,25214,29089,28828,96439,96391,96326,29261","bike_types":{"4":19},"place_type":"0","rack_locks":"1"},{"uid":"2585267","lat":"52.285914","lng":"20.940561","name":"Metro Wawrzyszew","spot":"1","number":"9405","bikes":"11","bike_racks":"20","free_racks":"8","terminal_type":"7inch","bike_numbers":"24716,28729,28575,28547,27427,26097,25897,25483,29649,96235,29275","bike_types":{"4":11},"place_type":"0","rack_locks":"1"},{"uid":"2585269","lat":"52.2336142","lng":"21.0146353","name":"G\u00f3rskiego - Szpitalna","spot":"1","number":"9406","bikes":"12","bike_racks":"16","free_racks":"6","terminal_type":"7inch","bike_numbers":"28055,27815,26887,26676,26401,26191,25391,25370,25091,96060,96459,96202","bike_types":{"4":12},"place_type":"0","rack_locks":"1"},{"uid":"2585271","lat":"52.2816265","lng":"20.9498871","name":"Metro Stare Bielany","spot":"1","number":"9407","bikes":"23","bike_racks":"30","free_racks":"5","terminal_type":"7inch","bike_numbers":"24876,24635,28757,28694,28619,28577,28340,28320,28282,27579,27433,27233,26938,26476,25987,25822,25818,25740,25612,25053,25013,96077,29241","bike_types":{"4":23},"place_type":"0","rack_locks":"1"},{"uid":"2585272","lat":"52.2361217","lng":"21.0219096","name":"Ordynacka - Uniwersytet Muzyczny","spot":"1","number":"9408","bikes":"12","bike_racks":"20","free_racks":"6","terminal_type":"7inch","bike_numbers":"24598,28819,27901,27271,27134,26698,26025,25583,25333,25308,96130,29224","bike_types":{"4":12},"place_type":"0","rack_locks":"1"},{"uid":"2585273","lat":"52.2768774","lng":"20.9481302","name":"Bielany-Ratusz","spot":"1","number":"9409","bikes":"20","bike_racks":"28","free_racks":"8","terminal_type":"7inch","bike_numbers":"24931,24721,28371,27830,27514,27298,26936,26853,26291,26150,25358,29109,96036,96473,96285,96236,96106,96093,29197,96589","bike_types":{"4":20},"place_type":"0","rack_locks":"1"},{"uid":"2585275","lat":"52.2761569","lng":"20.9616673","name":"Metro S\u0142odowiec","spot":"1","number":"9410","bikes":"20","bike_racks":"30","free_racks":"9","terminal_type":"7inch","bike_numbers":"24608,24588,28285,28096,27316,27182,27086,26786,26646,26513,26495,25963,25527,25292,29110,28863,28991,96393,29253,29240","bike_types":{"4":20},"place_type":"0","rack_locks":"1"},{"uid":"2585278","lat":"52.2777751","lng":"20.9856999","name":"Potocka - OSiR \u017boliborz","spot":"1","number":"9411","bikes":"7","bike_racks":"15","free_racks":"8","terminal_type":"7inch","bike_numbers":"27938,27817,27595,26682,26433,25655,28982","bike_types":{"4":7},"place_type":"0","rack_locks":"1"},{"uid":"2585280","lat":"52.273527782989","lng":"20.994186401367","name":"Gwia\u017adzista - Promyka","spot":"1","number":"9412","bikes":"12","bike_racks":"16","free_racks":"4","terminal_type":"7inch","bike_numbers":"24538,28672,28579,28087,27765,27256,27231,27019,25026,28911,96348,29279","bike_types":{"4":12},"place_type":"0","rack_locks":"1"},{"uid":"2585281","lat":"52.270941","lng":"20.9326269","name":"al. Reymonta - Conrada","spot":"1","number":"9413","bikes":"24","bike_racks":"30","free_racks":"6","terminal_type":"7inch","bike_numbers":"24970,28886,28701,28601,28138,28101,28022,27921,27841,27790,27685,27590,27273,27132,26905,26774,26447,25786,25203,25626,25624,96268,96248,96223","bike_types":{"4":24},"place_type":"0","rack_locks":"1"},{"uid":"2585283","lat":"52.2706441","lng":"20.9504181","name":"Broniewskiego - Perzy\u0144skiego","spot":"1","number":"9414","bikes":"11","bike_racks":"16","free_racks":"3","terminal_type":"7inch","bike_numbers":"28698,28271,28026,27771,27466,26988,26808,26135,25784,25305,29180","bike_types":{"4":11},"place_type":"0","rack_locks":"1"},{"uid":"2585284","lat":"52.2714203","lng":"20.9727099","name":"Metro Marymont","spot":"1","number":"9415","bikes":"10","bike_racks":"30","free_racks":"19","terminal_type":"7inch","bike_numbers":"28658,28622,28020,27450,26751,26422,25400,25031,96284,29154","bike_types":{"4":10},"place_type":"0","rack_locks":"1"},{"uid":"2585285","lat":"52.2694081","lng":"20.9833664","name":"Metro Plac Wilsona","spot":"1","number":"9416","bikes":"15","bike_racks":"21","free_racks":"1","terminal_type":"7inch","bike_numbers":"24945,27707,27250,27074,26926,26889,26828,26466,26400,25983,25668,29042,29445,96529,96449","bike_types":{"4":15},"place_type":"0","rack_locks":"1"},{"uid":"2585286","lat":"52.2668623","lng":"20.9637032","name":"Broniewskiego - W\u0142o\u015bcia\u0144ska","spot":"1","number":"9417","bikes":"9","bike_racks":"19","free_racks":"10","terminal_type":"7inch","bike_numbers":"28563,27761,27381,26901,26326,26243,25989,25573,29051","bike_types":{"4":9},"place_type":"0","rack_locks":"1"},{"uid":"2585288","lat":"52.2643984","lng":"20.9723179","name":"Broniewskiego - Krasi\u0144skiego","spot":"1","number":"9418","bikes":"8","bike_racks":"16","free_racks":"9","maintenance":"1","terminal_type":"7inch","bike_numbers":"28728,28075,28003,26648,26636,25517,25499,96573","bike_types":{"4":8},"place_type":"0","rack_locks":"1"},{"uid":"2585289","lat":"52.267875","lng":"21.0020667","name":"Wybrze\u017ce Gdy\u0144skie - KS Sp\u00f3jnia","spot":"1","number":"9419","bikes":"12","bike_racks":"15","free_racks":"2","terminal_type":"7inch","bike_numbers":"24843,24042,28558,27967,27500,26611,25916,25902,25674,29088,96186,96165","bike_types":{"4":11,"26":1},"place_type":"0","rack_locks":"1"},{"uid":"2585291","lat":"52.2624054","lng":"20.9802551","name":"Plac Grunwaldzki","spot":"1","number":"9420","bikes":"18","bike_racks":"30","free_racks":"11","terminal_type":"7inch","bike_numbers":"24660,24475,28385,28256,28145,27432,27398,26450,26271,26256,25948,25884,25846,25635,25534,25147,29075,96029","bike_types":{"4":17,"51":1},"place_type":"0","rack_locks":"1"},{"uid":"2585296","lat":"52.2612575","lng":"20.9863191","name":"Zaj\u0105czka - Bitwy Pod Rokitn\u0105","spot":"1","number":"9421","bikes":"11","bike_racks":"15","free_racks":"4","terminal_type":"7inch","bike_numbers":"24557,28111,27844,27259,27010,26844,25712,29434,29269,96577,96576","bike_types":{"4":11},"place_type":"0","rack_locks":"1"},{"uid":"2585297","lat":"52.2645018","lng":"20.9895998","name":"Plac Inwalid\u00f3w","spot":"1","number":"9422","bikes":"12","bike_racks":"15","free_racks":"3","terminal_type":"7inch","bike_numbers":"24795,24569,28587,28429,28295,28193,26823,26704,26277,26096,25325,25315","bike_types":{"4":12},"place_type":"0","rack_locks":"1"},{"uid":"2585299","lat":"52.258245356688","lng":"20.898613929749","name":"P\u0119tla Stare Bemowo","spot":"1","number":"9423","bikes":"8","bike_racks":"21","free_racks":"13","terminal_type":"7inch","bike_numbers":"24658,28763,28487,28474,26627,25228,25116,96034","bike_types":{"4":8},"place_type":"0","rack_locks":"1"},{"uid":"2585301","lat":"52.260895125763","lng":"20.923923254013","name":"P\u0119tla Nowe Bemowo","spot":"1","number":"9424","bikes":"19","bike_racks":"25","free_racks":"6","terminal_type":"7inch","bike_numbers":"24752,24624,24487,28662,28486,28483,27656,27565,27389,27125,26526,26475,26003,25435,25420,25399,25096,29458,96183","bike_types":{"4":18,"51":1},"place_type":"0","rack_locks":"1"},{"uid":"2585304","lat":"52.2575903","lng":"20.9323374","name":"Obro\u0144c\u00f3w Tobruku - Pieni\u0105\u017cka","spot":"1","number":"9425","bikes":"15","bike_racks":"22","free_racks":"7","terminal_type":"7inch","bike_numbers":"24930,24026,28716,27877,27723,27684,27523,27345,27283,26525,26095,25872,25157,96321,96092","bike_types":{"4":14,"26":1},"place_type":"0","rack_locks":"1"},{"uid":"2585305","lat":"52.2593225","lng":"20.9605511","name":"Pow\u0105zkowska - Krasi\u0144skiego","spot":"1","number":"9426","bikes":"6","bike_racks":"23","free_racks":"17","terminal_type":"7inch","bike_numbers":"24028,24020,24006,27581,28960,96296","bike_types":{"26":3,"4":3},"place_type":"0","rack_locks":"1"},{"uid":"2585306","lat":"52.2563145","lng":"20.9682307","name":"Pow\u0105zkowska - Plac Niemena","spot":"1","number":"9427","bikes":"11","bike_racks":"16","free_racks":"5","terminal_type":"7inch","bike_numbers":"28128,26927,26836,26684,26045,25925,28949,29132,28895,96100,96083","bike_types":{"4":10,"0":1},"place_type":"0","rack_locks":"1"},{"uid":"2585307","lat":"52.258524460024","lng":"20.970931649208","name":"Przasnyska - Rydygiera","spot":"1","number":"9428","bikes":"9","bike_racks":"15","free_racks":"6","terminal_type":"7inch","bike_numbers":"24525,27785,27697,26993,26461,26211,25796,25155,96152","bike_types":{"4":9},"place_type":"0","rack_locks":"1"},{"uid":"2585308","lat":"52.253594","lng":"20.9798744","name":"Pow\u0105zkowska - Burakowska","spot":"1","number":"9429","bikes":"13","bike_racks":"20","free_racks":"7","terminal_type":"7inch","bike_numbers":"24984,24024,28597,28336,27373,26357,26274,26238,25837,25241,25080,28941,96206","bike_types":{"4":12,"26":1},"place_type":"0","rack_locks":"1"},{"uid":"2585311","lat":"52.2576018","lng":"20.9944975","name":"Metro Dworzec Gda\u0144ski","spot":"1","number":"9430","bikes":"27","bike_racks":"30","free_racks":"5","terminal_type":"7inch","bike_numbers":"24714,24682,24634,24597,28897,28885,28416,28394,27769,27559,27527,27249,27156,27124,26984,26768,26456,26380,25945,25813,25199,25074,25044,96041,96400,96159,29220","bike_types":{"4":27},"place_type":"0","rack_locks":"1"},{"uid":"2585315","lat":"52.2465952","lng":"20.9429216","name":"Obozowa - Cio\u0142ka","spot":"1","number":"9432","bikes":"7","bike_racks":"13","free_racks":"7","terminal_type":"7inch","bike_numbers":"24934,24862,28457,27449,27063,26406,28908","bike_types":{"4":7},"place_type":"0","rack_locks":"1"},{"uid":"2585317","lat":"52.227621983552","lng":"20.956758856773","name":"al. Prymasa Tysi\u0105clecia - Kasprzaka","spot":"1","number":"9433","bikes":"10","bike_racks":"23","free_racks":"14","terminal_type":"7inch","bike_numbers":"24929,24742,27878,27866,27620,26921,26158,25591,29121,96177","bike_types":{"4":9,"0":1},"place_type":"0","rack_locks":"1"},{"uid":"2585319","lat":"52.246037","lng":"20.962463","name":"Obozowa - Radziwie","spot":"1","number":"9434","bikes":"5","bike_racks":"13","free_racks":"8","terminal_type":"7inch","bike_numbers":"26822,26511,26019,25866,29388","bike_types":{"4":5},"place_type":"0","rack_locks":"1"},{"uid":"2585321","lat":"52.2514708","lng":"20.9857053","name":"al. Jana Paw\u0142a II - Stawki","spot":"1","number":"9435","bikes":"16","bike_racks":"23","free_racks":"7","terminal_type":"7inch","bike_numbers":"24937,24589,24509,28667,28135,27621,27118,26396,26304,26286,26066,25342,29013,29641,28827,96396","bike_types":{"4":16},"place_type":"0","rack_locks":"1"},{"uid":"2585323","lat":"52.2535305","lng":"20.9924922","name":"Stawki - Dubois","spot":"1","number":"9436","bikes":"0","bike_racks":"13","free_racks":"13","terminal_type":"7inch","place_type":"0","rack_locks":"1","bike_numbers":null,"bike_types":[]},{"uid":"2585326","lat":"52.2541702","lng":"20.9980649","name":"Andersa - Muranowska","spot":"1","number":"9437","bikes":"14","bike_racks":"30","free_racks":"14","terminal_type":"7inch","bike_numbers":"24958,28731,28034,27520,27473,27392,26971,26199,25478,25198,25085,29115,28989,96033","bike_types":{"4":14},"place_type":"0","rack_locks":"1"},{"uid":"2585327","lat":"52.255877","lng":"21.0099819","name":"Sanguszki - Wybrze\u017ce Gda\u0144skie","spot":"1","number":"9438","bikes":"24","bike_racks":"28","free_racks":"6","terminal_type":"7inch","bike_numbers":"28602,28586,28355,28151,28023,27698,27564,27157,26939,26686,26486,26201,26157,25988,25614,25469,25099,29646,28841,96527,96492,96442,29179,29167","bike_types":{"4":24},"place_type":"0","rack_locks":"1"},{"uid":"2585330","lat":"52.24418","lng":"20.97794","name":"Okopowa - Anielewicza","spot":"1","number":"9440","bikes":"11","bike_racks":"20","free_racks":"9","terminal_type":"7inch","bike_numbers":"24891,24505,28523,27983,27948,27337,26929,26385,26325,26020,29251","bike_types":{"4":11},"place_type":"0","rack_locks":"1"},{"uid":"2585333","lat":"52.2486","lng":"20.98352","name":"Smocza - Mi\u0142a","spot":"1","number":"9441","bikes":"0","bike_racks":"15","free_racks":"15","terminal_type":"7inch","place_type":"0","rack_locks":"1","bike_numbers":null,"bike_types":[]},{"uid":"2585334","lat":"52.24616","lng":"20.98538","name":"Smocza - Anielewicza","spot":"1","number":"9442","bikes":"4","bike_racks":"17","free_racks":"14","terminal_type":"7inch","bike_numbers":"27805,27701,26568,25990","bike_types":{"4":4},"place_type":"0","rack_locks":"1"},{"uid":"2585335","lat":"52.247226","lng":"20.9893155","name":"al. Jana Paw\u0142a II - Anielewicza","spot":"1","number":"9443","bikes":"1","bike_racks":"22","free_racks":"21","terminal_type":"7inch","bike_numbers":"27228","bike_types":{"4":1},"place_type":"0","rack_locks":"1"},{"uid":"2585337","lat":"52.249052","lng":"20.9948923","name":"Anielewicza - Zamenhofa","spot":"1","number":"9444","bikes":"2","bike_racks":"15","free_racks":"12","terminal_type":"7inch","bike_numbers":"27996,96221","bike_types":{"4":2},"place_type":"0","rack_locks":"1"},{"uid":"2585338","lat":"52.2492196","lng":"20.9971878","name":"Anielewicza - Andersa","spot":"1","number":"9445","bikes":"5","bike_racks":"20","free_racks":"15","terminal_type":"7inch","bike_numbers":"24874,28309,27900,26299,26269","bike_types":{"4":5},"place_type":"0","rack_locks":"1"},{"uid":"2585340","lat":"52.251549","lng":"21.002749","name":"Bonifraterska - Franciszka\u0144ska","spot":"1","number":"9446","bikes":"11","bike_racks":"18","free_racks":"6","terminal_type":"7inch","bike_numbers":"28638,27546,26861,26432,26014,28851,28844,96569,96101,29265,29232","bike_types":{"4":11},"place_type":"0","rack_locks":"1"},{"uid":"2585342","lat":"52.2541119","lng":"21.0093342","name":"Ko\u015bcielna - Piesza","spot":"1","number":"9448","bikes":"14","bike_racks":"26","free_racks":"12","terminal_type":"7inch","bike_numbers":"24955,24693,28324,27585,27257,27236,26556,26533,25130,29111,29065,29045,28840,28965","bike_types":{"4":14},"place_type":"0","rack_locks":"1"},{"uid":"2585344","lat":"52.2392622","lng":"20.8987641","name":"P\u0119tla Os. G\u00f3rczewska","spot":"1","number":"9449","bikes":"7","bike_racks":"15","free_racks":"7","terminal_type":"7inch","bike_numbers":"24782,27777,27598,26660,25685,96479,29262","bike_types":{"4":7},"place_type":"0","rack_locks":"1"},{"uid":"2585345","lat":"52.2389287","lng":"20.9139535","name":"Bemowo-Ratusz","spot":"1","number":"9450","bikes":"23","bike_racks":"20","free_racks":"0","terminal_type":"7inch","bike_numbers":"24953,24458,28898,28682,28440,27959,27893,27752,27614,27501,27413,27221,27097,27002,26894,26749,26654,25939,25568,29454,28777,96535,96534","bike_types":{"4":22,"51":1},"place_type":"0","rack_locks":"1"},{"uid":"2585346","lat":"52.2387861","lng":"20.9424946","name":"Okocimska - Olbrachta","spot":"1","number":"9451","bikes":"17","bike_racks":"18","free_racks":"0","terminal_type":"7inch","bike_numbers":"24849,24501,28511,28459,28221,27823,27613,27572,26663,26448,25924,25771,25578,29056,29026,96518,96079","bike_types":{"4":17},"place_type":"0","rack_locks":"1"},{"uid":"2585349","lat":"52.2506241","lng":"21.0533611","name":"Dworzec Wschodni - Lubelska","spot":"1","number":"9452","bikes":"13","bike_racks":"15","free_racks":"2","terminal_type":"7inch","bike_numbers":"24583,28401,27441,27372,26398,25965,25604,25542,25193,29005,96361,96267,29204","bike_types":{"4":13},"place_type":"0","rack_locks":"1"},{"uid":"2585351","lat":"52.2369249","lng":"20.9723559","name":"Leszno - M\u0142ynarska","spot":"1","number":"9453","bikes":"11","bike_racks":"30","free_racks":"19","terminal_type":"7inch","bike_numbers":"24868,24029,27973,26987,26859,25472,25253,29552,96368,29255,29233","bike_types":{"4":10,"26":1},"place_type":"0","rack_locks":"1"},{"uid":"2585352","lat":"52.2430451","lng":"20.9803864","name":"Dzielna - Bellottiego","spot":"1","number":"9454","bikes":"3","bike_racks":"13","free_racks":"8","terminal_type":"7inch","bike_numbers":"27858,25789,25226","bike_types":{"4":3},"place_type":"0","rack_locks":"1"},{"uid":"2585353","lat":"52.24108","lng":"20.98316","name":"Wolno\u015b\u0107 - Bellottiego","spot":"1","number":"9455","bikes":"5","bike_racks":"16","free_racks":"12","terminal_type":"7inch","bike_numbers":"28477,27956,26794,25714,28946","bike_types":{"4":5},"place_type":"0","rack_locks":"1"},{"uid":"2585354","lat":"52.2435448","lng":"20.9873507","name":"Smocza - Nowolipki","spot":"1","number":"9456","bikes":"3","bike_racks":"16","free_racks":"13","terminal_type":"7inch","bike_numbers":"27073,26273,25885","bike_types":{"4":3},"place_type":"0","rack_locks":"1"},{"uid":"2585356","lat":"52.2445767","lng":"20.99177","name":"al. Jana Paw\u0142a II - Nowolipki","spot":"1","number":"9457","bikes":"0","bike_racks":"16","free_racks":"15","terminal_type":"7inch","place_type":"0","rack_locks":"1","bike_numbers":null,"bike_types":[]},{"uid":"2585358","lat":"52.22868","lng":"20.91509","name":"Powsta\u0144c\u00f3w \u015al\u0105skich - Cz\u0142uchowska","spot":"1","number":"9458","bikes":"11","bike_racks":"16","free_racks":"4","terminal_type":"7inch","bike_numbers":"24885,24595,28549,28025,27470,26589,25794,25665,25115,96438,96371","bike_types":{"4":11},"place_type":"0","rack_locks":"1"},{"uid":"2585360","lat":"52.2342032","lng":"20.934689","name":"Jana Olbrachta - Antka Rozpylacza","spot":"1","number":"9459","bikes":"11","bike_racks":"13","free_racks":"2","terminal_type":"7inch","bike_numbers":"24773,24755,24573,24523,28419,28319,27390,26436,26092,25912,25388","bike_types":{"4":11},"place_type":"0","rack_locks":"1"},{"uid":"2585364","lat":"52.2401623","lng":"20.9877277","name":"Wola-Ratusz","spot":"1","number":"9460","bikes":"8","bike_racks":"15","free_racks":"6","terminal_type":"7inch","bike_numbers":"28659,27800,27341,27328,26464,26115,25962,96592","bike_types":{"4":8},"place_type":"0","rack_locks":"1"},{"uid":"2585368","lat":"52.2445326","lng":"20.99998","name":"Plac Bankowy - Kino Muran\u00f3w","spot":"1","number":"9462","bikes":"12","bike_racks":"17","free_racks":"4","terminal_type":"7inch","bike_numbers":"24551,24522,28650,28325,27578,27496,26381,25648,25252,28808,96403,96257","bike_types":{"4":12},"place_type":"0","rack_locks":"1"},{"uid":"2585369","lat":"52.2449465","lng":"21.0012943","name":"Andersa - D\u0142uga","spot":"1","number":"9463","bikes":"4","bike_racks":"30","free_racks":"26","terminal_type":"7inch","bike_numbers":"24790,27186,27089,26111","bike_types":{"4":4},"place_type":"0","rack_locks":"1"},{"uid":"2585370","lat":"52.2442666","lng":"21.0015893","name":"Marsza\u0142kowska - al. Solidarno\u015bci","spot":"1","number":"9464","bikes":"13","bike_racks":"30","free_racks":"17","terminal_type":"7inch","bike_numbers":"24580,24472,28661,28141,28008,27513,26957,25641,25508,25248,29043,96480,96470","bike_types":{"4":12,"51":1},"place_type":"0","rack_locks":"1"},{"uid":"2585371","lat":"52.2431975","lng":"21.0016603","name":"Plac Bankowy - Ratusz","spot":"1","number":"9465","bikes":"17","bike_racks":"30","free_racks":"14","terminal_type":"7inch","bike_numbers":"24911,24792,24740,24728,24636,28011,27566,26678,26643,26397,26224,25619,25468,25407,25251,63603,96423","bike_types":{"4":17},"place_type":"0","rack_locks":"1"},{"uid":"2585373","lat":"52.2435719","lng":"21.0066801","name":"Senatorska - Biela\u0144ska","spot":"1","number":"9466","bikes":"14","bike_racks":"17","free_racks":"3","terminal_type":"7inch","bike_numbers":"24960,28565,28351,28297,27934,26747,26565,26519,26252,29461,96409,96385,96324,96187","bike_types":{"4":14},"place_type":"0","rack_locks":"1"},{"uid":"2585377","lat":"52.246314509834","lng":"21.0113042593","name":"Miodowa","spot":"1","number":"9467","bikes":"13","bike_racks":"24","free_racks":"12","terminal_type":"7inch","bike_numbers":"28441,28427,28293,28292,28088,27396,26624,26544,26016,25504,28975,96149,96097","bike_types":{"4":13},"place_type":"0","rack_locks":"1"},{"uid":"2585378","lat":"52.2435965","lng":"21.0140803","name":"Krakowskie Przedmie\u015bcie - Tr\u0119backa","spot":"1","number":"9468","bikes":"13","bike_racks":"14","free_racks":"5","terminal_type":"7inch","bike_numbers":"28762,28690,28680,28312,27923,27562,26048,25986,25804,25681,25590,96342,96325","bike_types":{"4":13},"place_type":"0","rack_locks":"1"},{"uid":"2585379","lat":"52.2465625","lng":"21.0174345","name":"Mariensztat","spot":"1","number":"9469","bikes":"4","bike_racks":"15","free_racks":"8","terminal_type":"7inch","bike_numbers":"27517,29044,28939,29660","bike_types":{"4":4},"place_type":"0","rack_locks":"1"},{"uid":"2585381","lat":"52.224934","lng":"20.945489","name":"Jana Kazimierza - Giz\u00f3w","spot":"1","number":"9471","bikes":"0","bike_racks":"13","free_racks":"13","terminal_type":"7inch","place_type":"0","rack_locks":"1","bike_numbers":null,"bike_types":[]},{"uid":"2585385","lat":"52.23016","lng":"20.951558","name":"Wolska - Elekcyjna","spot":"1","number":"9472","bikes":"13","bike_racks":"20","free_racks":"7","terminal_type":"7inch","bike_numbers":"24528,28473,28466,28410,28263,28064,27992,27732,27315,27306,27115,25237,29190","bike_types":{"4":13},"place_type":"0","rack_locks":"1"},{"uid":"2585387","lat":"52.237662392829","lng":"20.955492854118","name":"al. Prymasa Tysi\u0105clecia - G\u00f3rczewska","spot":"1","number":"9473","bikes":"18","bike_racks":"20","free_racks":"2","terminal_type":"7inch","bike_numbers":"24765,28750,28642,28079,27979,27867,27807,27548,27468,26840,26756,26668,26518,25344,29080,28944,96515,96112","bike_types":{"4":18},"place_type":"0","rack_locks":"1"},{"uid":"2585389","lat":"52.2333374","lng":"20.9652776","name":"Wolska - P\u0142ocka","spot":"1","number":"9474","bikes":"7","bike_racks":"20","free_racks":"14","terminal_type":"7inch","bike_numbers":"28712,27899,27476,26942,25689,96550,29259","bike_types":{"4":7},"place_type":"0","rack_locks":"1"},{"uid":"2585391","lat":"52.228522296173","lng":"20.969638824463","name":"Kasprzaka - Skierniewicka","spot":"1","number":"9475","bikes":"14","bike_racks":"21","free_racks":"7","terminal_type":"7inch","bike_numbers":"24877,24649,28341,27547,27151,26981,26515,26309,26294,25671,25518,29125,25622,96488","bike_types":{"4":13,"0":1},"place_type":"0","rack_locks":"1"},{"uid":"2585394","lat":"52.22898","lng":"20.97843","name":"Kasprzaka - Karolkowa","spot":"1","number":"9476","bikes":"12","bike_racks":"15","free_racks":"3","terminal_type":"7inch","bike_numbers":"24659,28525,28475,27694,27686,27435,27138,26759,26023,25449,96273,96146","bike_types":{"4":12},"place_type":"0","rack_locks":"1"},{"uid":"2585396","lat":"52.2328752","lng":"20.9805411","name":"Muzeum Powstania Warszawskiego","spot":"1","number":"9477","bikes":"4","bike_racks":"10","free_racks":"5","terminal_type":"7inch","bike_numbers":"24684,28430,27946,27942","bike_types":{"4":4},"place_type":"0","rack_locks":"1"},{"uid":"2585398","lat":"52.22983","lng":"20.983123","name":"Metro Rondo Daszy\u0144skiego","spot":"1","number":"9478","bikes":"18","bike_racks":"26","free_racks":"8","terminal_type":"7inch","bike_numbers":"24504,28640,28452,27949,27801,27512,27208,27203,26482,25373,25323,25316,25279,25168,25084,29063,96551,96199","bike_types":{"4":18},"place_type":"0","rack_locks":"1"},{"uid":"2585400","lat":"52.23145","lng":"20.98869","name":"Prosta - Wronia","spot":"1","number":"9479","bikes":"21","bike_racks":"15","free_racks":"5","terminal_type":"7inch","bike_numbers":"24803,24774,24758,24719,28643,28402,28322,27445,27418,27370,26999,26930,26777,26295,26209,25414,25082,96562,96349,29234,29221","bike_types":{"4":21},"place_type":"0","rack_locks":"1"},{"uid":"2585401","lat":"52.2373141","lng":"20.9888488","name":"\u017belazna - Ch\u0142odna","spot":"1","number":"9480","bikes":"2","bike_racks":"15","free_racks":"13","terminal_type":"7inch","bike_numbers":"28760,96305","bike_types":{"4":2},"place_type":"0","rack_locks":"1"},{"uid":"2585402","lat":"52.2344946","lng":"20.9905117","name":"\u017belazna - Grzybowska","spot":"1","number":"9481","bikes":"20","bike_racks":"20","free_racks":"4","terminal_type":"7inch","bike_numbers":"24655,24638,25000,28752,28468,28431,28110,28065,27176,27091,27033,26538,26488,26181,26163,25610,29359,96058,96163,29203","bike_types":{"4":20},"place_type":"0","rack_locks":"1"},{"uid":"2585405","lat":"52.238666","lng":"20.9957314","name":"al. Jana Paw\u0142a II - Plac Mirowski","spot":"1","number":"9482","bikes":"9","bike_racks":"21","free_racks":"13","terminal_type":"7inch","bike_numbers":"24677,24549,24531,27665,27518,25850,25153,28813,29215","bike_types":{"4":9},"place_type":"0","rack_locks":"1"},{"uid":"2585406","lat":"52.2357151","lng":"20.9966071","name":"al. Jana Paw\u0142a II - Grzybowska","spot":"1","number":"9483","bikes":"17","bike_racks":"30","free_racks":"13","terminal_type":"7inch","bike_numbers":"28882,28621,28554,28521,28501,27593,27525,27521,27299,27174,26500,26276,25670,25229,25114,28799,96494","bike_types":{"4":17},"place_type":"0","rack_locks":"1"},{"uid":"2585410","lat":"52.23958","lng":"21.00027","name":"Ptasia - Zimna","spot":"1","number":"9485","bikes":"10","bike_racks":"16","free_racks":"5","terminal_type":"7inch","bike_numbers":"28703,28041,27910,26307,25565,25403,25234,25030,29031,96586","bike_types":{"4":10},"place_type":"0","rack_locks":"1"},{"uid":"2585412","lat":"52.2336314","lng":"21.0028795","name":"Emilii Plater - \u015awi\u0119tokrzyska","spot":"1","number":"9486","bikes":"5","bike_racks":"26","free_racks":"22","terminal_type":"7inch","bike_numbers":"28346,28131,27962,25475,96287","bike_types":{"4":5},"place_type":"0","rack_locks":"1"},{"uid":"2585413","lat":"52.2358704","lng":"21.0037806","name":"Plac Grzybowski","spot":"1","number":"9487","bikes":"12","bike_racks":"26","free_racks":"14","terminal_type":"7inch","bike_numbers":"24739,28685,27840,27768,27497,26753,26710,26658,25224,25185,29449,29187","bike_types":{"4":12},"place_type":"0","rack_locks":"1"},{"uid":"2585416","lat":"52.2384853","lng":"21.0067552","name":"Marsza\u0142kowska - Kr\u00f3lewska","spot":"1","number":"9488","bikes":"5","bike_racks":"19","free_racks":"13","terminal_type":"7inch","bike_numbers":"28820,28677,28442,27503,26226","bike_types":{"4":5},"place_type":"0","rack_locks":"1"},{"uid":"2585417","lat":"52.2364206","lng":"21.0072407","name":"Marsza\u0142kowska - Zielna","spot":"1","number":"9489","bikes":"14","bike_racks":"30","free_racks":"15","terminal_type":"7inch","bike_numbers":"24738,28365,28212,28021,27860,27826,27640,27575,26148,26145,25543,25169,96350,96195","bike_types":{"4":14},"place_type":"0","rack_locks":"1"},{"uid":"2585420","lat":"52.2397008","lng":"21.0119292","name":"Plac Ma\u0142achowskiego","spot":"1","number":"9491","bikes":"14","bike_racks":"16","free_racks":"4","terminal_type":"7inch","bike_numbers":"28702,28562,28524,27890,27196,26920,26560,26545,25779,25454,29064,96436,96311,96181","bike_types":{"4":14},"place_type":"0","rack_locks":"1"},{"uid":"2585422","lat":"52.2359114","lng":"21.0135654","name":"Plac Powsta\u0144c\u00f3w Warszawy","spot":"1","number":"9492","bikes":"7","bike_racks":"20","free_racks":"13","terminal_type":"7inch","bike_numbers":"25001,27563,27066,25331,60834,29435,29162","bike_types":{"4":7},"place_type":"0","rack_locks":"1"},{"uid":"2585423","lat":"52.2393559","lng":"21.016603","name":"Krakowskie Przedmie\u015bcie - Traugutta","spot":"1","number":"9493","bikes":"15","bike_racks":"24","free_racks":"8","terminal_type":"7inch","bike_numbers":"24932,24797,28148,27926,27119,26994,26945,26621,26528,25541,29122,96319,96082,29201,29280","bike_types":{"4":14,"0":1},"place_type":"0","rack_locks":"1"},{"uid":"2585429","lat":"52.238298","lng":"21.0184014","name":"Obo\u017ana - Kopernika","spot":"1","number":"9495","bikes":"8","bike_racks":"22","free_racks":"13","terminal_type":"7inch","bike_numbers":"24032,27896,27455,27239,26289,25704,25597,63620","bike_types":{"26":1,"4":7},"place_type":"0","rack_locks":"1"},{"uid":"2585430","lat":"52.24190654256","lng":"21.024259328842","name":"Lipowa - Dobra","spot":"1","number":"9496","bikes":"24","bike_racks":"19","free_racks":"5","terminal_type":"7inch","bike_numbers":"24881,24508,24467,28899,28678,28308,28016,27703,27000,26425,26415,26284,26119,25854,25268,29350,29046,29386,28973,63602,96359,96294,96264,29207","bike_types":{"4":23,"51":1},"place_type":"0","rack_locks":"1"},{"uid":"2585431","lat":"52.2413087","lng":"21.0281727","name":"Centrum Nauki Kopernik","spot":"1","number":"9497","bikes":"36","bike_racks":"30","free_racks":"0","terminal_type":"7inch","bike_numbers":"24967,24956,24944,24766,24746,24609,24565,24546,28668,28412,28133,27940,27859,27846,27759,27632,27625,27393,27323,27181,26854,26842,26706,26662,26510,26186,26179,26005,25441,25184,29656,24555,28978,28974,96384,96135","bike_types":{"4":36},"place_type":"0","rack_locks":"1"},{"uid":"2585432","lat":"52.2264464","lng":"20.9837164","name":"Kolejowa","spot":"1","number":"9498","bikes":"1","bike_racks":"16","free_racks":"14","terminal_type":"7inch","bike_numbers":"27941","bike_types":{"4":1},"place_type":"0","rack_locks":"1"},{"uid":"2585433","lat":"52.22983","lng":"20.993996","name":"\u017belazna - Sienna","spot":"1","number":"9499","bikes":"6","bike_racks":"30","free_racks":"21","terminal_type":"7inch","bike_numbers":"24854,60850,28856,28831,96373,29226","bike_types":{"4":6},"place_type":"0","rack_locks":"1"},{"uid":"2585435","lat":"52.230201297582","lng":"20.999550819397","name":"al. Jana Paw\u0142a II - Z\u0142ota","spot":"1","number":"9500","bikes":"11","bike_racks":"16","free_racks":"4","terminal_type":"7inch","bike_numbers":"25004,27188,27062,26558,26529,26237,25035,29081,96230,96193,29274","bike_types":{"4":11},"place_type":"0","rack_locks":"1"},{"uid":"2585438","lat":"52.2309778","lng":"21.0036755","name":"Emilii Plater - Z\u0142ota","spot":"1","number":"9501","bikes":"10","bike_racks":"30","free_racks":"17","terminal_type":"7inch","bike_numbers":"24925,24775,28903,28505,28035,27795,26946,25953,25227,29049","bike_types":{"4":10},"place_type":"0","rack_locks":"1"},{"uid":"2585440","lat":"52.232816601853","lng":"21.006980538368","name":"Pa\u0142ac Kultury i Nauki","spot":"1","number":"9502","bikes":"3","bike_racks":"17","free_racks":"14","terminal_type":"7inch","bike_numbers":"26949,26033,29020","bike_types":{"4":3},"place_type":"0","rack_locks":"1"},{"uid":"2585442","lat":"52.232934","lng":"21.0101791","name":"Marsza\u0142kowska - Z\u0142ota","spot":"1","number":"9503","bikes":"4","bike_racks":"22","free_racks":"17","terminal_type":"7inch","bike_numbers":"26638,26601,25560,96523","bike_types":{"4":4},"place_type":"0","rack_locks":"1"},{"uid":"2585445","lat":"52.231987","lng":"21.016092","name":"Bracka - Krucza","spot":"1","number":"9504","bikes":"3","bike_racks":"20","free_racks":"17","terminal_type":"7inch","bike_numbers":"26319,25024,29451","bike_types":{"4":3},"place_type":"0","rack_locks":"1"},{"uid":"2585446","lat":"52.2355713","lng":"21.0179642","name":"Nowy \u015awiat - Warecka","spot":"1","number":"9505","bikes":"10","bike_racks":"24","free_racks":"16","terminal_type":"7inch","bike_numbers":"24621,28803,28102,27404,26588,25808,25726,25330,25058,96566","bike_types":{"4":10},"place_type":"0","rack_locks":"1"},{"uid":"2585447","lat":"52.2337571","lng":"21.0202789","name":"Ga\u0142czy\u0144skiego - Foksal","spot":"1","number":"9506","bikes":"9","bike_racks":"24","free_racks":"15","terminal_type":"7inch","bike_numbers":"28445,27751,25719,25576,25210,29107,28875,28915,96282","bike_types":{"4":9},"place_type":"0","rack_locks":"1"},{"uid":"2585450","lat":"52.2375934","lng":"21.0256487","name":"Topiel - Tamka","spot":"1","number":"9507","bikes":"14","bike_racks":"20","free_racks":"6","terminal_type":"7inch","bike_numbers":"24734,28522,28311,28258,27414,27409,27069,27043,26449,26261,26063,25539,25175,96327","bike_types":{"4":14},"place_type":"0","rack_locks":"1"},{"uid":"2585452","lat":"52.2358752","lng":"21.0317323","name":"Solec - Jaracza","spot":"1","number":"9508","bikes":"11","bike_racks":"15","free_racks":"4","terminal_type":"7inch","bike_numbers":"24514,27584,27267,25684,25411,25171,25122,29357,96004,96141,29181","bike_types":{"4":11},"place_type":"0","rack_locks":"1"},{"uid":"2585453","lat":"52.2218874","lng":"20.9795301","name":"al. Jerozolimskie - Niemcewicza","spot":"1","number":"9509","bikes":"8","bike_racks":"19","free_racks":"11","terminal_type":"7inch","bike_numbers":"27568,27131,27104,26471,29011,96571,96372,96102","bike_types":{"4":8},"place_type":"0","rack_locks":"1"},{"uid":"2585455","lat":"52.2222155","lng":"20.9866293","name":"Ochota-Ratusz","spot":"1","number":"9510","bikes":"3","bike_racks":"23","free_racks":"20","terminal_type":"7inch","bike_numbers":"24652,27784,25967","bike_types":{"4":3},"place_type":"0","rack_locks":"1"},{"uid":"2585457","lat":"52.2249718","lng":"20.9897661","name":"Plac Zawiszy","spot":"1","number":"9511","bikes":"16","bike_racks":"24","free_racks":"6","terminal_type":"7inch","bike_numbers":"24938,28512,26934,26708,26671,26574,26302,26091,25971,25764,25309,25238,96006,96533,96507,96119","bike_types":{"4":16},"place_type":"0","rack_locks":"1"},{"uid":"2585460","lat":"52.22626","lng":"20.9961309","name":"al. Jerozolimskie - Lindleya","spot":"1","number":"9512","bikes":"6","bike_racks":"15","free_racks":"9","terminal_type":"7inch","bike_numbers":"27774,26017,25632,96379,96258,96122","bike_types":{"4":6},"place_type":"0","rack_locks":"1"},{"uid":"2585462","lat":"52.2241455","lng":"20.9975244","name":"Lindleya - szpital","spot":"1","number":"9513","bikes":"13","bike_racks":"28","free_racks":"13","terminal_type":"7inch","bike_numbers":"24656,24590,27423,27243,27039,26725,26721,26580,26493,25758,25711,28910,29236","bike_types":{"4":13},"place_type":"0","rack_locks":"1"},{"uid":"2585464","lat":"52.227861","lng":"21.0008509","name":"Warszawa \u015ar\u00f3dmie\u015bcie WKD","spot":"1","number":"9514","bikes":"17","bike_racks":"18","free_racks":"1","terminal_type":"7inch","bike_numbers":"24780,28761,28724,27724,27318,27036,26970,26893,26727,26164,25936,25742,25219,96023,96553,96462,96234","bike_types":{"4":17},"place_type":"0","rack_locks":"1"},{"uid":"2585466","lat":"52.2249555","lng":"21.0031664","name":"Oczki - WUM","spot":"1","number":"9515","bikes":"6","bike_racks":"19","free_racks":"12","terminal_type":"7inch","bike_numbers":"28413,28329,27667,26506,25645,25282","bike_types":{"4":6},"place_type":"0","rack_locks":"1"},{"uid":"2585469","lat":"52.2290464","lng":"21.0054544","name":"Emilii Plater - Al. Jerozolimskie","spot":"1","number":"9517","bikes":"28","bike_racks":"30","free_racks":"2","terminal_type":"7inch","bike_numbers":"24858,24516,28873,28715,28380,28100,27849,27753,27489,26940,26524,26290,25929,25800,25514,25464,25446,25079,29062,29021,28948,28945,28924,28798,28810,28918,96411,96314","bike_types":{"4":28},"place_type":"0","rack_locks":"1"},{"uid":"2585470","lat":"52.2259343","lng":"21.0067537","name":"Emilii Plater - Wsp\u00f3lna","spot":"1","number":"9518","bikes":"9","bike_racks":"15","free_racks":"5","terminal_type":"7inch","bike_numbers":"24613,28485,28018,26973,26527,26027,25659,29200,96362","bike_types":{"4":9},"place_type":"0","rack_locks":"1"},{"uid":"2585472","lat":"52.23001","lng":"21.01088","name":"Metro Centrum","spot":"1","number":"9519","bikes":"19","bike_racks":"30","free_racks":"11","terminal_type":"7inch","bike_numbers":"24927,24478,28608,28420,28358,27743,27635,26990,26755,26642,26547,26350,26197,26137,25935,25778,25341,25056,29041","bike_types":{"4":18,"51":1},"place_type":"0","rack_locks":"1"},{"uid":"2585473","lat":"52.229347019086","lng":"21.011314988136","name":"Marsza\u0142kowska - Al. Jerozolimskie","spot":"1","number":"9520","bikes":"22","bike_racks":"24","free_racks":"3","terminal_type":"7inch","bike_numbers":"28573,28296,27978,27758,27484,27375,27297,27293,26711,26403,26113,26047,25977,25880,25849,25359,25206,28812,28862,28888,63630,96414","bike_types":{"4":22},"place_type":"0","rack_locks":"1"},{"uid":"2585476","lat":"52.230418150276","lng":"21.013610959053","name":"al. Jerozolimskie - rejon Rotundy","spot":"1","number":"9521","bikes":"5","bike_racks":"24","free_racks":"18","terminal_type":"7inch","bike_numbers":"24948,24713,24571,27160,25793","bike_types":{"4":5},"place_type":"0","rack_locks":"1"},{"uid":"2585477","lat":"52.2262882","lng":"21.0135705","name":"Marsza\u0142kowska - Ho\u017ca","spot":"1","number":"9522","bikes":"12","bike_racks":"15","free_racks":"6","terminal_type":"7inch","bike_numbers":"24601,24015,28350,28279,28085,27401,26585,26393,26372,25657,28833,29172","bike_types":{"4":11,"26":1},"place_type":"0","rack_locks":"1"},{"uid":"2585492","lat":"52.2282923","lng":"21.0178542","name":"Krucza - Wsp\u00f3lna","spot":"1","number":"9523","bikes":"22","bike_racks":"28","free_racks":"6","terminal_type":"7inch","bike_numbers":"24875,24764,28589,28454,28089,27648,27604,27338,27287,26885,26720,26679,26219,26099,26064,26060,26034,25381,29448,96046,96460,96250","bike_types":{"4":22},"place_type":"0","rack_locks":"1"},{"uid":"2585684","lat":"52.23144","lng":"21.0213036","name":"Rondo de Gaulle'a","spot":"1","number":"9524","bikes":"12","bike_racks":"22","free_racks":"9","terminal_type":"7inch","bike_numbers":"24964,28691,28259,28142,28006,26773,25649,25272,29140,63619,96546,96468","bike_types":{"4":11,"0":1},"place_type":"0","rack_locks":"1"},{"uid":"2585694","lat":"52.2278487","lng":"21.0235084","name":"Plac Trzech Krzy\u017cy","spot":"1","number":"9525","bikes":"23","bike_racks":"23","free_racks":"1","maintenance":"1","terminal_type":"7inch","bike_numbers":"24897,24853,24605,27742,27658,27609,26916,26863,26770,26582,26562,25937,25691,25585,25337,25311,25244,25098,96516,96390,96288,96175,29152","bike_types":{"4":23},"place_type":"0","rack_locks":"1"},{"uid":"2585695","lat":"52.23324","lng":"21.0261179","name":"Smolna - PKP Powi\u015ble","spot":"1","number":"9526","bikes":"5","bike_racks":"18","free_racks":"13","terminal_type":"7inch","bike_numbers":"28376,27741,27574,27385,25815","bike_types":{"4":5},"place_type":"0","rack_locks":"1"},{"uid":"2585699","lat":"52.2340191","lng":"21.0300328","name":"Herberta - PKP Powi\u015ble","spot":"1","number":"9527","bikes":"15","bike_racks":"26","free_racks":"12","terminal_type":"7inch","bike_numbers":"24777,28094,27764,27545,27420,27386,26879,26480,26462,26070,25679,96047,96496,29242,96588","bike_types":{"4":15},"place_type":"0","rack_locks":"1"},{"uid":"2585704","lat":"52.2347879","lng":"21.0340991","name":"Solec - al. 3 Maja","spot":"1","number":"9528","bikes":"21","bike_racks":"24","free_racks":"3","terminal_type":"7inch","bike_numbers":"24754,24541,28581,28570,28544,28214,28208,27945,27511,26997,26830,26793,26675,26077,25997,25974,25858,25530,25016,96026,29153","bike_types":{"4":21},"place_type":"0","rack_locks":"1"},{"uid":"2585708","lat":"52.2301405","lng":"21.0303694","name":"Ksi\u0105\u017c\u0119ca - Rozbrat","spot":"1","number":"9529","bikes":"17","bike_racks":"15","free_racks":"0","terminal_type":"7inch","bike_numbers":"28598,28503,27149,26748,26728,26358,26342,26189,25222,29644,96022,96017,96549,96253,96194,29238,96580","bike_types":{"4":17},"place_type":"0","rack_locks":"1"},{"uid":"2585711","lat":"52.2172177","lng":"20.9713608","name":"Szcz\u0119\u015bliwicka - APS","spot":"1","number":"9530","bikes":"13","bike_racks":"22","free_racks":"8","terminal_type":"7inch","bike_numbers":"24847,28455,28278,28253,27098,26967,26860,26691,26216,25914,25827,25183,96198","bike_types":{"4":13},"place_type":"0","rack_locks":"1"},{"uid":"2585712","lat":"52.2179474","lng":"20.9775567","name":"Kopi\u0144ska - Bia\u0142obrzeska","spot":"1","number":"9531","bikes":"2","bike_racks":"15","free_racks":"12","terminal_type":"7inch","bike_numbers":"28422,28140","bike_types":{"4":2},"place_type":"0","rack_locks":"1"},{"uid":"2585714","lat":"52.2178554","lng":"20.9828138","name":"Plac Narutowicza","spot":"1","number":"9532","bikes":"23","bike_racks":"30","free_racks":"7","terminal_type":"7inch","bike_numbers":"24705,24672,24465,28530,28528,28510,28321,28270,28251,28099,27702,27493,26739,26502,26102,25734,25703,25493,25094,28842,96467,29194,29151","bike_types":{"4":22,"51":1},"place_type":"0","rack_locks":"1"},{"uid":"2585716","lat":"52.216641","lng":"20.9879476","name":"Raszy\u0144ska - Wawelska","spot":"1","number":"9533","bikes":"14","bike_racks":"20","free_racks":"5","terminal_type":"7inch","bike_numbers":"24871,24676,28265,28051,27876,27812,27569,27216,25589,25195,25958,96059,96332,29195","bike_types":{"4":14},"place_type":"0","rack_locks":"1"},{"uid":"2585717","lat":"52.2191029","lng":"20.9890149","name":"Raszy\u0144ska - Filtrowa","spot":"1","number":"9534","bikes":"6","bike_racks":"22","free_racks":"11","terminal_type":"7inch","bike_numbers":"28634,27733,27127,25735,25132,28847","bike_types":{"4":6},"place_type":"0","rack_locks":"1"},{"uid":"2585720","lat":"52.220676","lng":"21.0045554","name":"al. Niepodleg\u0142o\u015bci - Nowowiejska","spot":"1","number":"9535","bikes":"13","bike_racks":"30","free_racks":"16","terminal_type":"7inch","bike_numbers":"24600,28529,28300,27856,27824,27782,27483,26947,26108,26001,25392,96433,96114","bike_types":{"4":13},"place_type":"0","rack_locks":"1"},{"uid":"2585721","lat":"52.2174693","lng":"21.0056537","name":"Kaczy\u0144skiego - al. Niepodleg\u0142o\u015bci","spot":"1","number":"9536","bikes":"3","bike_racks":"16","free_racks":"13","terminal_type":"7inch","bike_numbers":"28620,28533,25680","bike_types":{"4":3},"place_type":"0","rack_locks":"1"},{"uid":"2585722","lat":"52.2226831","lng":"21.0081097","name":"Noakowskiego - Koszykowa","spot":"1","number":"9537","bikes":"12","bike_racks":"24","free_racks":"11","terminal_type":"7inch","bike_numbers":"24786,28663,28254,27757,27235,27015,26995,26816,26324,25839,25052,96464","bike_types":{"4":12},"place_type":"0","rack_locks":"1"},{"uid":"2585724","lat":"52.219916","lng":"21.0116824","name":"Plac Politechniki","spot":"1","number":"9538","bikes":"18","bike_racks":"27","free_racks":"10","terminal_type":"7inch","bike_numbers":"24603,24585,28741,28414,28316,28049,27599,27232,27180,27053,26141,25766,25336,25303,25027,29070,29551,25629","bike_types":{"4":18},"place_type":"0","rack_locks":"1"},{"uid":"2585727","lat":"52.223503","lng":"21.0128519","name":"Pozna\u0144ska - Zesp\u00f3\u0142 Szk\u00f3\u0142 Gastronomicznych","spot":"1","number":"9539","bikes":"9","bike_racks":"18","free_racks":"10","terminal_type":"7inch","bike_numbers":"24494,28699,27540,26223,25782,29092,96547,29186,96584","bike_types":{"51":1,"4":8},"place_type":"0","rack_locks":"1"},{"uid":"2585728","lat":"52.2174857","lng":"21.0142949","name":"Rondo Jazdy Polskiej","spot":"1","number":"9540","bikes":"2","bike_racks":"24","free_racks":"23","terminal_type":"7inch","bike_numbers":"26922,29264","bike_types":{"4":2},"place_type":"0","rack_locks":"1"},{"uid":"2585729","lat":"52.2197435","lng":"21.0157353","name":"ul. Wary\u0144skiego-ul. Nowowiejska-Metro Politechnika ","spot":"1","number":"9541","bikes":"4","bike_racks":"20","free_racks":"16","terminal_type":"7inch","bike_numbers":"24537,27522,27482,26470","bike_types":{"4":4},"place_type":"0","rack_locks":"1"},{"uid":"2585731","lat":"52.2197681","lng":"21.0172775","name":"Plac Zbawiciela","spot":"1","number":"9542","bikes":"2","bike_racks":"12","free_racks":"11","terminal_type":"7inch","bike_numbers":"25354,29433","bike_types":{"4":2},"place_type":"0","rack_locks":"1"},{"uid":"2585735","lat":"52.2229427","lng":"21.0158211","name":"Plac Konstytucji","spot":"1","number":"9543","bikes":"13","bike_racks":"30","free_racks":"16","terminal_type":"7inch","bike_numbers":"27915,27818,27711,27247,26900,25970,25421,25386,25374,29007,28986,96417,96216","bike_types":{"4":13},"place_type":"0","rack_locks":"1"},{"uid":"2585737","lat":"52.2238152","lng":"21.0207859","name":"Mokotowska - Pi\u0119kna","spot":"1","number":"9544","bikes":"8","bike_racks":"22","free_racks":"14","terminal_type":"7inch","bike_numbers":"28584,27544,27040,96276,96107,29171,29163,29225","bike_types":{"4":8},"place_type":"0","rack_locks":"1"},{"uid":"2585738","lat":"52.2200212","lng":"21.0256299","name":"Plac na Rozdro\u017cu","spot":"1","number":"9545","bikes":"17","bike_racks":"26","free_racks":"9","terminal_type":"7inch","bike_numbers":"28058,27253,26858,26852,26244,26161,25973,25873,25805,25733,25723,25429,25128,25059,29066,96454,96110","bike_types":{"4":17},"place_type":"0","rack_locks":"1"},{"uid":"2585742","lat":"52.2249504","lng":"21.0268155","name":"Matejki - Wiejska","spot":"1","number":"9546","bikes":"8","bike_racks":"20","free_racks":"12","terminal_type":"7inch","bike_numbers":"28448,28345,28217,28150,27355,25345,25022,96330","bike_types":{"4":8},"place_type":"0","rack_locks":"1"},{"uid":"2585747","lat":"52.2221129","lng":"21.0343873","name":"My\u015bliwiecka - Rozbrat","spot":"1","number":"9547","bikes":"24","bike_racks":"21","free_racks":"0","terminal_type":"7inch","bike_numbers":"24559,28314,28143,28132,27554,26977,26819,26802,26783,26693,26673,26348,26213,26183,25653,25239,25043,25032,29138,28993,96416,96387,96151,29252","bike_types":{"4":23,"0":1},"place_type":"0","rack_locks":"1"},{"uid":"2585748","lat":"52.2277124","lng":"21.0442955","name":"Port Czerniakowski","spot":"1","number":"9548","bikes":"30","bike_racks":"30","free_racks":"0","terminal_type":"7inch","bike_numbers":"24972,24848,24692,24620,24584,24490,24455,28902,28531,28216,28207,28054,27538,27471,27460,26800,26423,26248,26178,25934,25860,25729,25363,25083,25041,29349,28958,29362,29647,96410","bike_types":{"4":28,"51":2},"place_type":"0","rack_locks":"1"},{"uid":"2585749","lat":"52.2109711","lng":"20.9759125","name":"Gr\u00f3jecka - Bitwy Warszawskiej 1920 roku","spot":"1","number":"9549","bikes":"17","bike_racks":"20","free_racks":"3","terminal_type":"7inch","bike_numbers":"24943,28692,28517,28469,28397,27786,27295,27071,26805,26435,26264,26085,26071,25690,25675,25432,96111","bike_types":{"4":17},"place_type":"0","rack_locks":"1"},{"uid":"2585750","lat":"52.2130296","lng":"20.9819985","name":"Pasteura - Winnicka - UW","spot":"1","number":"9550","bikes":"11","bike_racks":"24","free_racks":"9","terminal_type":"7inch","bike_numbers":"28438,28384,28084,27049,25979,25972,25487,25145,96290,96127,96126","bike_types":{"4":11},"place_type":"0","rack_locks":"1"},{"uid":"2585762","lat":"52.2107722","lng":"20.9847557","name":"Stefana Banacha - UW","spot":"1","number":"9551","bikes":"6","bike_racks":"29","free_racks":"22","terminal_type":"7inch","bike_numbers":"28130,26913,25425,25290,63608,96196","bike_types":{"4":6},"place_type":"0","rack_locks":"1"},{"uid":"2585764","lat":"52.212671","lng":"21.003437","name":"Biblioteka Narodowa","spot":"1","number":"9552","bikes":"4","bike_racks":"24","free_racks":"21","terminal_type":"7inch","bike_numbers":"28758,27894,28809,96172","bike_types":{"4":4},"place_type":"0","rack_locks":"1"},{"uid":"2585766","lat":"52.21691","lng":"21.01997","name":"Marsza\u0142kowska - Litewska","spot":"1","number":"9553","bikes":"6","bike_racks":"15","free_racks":"9","terminal_type":"7inch","bike_numbers":"24479,28904,27380,25819,25162,96428","bike_types":{"51":1,"4":5},"place_type":"0","rack_locks":"1"},{"uid":"2585770","lat":"52.2083858","lng":"20.9631103","name":"P\u0119tla Szcz\u0119\u015bliwice ","spot":"1","number":"9554","bikes":"6","bike_racks":"19","free_racks":"11","terminal_type":"7inch","bike_numbers":"28550,27479,27081,26437,25718,96352","bike_types":{"4":6},"place_type":"0","rack_locks":"1"},{"uid":"2585771","lat":"52.206153650625","lng":"20.970287919044","name":"Dickensa - Geodet\u00f3w","spot":"1","number":"9555","bikes":"5","bike_racks":"16","free_racks":"10","terminal_type":"7inch","bike_numbers":"27789,27509,26983,26864,26010","bike_types":{"4":5},"place_type":"0","rack_locks":"1"},{"uid":"2585772","lat":"52.205361371875","lng":"20.984664559364","name":"\u017bwirki i Wigury - Ksi\u0119cia Trojdena","spot":"1","number":"9556","bikes":"2","bike_racks":"17","free_racks":"12","terminal_type":"7inch","bike_numbers":"28374,25507","bike_types":{"4":2},"place_type":"0","rack_locks":"1"},{"uid":"2585774","lat":"52.205801893754","lng":"20.998928546906","name":"Rakowiecka - \u015aw. A. Boboli","spot":"1","number":"9557","bikes":"11","bike_racks":"17","free_racks":"9","terminal_type":"7inch","bike_numbers":"24920,28495,28377,28333,27638,25835,25732,25699,25076,29452,96080","bike_types":{"4":11},"place_type":"0","rack_locks":"1"},{"uid":"2585776","lat":"52.209916","lng":"21.0067794","name":"al. Niepodleg\u0142o\u015bci - Batorego","spot":"1","number":"9558","bikes":"17","bike_racks":"26","free_racks":"0","terminal_type":"7inch","bike_numbers":"24995,24890,24837,28036,28024,27457,26904,26848,26831,26553,26187,25559,25554,25427,60842,96545,96229","bike_types":{"4":17},"place_type":"0","rack_locks":"1"},{"uid":"2585779","lat":"52.2132375","lng":"21.0210568","name":"Plac Unii Lubelskiej","spot":"1","number":"9559","bikes":"15","bike_racks":"24","free_racks":"11","terminal_type":"7inch","bike_numbers":"24581,28664,28301,28093,27536,27308,26785,26567,26392,25865,25298,29116,29427,96561,29198","bike_types":{"4":15},"place_type":"0","rack_locks":"1"},{"uid":"2585781","lat":"52.2027557","lng":"20.9508951","name":"W\u0142odarzewska - Maszynowa","spot":"1","number":"9560","bikes":"9","bike_racks":"18","free_racks":"8","terminal_type":"7inch","bike_numbers":"28379,27965,27440,27189,27042,26069,25232,25067,96344","bike_types":{"4":9},"place_type":"0","rack_locks":"1"},{"uid":"2585782","lat":"52.2017647","lng":"20.9820897","name":"Sanocka - Pruszkowska","spot":"1","number":"9561","bikes":"4","bike_racks":"15","free_racks":"9","terminal_type":"7inch","bike_numbers":"28887,28052,26129,96320","bike_types":{"4":4},"place_type":"0","rack_locks":"1"},{"uid":"2585785","lat":"52.1981365","lng":"20.9833717","name":"\u017bwirki i Wigury - Rac\u0142awicka","spot":"1","number":"9562","bikes":"18","bike_racks":"18","free_racks":"0","terminal_type":"7inch","bike_numbers":"24895,24697,28676,28585,28406,28146,27939,27696,27220,27126,27032,26110,25603,25533,28992,96370,96256,29248","bike_types":{"4":18},"place_type":"0","rack_locks":"1"},{"uid":"2585787","lat":"52.20177","lng":"20.99969","name":"Wo\u0142oska - Kulskiego","spot":"1","number":"9563","bikes":"1","bike_racks":"15","free_racks":"13","terminal_type":"7inch","bike_numbers":"28409","bike_types":{"4":1},"place_type":"0","rack_locks":"1"},{"uid":"2585788","lat":"52.2042638","lng":"21.014428","name":"Madali\u0144skiego - Kazimierzowska","spot":"1","number":"9564","bikes":"17","bike_racks":"24","free_racks":"7","terminal_type":"7inch","bike_numbers":"24902,24576,24021,28453,28450,28411,28261,28112,27531,27279,25817,25702,25494,28934,25627,96495,29216","bike_types":{"4":16,"26":1},"place_type":"0","rack_locks":"1"},{"uid":"2585789","lat":"52.2055175","lng":"21.0231033","name":"Pu\u0142awska - Dworkowa","spot":"1","number":"9565","bikes":"9","bike_racks":"19","free_racks":"9","terminal_type":"7inch","bike_numbers":"24914,27361,27245,27110,26377,26283,25191,96055,24049","bike_types":{"4":8,"26":1},"place_type":"0","rack_locks":"1"},{"uid":"2585790","lat":"52.2071756","lng":"21.0312643","name":"Belwederska - Gagarina","spot":"1","number":"9566","bikes":"42","bike_racks":"30","free_racks":"0","terminal_type":"7inch","bike_numbers":"24489,28644,28635,28331,27966,27750,27748,27745,27706,27639,27611,27477,27351,27226,27162,27082,26991,26855,26514,26463,26078,26074,25960,25863,25615,25319,25068,25049,25028,29112,29033,28980,28916,28855,96501,96474,96430,96306,96301,96262,96115,29247","bike_types":{"51":1,"4":41},"place_type":"0","rack_locks":"1"},{"uid":"2585791","lat":"52.2074193","lng":"21.0479621","name":"Czerniakowska - Gagarina","spot":"1","number":"9567","bikes":"20","bike_racks":"25","free_racks":"7","terminal_type":"7inch","bike_numbers":"24680,28718,28631,28461,28307,27881,27576,27452,26829,26752,26446,25908,25701,25387,25384,25273,25260,96018,96227,29231","bike_types":{"4":20},"place_type":"0","rack_locks":"1"},{"uid":"2585794","lat":"52.1938131","lng":"20.9914431","name":"Etiudy Rewolucyjnej - Mi\u0105czy\u0144ska","spot":"1","number":"9568","bikes":"9","bike_racks":"18","free_racks":"8","terminal_type":"7inch","bike_numbers":"24750,24642,28802,27534,27425,27111,26104,25040,96587","bike_types":{"4":9},"place_type":"0","rack_locks":"1"},{"uid":"2585799","lat":"52.1994156","lng":"21.0121384","name":"Metro Rac\u0142awicka","spot":"1","number":"9570","bikes":"1","bike_racks":"30","free_racks":"28","terminal_type":"7inch","bike_numbers":"25584","bike_types":{"4":1},"place_type":"0","rack_locks":"1"},{"uid":"2585800","lat":"52.199505","lng":"21.0240975","name":"Pu\u0142awska - Dolna","spot":"1","number":"9571","bikes":"11","bike_racks":"18","free_racks":"7","terminal_type":"7inch","bike_numbers":"24683,24628,28647,27290,26865,26694,26561,25730,25642,25461,25038","bike_types":{"4":11},"place_type":"0","rack_locks":"1"},{"uid":"2585802","lat":"52.2014754","lng":"21.0360047","name":"Sobieskiego - Che\u0142mska","spot":"1","number":"9572","bikes":"12","bike_racks":"15","free_racks":"3","terminal_type":"7inch","bike_numbers":"24809,24495,28580,27734,26712,26559,26352,26177,29037,28906,96530,96303","bike_types":{"4":11,"51":1},"place_type":"0","rack_locks":"1"},{"uid":"2585804","lat":"52.1998446","lng":"21.05095","name":"Czerniakowska - ZUS","spot":"1","number":"9573","bikes":"5","bike_racks":"15","free_racks":"10","terminal_type":"7inch","bike_numbers":"28156,27133,26925,26421,96009","bike_types":{"4":5},"place_type":"0","rack_locks":"1"},{"uid":"2585807","lat":"52.1916776","lng":"20.8689688","name":"PKP Ursus-Nied\u017awiadek","spot":"1","number":"9574","bikes":"9","bike_racks":"15","free_racks":"7","terminal_type":"7inch","bike_numbers":"28083,27659,27438,26797,25840,25161,96007,96398,29278","bike_types":{"4":9},"place_type":"0","rack_locks":"1"},{"uid":"2585808","lat":"52.1960469","lng":"20.8849347","name":"PKP Ursus","spot":"1","number":"9575","bikes":"8","bike_racks":"16","free_racks":"8","terminal_type":"7inch","bike_numbers":"28514,28287,26143,25826,25599,25500,25380,96345","bike_types":{"4":8},"place_type":"0","rack_locks":"1"},{"uid":"2585809","lat":"52.1869936","lng":"20.8906478","name":"Sosnkowskiego - OSiR Ursus","spot":"1","number":"9576","bikes":"6","bike_racks":"15","free_racks":"9","terminal_type":"7inch","bike_numbers":"28747,28721,25833,25261,29095,96048","bike_types":{"4":6},"place_type":"0","rack_locks":"1"},{"uid":"2585811","lat":"52.2005548","lng":"20.8937538","name":"Ursus-Ratusz","spot":"1","number":"9577","bikes":"10","bike_racks":"15","free_racks":"4","terminal_type":"7inch","bike_numbers":"24855,24748,24744,28029,27720,26876,26258,26215,26126,25620","bike_types":{"4":10},"place_type":"0","rack_locks":"1"},{"uid":"2585814","lat":"52.1906376","lng":"20.8999443","name":"Skoroszewska - Prystora","spot":"1","number":"9578","bikes":"18","bike_racks":"17","free_racks":"2","terminal_type":"7inch","bike_numbers":"24968,24685,24462,28905,28460,27388,26758,26362,25593,25477,25340,25320,25304,25092,96051,96461,96363,96251","bike_types":{"4":17,"51":1},"place_type":"0","rack_locks":"1"},{"uid":"2585817","lat":"52.1882609","lng":"20.9603771","name":"G\u0142adka - OSiR W\u0142ochy","spot":"1","number":"9579","bikes":"12","bike_racks":"16","free_racks":"4","terminal_type":"7inch","bike_numbers":"24860,28723,28538,27076,26896,26645,25947,25811,25540,25481,96154,29266","bike_types":{"4":12},"place_type":"0","rack_locks":"1"},{"uid":"2585820","lat":"52.2056441","lng":"20.9159142","name":"PKP W\u0142ochy","spot":"1","number":"9580","bikes":"7","bike_racks":"17","free_racks":"8","terminal_type":"7inch","bike_numbers":"24631,28134,27855,26880,26857,25856,96427","bike_types":{"4":7},"place_type":"0","rack_locks":"1"},{"uid":"2585821","lat":"52.2012157","lng":"20.9353145","name":"al. Jerozolimskie - Popularna","spot":"1","number":"9581","bikes":"10","bike_racks":"19","free_racks":"9","terminal_type":"7inch","bike_numbers":"24996,24030,28383,27974,26960,26743,26249,25931,25613,96173","bike_types":{"4":9,"26":1},"place_type":"0","rack_locks":"1"},{"uid":"2585824","lat":"52.1924709","lng":"20.9596664","name":"W\u0142ochy-Ratusz","spot":"1","number":"9582","bikes":"15","bike_racks":"15","free_racks":"1","terminal_type":"7inch","bike_numbers":"24887,24707,28551,28210,27608,26972,26798,26297,26200,26073,26040,25853,25721,25636,96582","bike_types":{"4":15},"place_type":"0","rack_locks":"1"},{"uid":"2585825","lat":"52.1946888","lng":"20.9667823","name":"1 Sierpnia - DK W\u0142ochy","spot":"1","number":"9583","bikes":"6","bike_racks":"15","free_racks":"9","terminal_type":"7inch","bike_numbers":"28105,26982,26615,29117,96520,96208","bike_types":{"4":6},"place_type":"0","rack_locks":"1"},{"uid":"2585827","lat":"52.1888962","lng":"21.0175887","name":"Metro Wierzbno","spot":"1","number":"9584","bikes":"1","bike_racks":"20","free_racks":"18","terminal_type":"7inch","bike_numbers":"26784","bike_types":{"4":1},"place_type":"0","rack_locks":"1"},{"uid":"2585830","lat":"52.18648","lng":"21.02538","name":"Pu\u0142awska - Idzikowskiego","spot":"1","number":"9585","bikes":"6","bike_racks":"17","free_racks":"10","terminal_type":"7inch","bike_numbers":"27591,27008,28805,96426,96252,29270","bike_types":{"4":6},"place_type":"0","rack_locks":"1"},{"uid":"2585835","lat":"52.1882861","lng":"21.0498825","name":"Sobieskiego - Mangalia","spot":"1","number":"9586","bikes":"9","bike_racks":"15","free_racks":"5","terminal_type":"7inch","bike_numbers":"24610,28315,28047,27526,25814,25617,25218,96045,96343","bike_types":{"4":9},"place_type":"0","rack_locks":"1"},{"uid":"2585837","lat":"52.178777","lng":"21.0016387","name":"Wo\u0142oska - Marynarska","spot":"1","number":"9588","bikes":"12","bike_racks":"26","free_racks":"13","terminal_type":"7inch","bike_numbers":"24718,24461,27970,27376,27070,26767,26229,25404,25118,29128,96128,29282","bike_types":{"4":10,"51":1,"0":1},"place_type":"0","rack_locks":"1"},{"uid":"2585838","lat":"52.1800882","lng":"21.0207403","name":"al. Niepodleg\u0142o\u015bci - al. Wilanowska","spot":"1","number":"9589","bikes":"10","bike_racks":"22","free_racks":"12","terminal_type":"7inch","bike_numbers":"24828,28630,28507,27888,27123,26883,25899,25139,29076,96525","bike_types":{"4":10},"place_type":"0","rack_locks":"1"},{"uid":"2585839","lat":"52.1779163","lng":"21.049562","name":"P\u0119tla Stegny","spot":"1","number":"9590","bikes":"21","bike_racks":"23","free_racks":"8","terminal_type":"7inch","bike_numbers":"24700,28738,28476,28028,27884,27797,27399,27009,26965,26522,25932,25595,25556,25412,25194,25100,29003,28877,96413,96279,29208","bike_types":{"4":21},"place_type":"0","rack_locks":"1"},{"uid":"2585843","lat":"52.1818472","lng":"21.0562822","name":"Sobieskiego - \u015bw. Bonifacego","spot":"1","number":"9591","bikes":"23","bike_racks":"22","free_racks":"4","terminal_type":"7inch","bike_numbers":"24974,24909,24463,28623,28599,28490,28398,26613,26563,26531,26168,26037,25830,25717,25424,25152,25015,28811,96513,96226,96145,96105,24054","bike_types":{"4":21,"51":1,"26":1},"place_type":"0","rack_locks":"1"},{"uid":"2585844","lat":"52.1702836","lng":"20.9959132","name":"P\u0119tla Bokserska","spot":"1","number":"9592","bikes":"7","bike_racks":"15","free_racks":"3","terminal_type":"7inch","bike_numbers":"28639,28280,28092,28015,27699,26004,96554","bike_types":{"4":7},"place_type":"0","rack_locks":"1"},{"uid":"2585846","lat":"52.1710498","lng":"21.0059144","name":"Gintrowskiego - Gotarda","spot":"1","number":"9593","bikes":"8","bike_racks":"15","free_racks":"5","terminal_type":"7inch","bike_numbers":"24040,28439,28264,26961,25890,25602,25371,96212","bike_types":{"26":1,"4":7},"place_type":"0","rack_locks":"1"},{"uid":"2585848","lat":"52.174435","lng":"21.0128814","name":"al. Lotnik\u00f3w - Kaczmarskiego","spot":"1","number":"9594","bikes":"2","bike_racks":"30","free_racks":"25","terminal_type":"7inch","bike_numbers":"27909,27041","bike_types":{"4":2},"place_type":"0","rack_locks":"1"},{"uid":"2585850","lat":"52.1733132","lng":"21.0257305","name":"Metro S\u0142u\u017cew","spot":"1","number":"9595","bikes":"13","bike_racks":"24","free_racks":"11","terminal_type":"7inch","bike_numbers":"24946,24801,24691,27117,26516,26458,26144,25955,25710,25588,25266,28857,96164","bike_types":{"4":13},"place_type":"0","rack_locks":"1"},{"uid":"2585853","lat":"52.17343","lng":"21.03179","name":"Wa\u0142brzyska - Wr\u00f3bla","spot":"1","number":"9596","bikes":"14","bike_racks":"30","free_racks":"15","terminal_type":"7inch","bike_numbers":"24741,24664,28471,27080,26907,26888,26351,25886,25881,25682,25295,29339,96383,96169","bike_types":{"4":14},"place_type":"0","rack_locks":"1"},{"uid":"2585856","lat":"52.170135","lng":"21.0685748","name":"Jana III Sobieskiego - al. Wilanowska","spot":"1","number":"9597","bikes":"8","bike_racks":"15","free_racks":"8","terminal_type":"7inch","bike_numbers":"24732,28743,28392,27583,27227,26998,26833,29342","bike_types":{"4":8},"place_type":"0","rack_locks":"1"},{"uid":"2585860","lat":"52.1655879","lng":"21.0839331","name":"al. Wilanowska - Przycz\u00f3\u0142kowa","spot":"1","number":"9598","bikes":"17","bike_racks":"16","free_racks":"2","terminal_type":"7inch","bike_numbers":"24999,24835,24824,28660,28368,27913,27106,26454,26390,26245,25993,25713,96415,96334,96205,96140,96583","bike_types":{"4":17},"place_type":"0","rack_locks":"1"},{"uid":"2585863","lat":"52.16479","lng":"21.10925","name":"Vogla - Syta","spot":"1","number":"9599","bikes":"14","bike_racks":"16","free_racks":"12","terminal_type":"7inch","bike_numbers":"24709,28494,27993,27781,27556,27346,26434,26011,25910,25476,25431,25314,25287,28999","bike_types":{"4":14},"place_type":"0","rack_locks":"1"},{"uid":"2585868","lat":"52.1606257","lng":"21.0723245","name":"al. Rzeczypospolitej - Klimczaka","spot":"1","number":"9600","bikes":"21","bike_racks":"16","free_racks":"0","terminal_type":"7inch","bike_numbers":"24976,24778,28817,28674,27508,27461,27429,27419,27240,27161,27096,26180,25664,25562,25490,25025,29447,28854,96399,96358,96333","bike_types":{"4":21},"place_type":"0","rack_locks":"1"},{"uid":"2585871","lat":"52.1569168","lng":"21.0760903","name":"al. Rzeczypospolitej - Branickiego","spot":"1","number":"9601","bikes":"12","bike_racks":"16","free_racks":"5","terminal_type":"7inch","bike_numbers":"24459,28262,28136,27695,26637,26193,25351,63629,63628,63605,96395,96220","bike_types":{"51":1,"4":11},"place_type":"0","rack_locks":"1"},{"uid":"2585872","lat":"52.1593735","lng":"21.086449","name":"Przycz\u00f3\u0142kowa - Branickiego","spot":"1","number":"9602","bikes":"6","bike_racks":"16","free_racks":"11","terminal_type":"7inch","bike_numbers":"28569,28464,27842,27716,26420,26376","bike_types":{"4":6},"place_type":"0","rack_locks":"1"},{"uid":"2585873","lat":"52.1618136","lng":"21.0277355","name":"Metro Ursyn\u00f3w II","spot":"1","number":"9603","bikes":"11","bike_racks":"30","free_racks":"19","terminal_type":"7inch","bike_numbers":"24950,27831,27631,27178,26388,26146,25978,25770,25462,24819,96541","bike_types":{"4":11},"place_type":"0","rack_locks":"1"},{"uid":"2585875","lat":"52.1622579","lng":"21.0280761","name":"Metro Ursyn\u00f3w I","spot":"1","number":"9604","bikes":"18","bike_racks":"30","free_racks":"9","terminal_type":"7inch","bike_numbers":"24878,24794,24543,28700,28626,28499,27704,27114,27025,26966,26490,25394,29432,28826,63618,63614,96174,96088","bike_types":{"4":18},"place_type":"0","rack_locks":"1"},{"uid":"2585876","lat":"52.162401","lng":"21.0383811","name":"Jastrz\u0119bowskiego - SGGW","spot":"1","number":"9605","bikes":"17","bike_racks":"28","free_racks":"11","terminal_type":"7inch","bike_numbers":"24661,28821,28740,27184,27153,27139,27027,27011,26975,26923,26375,25898,25426,25416,25178,28940,28881","bike_types":{"4":17},"place_type":"0","rack_locks":"1"},{"uid":"2585880","lat":"52.1557534","lng":"21.0232776","name":"Romera - Pieciolinii","spot":"1","number":"9606","bikes":"8","bike_racks":"16","free_racks":"8","terminal_type":"7inch","bike_numbers":"27555,26205,25875,25581,25117,29096,29035,96289","bike_types":{"4":8},"place_type":"0","rack_locks":"1"},{"uid":"2585883","lat":"52.1568674","lng":"21.0338401","name":"Metro Stok\u0142osy","spot":"1","number":"9607","bikes":"29","bike_racks":"27","free_racks":"0","terminal_type":"7inch","bike_numbers":"24981,28756,28666,28434,27953,27875,27861,27488,27050,27029,26716,26605,26426,26411,26311,26172,25964,25892,25728,25343,25297,25204,29361,63606,96544,96329,96299,29267,24046","bike_types":{"4":28,"26":1},"place_type":"0","rack_locks":"1"},{"uid":"2585885","lat":"52.1572887","lng":"21.0440084","name":"Roso\u0142a - Ciszewskiego - SGGW","spot":"1","number":"9608","bikes":"2","bike_racks":"30","free_racks":"28","terminal_type":"7inch","bike_numbers":"24524,60867","bike_types":{"4":2},"place_type":"0","rack_locks":"1"},{"uid":"2585888","lat":"52.1521429","lng":"21.0181224","name":"Pu\u0142awska - Pileckiego","spot":"1","number":"9609","bikes":"3","bike_racks":"22","free_racks":"16","terminal_type":"7inch","bike_numbers":"24986,28056,27159","bike_types":{"4":3},"place_type":"0","rack_locks":"1"},{"uid":"2585893","lat":"52.1495064","lng":"21.0332527","name":"Ciszewskiego - Pileckiego","spot":"1","number":"9610","bikes":"7","bike_racks":"22","free_racks":"14","terminal_type":"7inch","bike_numbers":"24575,26487,26195,25940,25832,29053,28979","bike_types":{"4":7},"place_type":"0","rack_locks":"1"},{"uid":"2585894","lat":"52.1549453","lng":"21.0492977","name":"Roso\u0142a - Gandhi","spot":"1","number":"9611","bikes":"11","bike_racks":"22","free_racks":"11","terminal_type":"7inch","bike_numbers":"28303,28048,27431,27154,27141,26279,25725,25174,28868,96043,96243","bike_types":{"4":11},"place_type":"0","rack_locks":"1"},{"uid":"2585897","lat":"52.1493105","lng":"21.0453361","name":"Metro Imielin","spot":"1","number":"9612","bikes":"27","bike_racks":"22","free_racks":"0","terminal_type":"7inch","bike_numbers":"24892,24776,24625,24604,24552,25007,28726,28552,28509,28005,27655,27524,26912,26468,26246,25816,25706,25579,25269,25254,60836,29141,25628,28824,63612,96312,96579","bike_types":{"4":26,"0":1},"place_type":"0","rack_locks":"1"},{"uid":"2585899","lat":"52.1522333","lng":"21.0563922","name":"Roso\u0142a - Weso\u0142a","spot":"1","number":"9613","bikes":"6","bike_racks":"23","free_racks":"17","terminal_type":"7inch","bike_numbers":"28513,27957,25173,29106,96307,29158","bike_types":{"4":6},"place_type":"0","rack_locks":"1"},{"uid":"2585901","lat":"52.1427201","lng":"21.0383624","name":"Pileckiego - Alternatywy","spot":"1","number":"9614","bikes":"6","bike_racks":"30","free_racks":"22","terminal_type":"7inch","bike_numbers":"24990,28326,27379,60815,29144,96265","bike_types":{"4":5,"0":1},"place_type":"0","rack_locks":"1"},{"uid":"2585902","lat":"52.142735","lng":"21.0448131","name":"Dereniowa - P\u0142askowickiej","spot":"1","number":"9615","bikes":"7","bike_racks":"22","free_racks":"14","terminal_type":"7inch","bike_numbers":"24646,28299,27829,27793,26341,25045,28870","bike_types":{"4":7},"place_type":"0","rack_locks":"1"},{"uid":"2585904","lat":"52.1376039","lng":"21.0505531","name":"Stryje\u0144skich - Belgradzka","spot":"1","number":"9616","bikes":"8","bike_racks":"15","free_racks":"8","terminal_type":"7inch","bike_numbers":"24977,24017,28372,28069,26507,25353,28800,96188","bike_types":{"4":7,"26":1},"place_type":"0","rack_locks":"1"},{"uid":"2585905","lat":"52.1403909","lng":"21.0568187","name":"Metro Natolin","spot":"1","number":"9617","bikes":"16","bike_racks":"30","free_racks":"14","terminal_type":"7inch","bike_numbers":"24942,24712,24696,24690,24553,28675,28298,27103,26532,25401,60854,29365,96304,96241,96231,96222","bike_types":{"4":16},"place_type":"0","rack_locks":"1"},{"uid":"2585906","lat":"52.1420749","lng":"21.0659905","name":"Belgradzka - Roso\u0142a","spot":"1","number":"9618","bikes":"12","bike_racks":"23","free_racks":"13","terminal_type":"7inch","bike_numbers":"24038,24031,27880,27407,27223,26584,25917,25756,25646,96567,96184,29258","bike_types":{"26":2,"4":10},"place_type":"0","rack_locks":"1"},{"uid":"2585908","lat":"52.1314333","lng":"21.0561562","name":"Stryje\u0144skich - W\u0105wozowa","spot":"1","number":"9619","bikes":"21","bike_racks":"23","free_racks":"4","terminal_type":"7inch","bike_numbers":"24973,24954,24554,24481,28689,28260,28068,28027,27485,27207,26665,26612,26499,26407,26306,26114,26098,25737,25310,60855,60828","bike_types":{"4":20,"51":1},"place_type":"0","rack_locks":"1"},{"uid":"2585911","lat":"52.3326052","lng":"20.9418404","name":"Ordon\u00f3wny - \u015awiatowida","spot":"1","number":"9620","bikes":"16","bike_racks":"22","free_racks":"6","terminal_type":"7inch","bike_numbers":"28433,28076,27982,27847,27721,27486,26986,26953,26651,26620,25608,25489,29077,96008,96185,29185","bike_types":{"4":16},"place_type":"0","rack_locks":"1"},{"uid":"2585913","lat":"52.1310925","lng":"21.0654795","name":"Metro Kabaty","spot":"1","number":"9621","bikes":"18","bike_racks":"22","free_racks":"2","terminal_type":"7inch","bike_numbers":"24866,24701,24629,28361,28360,28215,27981,27205,27135,26928,26818,25923,25575,25491,25054,29131,28871,96347","bike_types":{"4":17,"0":1},"place_type":"0","rack_locks":"1"},{"uid":"2585916","lat":"52.1332642","lng":"21.0747962","name":"W\u0105wozowa - Roso\u0142a","spot":"1","number":"9622","bikes":"13","bike_racks":"18","free_racks":"5","terminal_type":"7inch","bike_numbers":"24997,28818,27975,26075,25927,25519,25467,25347,25104,25050,96040,96444,96218","bike_types":{"4":13},"place_type":"0","rack_locks":"1"},{"uid":"2585917","lat":"52.324116","lng":"21.05663","name":"Skarbka z G\u00f3r - Berensona","spot":"1","number":"9623","bikes":"12","bike_racks":"26","free_racks":"14","terminal_type":"7inch","bike_numbers":"28657,28526,28277,27882,27465,26669,26413,26259,26142,25755,96431,96204","bike_types":{"4":12},"place_type":"0","rack_locks":"1"},{"uid":"2585919","lat":"52.3485329","lng":"20.9418336","name":"Aluzyjna - Tr\u0105by","spot":"1","number":"9624","bikes":"10","bike_racks":"16","free_racks":"5","terminal_type":"7inch","bike_numbers":"24896,27806,27787,27158,26655,25905,25609,96531,96401,96317","bike_types":{"4":10},"place_type":"0","rack_locks":"1"},{"uid":"2585920","lat":"52.3226982","lng":"20.9448107","name":"\u015awiatowida - Mehoffera","spot":"1","number":"9625","bikes":"13","bike_racks":"16","free_racks":"2","terminal_type":"7inch","bike_numbers":"24918,24882,24859,24470,27895,26408,26338,26030,28950,28850,96015,96005,29160","bike_types":{"4":12,"51":1},"place_type":"0","rack_locks":"1"},{"uid":"2585921","lat":"52.3212548","lng":"20.9477347","name":"Bia\u0142o\u0142\u0119cki O\u015brodek Sportu","spot":"1","number":"9626","bikes":"19","bike_racks":"30","free_racks":"11","terminal_type":"7inch","bike_numbers":"24993,24900,24886,28749,27897,27833,27664,26941,26667,26265,26263,25900,25859,25480,29105,28864,96044,96010,96137","bike_types":{"4":19},"place_type":"0","rack_locks":"1"},{"uid":"2585922","lat":"52.3211272","lng":"20.9712964","name":"Bia\u0142o\u0142\u0119ka-Ratusz","spot":"1","number":"9627","bikes":"16","bike_racks":"19","free_racks":"3","terminal_type":"7inch","bike_numbers":"28154,27986,27529,27219,27172,26915,26834,26735,26623,26472,26024,25356,25135,29023,28966,96434","bike_types":{"4":16},"place_type":"0","rack_locks":"1"},{"uid":"2585924","lat":"52.3132981","lng":"20.9655324","name":"My\u015bliborska - al. Kukli\u0144skiego","spot":"1","number":"9628","bikes":"20","bike_racks":"22","free_racks":"2","terminal_type":"7inch","bike_numbers":"24486,28437,28404,28390,27919,27705,27504,27327,27004,26989,26210,26171,26018,25197,25156,29108,28938,28995,96337,96335","bike_types":{"51":1,"4":19},"place_type":"0","rack_locks":"1"},{"uid":"2585925","lat":"52.3031984","lng":"20.9891666","name":"Modli\u0144ska - \u017bera\u0144ska","spot":"1","number":"9629","bikes":"26","bike_racks":"30","free_racks":"3","terminal_type":"7inch","bike_numbers":"24743,24622,28590,28127,27912,27868,27108,27030,26763,26760,26738,26692,26489,26236,26184,25738,25538,25528,25479,25408,29135,29133,96521,96263,96247,96094","bike_types":{"4":24,"0":2},"place_type":"0","rack_locks":"1"},{"uid":"2585926","lat":"52.3150181","lng":"21.0610807","name":"Skarbka z G\u00f3r - Magiczna","spot":"1","number":"9630","bikes":"26","bike_racks":"30","free_racks":"3","terminal_type":"7inch","bike_numbers":"24562,24526,24011,28645,28583,28456,27870,27626,27321,27147,26815,26757,26707,26685,26641,26346,26087,25376,25071,28865,28878,28994,96038,96505,96200,29272","bike_types":{"4":25,"26":1},"place_type":"0","rack_locks":"1"},{"uid":"2585928","lat":"52.3000268","lng":"21.0425266","name":"P\u0119tla Br\u00f3dno - Podgrodzie","spot":"1","number":"9631","bikes":"10","bike_racks":"20","free_racks":"10","terminal_type":"7inch","bike_numbers":"24939,24484,24014,28686,28610,27354,27294,26086,29127,96510","bike_types":{"4":7,"51":1,"26":1,"0":1},"place_type":"0","rack_locks":"1"},{"uid":"2585929","lat":"52.2939957","lng":"21.0272258","name":"Rembieli\u0144ska - Kondratowicza","spot":"1","number":"9632","bikes":"21","bike_racks":"23","free_racks":"2","terminal_type":"7inch","bike_numbers":"28624,28607,28327,28213,28073,27681,27378,27288,27199,27020,26639,26281,25938,25294,25106,28909,28835,96421,96369,96190,29222","bike_types":{"4":21},"place_type":"0","rack_locks":"1"},{"uid":"2585931","lat":"52.2917236","lng":"21.0481189","name":"Targ\u00f3wek-Ratusz","spot":"1","number":"9633","bikes":"10","bike_racks":"28","free_racks":"18","terminal_type":"7inch","bike_numbers":"24921,28001,27908,26484,25780,96394,96322,96162,96148,96103","bike_types":{"4":10},"place_type":"0","rack_locks":"1"},{"uid":"2585932","lat":"52.292208","lng":"21.0419554","name":"Kondratowicza - Chodecka","spot":"1","number":"9634","bikes":"19","bike_racks":"23","free_racks":"4","terminal_type":"7inch","bike_numbers":"24787,28772,28209,28153,27927,27776,27541,27282,26958,26951,26457,26453,26153,25348,29084,96538,96497,96482,29209","bike_types":{"4":19},"place_type":"0","rack_locks":"1"},{"uid":"2585934","lat":"52.2925145","lng":"21.0573949","name":"Kondratowicza - Przy Grodzisku","spot":"1","number":"9635","bikes":"17","bike_racks":"18","free_racks":"2","terminal_type":"7inch","bike_numbers":"24916,28652,28627,27677,27357,26718,26152,26103,25651,25150,29040,29036,29146,28891,96524,96224,96078","bike_types":{"4":16,"0":1},"place_type":"0","rack_locks":"1"},{"uid":"2585936","lat":"52.2878069","lng":"21.0213829","name":"Wysockiego - Poborza\u0144ska","spot":"1","number":"9636","bikes":"17","bike_racks":"23","free_racks":"6","terminal_type":"7inch","bike_numbers":"28137,27918,27835,27051,26151,25666,25663,25488,25470,25170,25146,29347,29034,25625,28806,96407,96376","bike_types":{"4":17},"place_type":"0","rack_locks":"1"},{"uid":"2585937","lat":"52.2885915","lng":"21.0310087","name":"Rembieli\u0144ska - Wyszogrodzka","spot":"1","number":"9637","bikes":"23","bike_racks":"30","free_racks":"7","terminal_type":"7inch","bike_numbers":"24720,24005,28876,28736,28707,28606,28120,27854,27740,27725,27360,27300,27077,26841,26270,26125,25842,25760,25415,25180,25075,96259,29161","bike_types":{"4":22,"26":1},"place_type":"0","rack_locks":"1"},{"uid":"2585938","lat":"52.2864841","lng":"21.0401998","name":"Chodecka - \u017buromi\u0144ska","spot":"1","number":"9638","bikes":"10","bike_racks":"15","free_racks":"6","terminal_type":"7inch","bike_numbers":"24813,27616,27549,27454,27022,25243,25209,29047,29039,96182","bike_types":{"4":10},"place_type":"0","rack_locks":"1"},{"uid":"2585939","lat":"52.281231017533","lng":"21.025852560997","name":"Wysockiego - Matki Teresy z Kalkuty","spot":"1","number":"9639","bikes":"14","bike_racks":"17","free_racks":"3","terminal_type":"7inch","bike_numbers":"24820,24811,28066,28017,27788,25985,25572,25520,25235,25213,25158,28969,96392,96353","bike_types":{"4":14},"place_type":"0","rack_locks":"1"},{"uid":"2585941","lat":"52.2835693","lng":"21.0720858","name":"Blokowa - DK Zacisze","spot":"1","number":"9640","bikes":"11","bike_racks":"18","free_racks":"7","terminal_type":"7inch","bike_numbers":"28628,28567,28123,27502,26240,25926,25621,25088,96054,96020,96081","bike_types":{"4":11},"place_type":"0","rack_locks":"1"},{"uid":"2585942","lat":"52.276259","lng":"21.0530748","name":"P\u0119tla Targ\u00f3wek","spot":"1","number":"9641","bikes":"19","bike_racks":"22","free_racks":"4","terminal_type":"7inch","bike_numbers":"24987,24949,24534,27717,27660,27580,27342,26955,26791,26491,26250,26214,26009,25445,25125,25124,28907,96487,29218","bike_types":{"4":19},"place_type":"0","rack_locks":"1"},{"uid":"2585943","lat":"52.27139","lng":"21.01566","name":"Jagiello\u0144ska - ALK","spot":"1","number":"9642","bikes":"14","bike_racks":"16","free_racks":"2","terminal_type":"7inch","bike_numbers":"24657,24513,28822,28611,27359,26504,26441,26174,26015,25944,25395,28912,96420,96232","bike_types":{"4":14},"place_type":"0","rack_locks":"1"},{"uid":"2585947","lat":"52.2694683","lng":"21.0499817","name":"Ossowskiego","spot":"1","number":"9644","bikes":"5","bike_racks":"17","free_racks":"11","terminal_type":"7inch","bike_numbers":"24783,28342,27344,26239,25456","bike_types":{"4":5},"place_type":"0","rack_locks":"1"},{"uid":"2585951","lat":"52.272602123161","lng":"21.063210368156","name":"Radzymi\u0144ska -Trocka","spot":"1","number":"9645","bikes":"9","bike_racks":"20","free_racks":"11","terminal_type":"7inch","bike_numbers":"24952,24614,24482,27951,27700,26932,26335,25070,28889","bike_types":{"4":8,"51":1},"place_type":"0","rack_locks":"1"},{"uid":"2585953","lat":"52.27347","lng":"21.07698","name":"Bukowiecka - Zamkowa","spot":"1","number":"9646","bikes":"13","bike_racks":"15","free_racks":"2","terminal_type":"7inch","bike_numbers":"24924,28722,28305,28044,27998,26963,26868,26687,26041,25911,25455,25246,29443","bike_types":{"4":13},"place_type":"0","rack_locks":"1"},{"uid":"2585954","lat":"52.2668885","lng":"21.0585675","name":"Radzymi\u0144ska - Piotra Skargi","spot":"1","number":"9647","bikes":"14","bike_racks":"20","free_racks":"6","terminal_type":"7inch","bike_numbers":"24832,28656,28582,27672,27202,26787,26776,26754,26722,26581,26356,26007,25933,25460","bike_types":{"4":14},"place_type":"0","rack_locks":"1"},{"uid":"2585955","lat":"52.2614369","lng":"21.0155744","name":"Wybrze\u017ce Helskie - ZOO","spot":"1","number":"9648","bikes":"13","bike_racks":"22","free_racks":"9","terminal_type":"7inch","bike_numbers":"24702,24471,27907,26572,25744,25705,25536,25390,29024,24498,96031,96192,29229","bike_types":{"4":11,"51":2},"place_type":"0","rack_locks":"1"},{"uid":"2585956","lat":"52.2632492","lng":"21.0212231","name":"Rondo Starzy\u0144skiego","spot":"1","number":"9649","bikes":"18","bike_racks":"24","free_racks":"3","terminal_type":"7inch","bike_numbers":"24846,24831,24816,28616,28268,28030,27848,27651,27087,26394,26100,26094,25350,25280,25097,28839,28880,63615","bike_types":{"4":18},"place_type":"0","rack_locks":"1"},{"uid":"2585958","lat":"52.26421","lng":"21.02618","name":"Darwina - Nusbauma-Hilarowicza","spot":"1","number":"9650","bikes":"15","bike_racks":"21","free_racks":"6","terminal_type":"7inch","bike_numbers":"24607,24016,27747,27377,27193,26895,26872,26789,26640,26089,25981,25360,28853,29205,24048","bike_types":{"4":13,"26":2},"place_type":"0","rack_locks":"1"},{"uid":"2585960","lat":"52.26554","lng":"21.03122","name":"Namys\u0142owska - Darwina","spot":"1","number":"9651","bikes":"8","bike_racks":"15","free_racks":"7","terminal_type":"7inch","bike_numbers":"28578,28560,28458,27016,25447,29652,28858,96171","bike_types":{"4":8},"place_type":"0","rack_locks":"1"},{"uid":"2585961","lat":"52.2690405","lng":"21.0379493","name":"Rondo \u017baba","spot":"1","number":"9652","bikes":"22","bike_racks":"22","free_racks":"0","terminal_type":"7inch","bike_numbers":"24630,25006,28775,28774,28617,28417,27990,27922,27828,27652,27619,27225,27094,27092,27058,26546,25544,29019,28967,96552,29219,24053","bike_types":{"4":21,"26":1},"place_type":"0","rack_locks":"1"},{"uid":"2585963","lat":"52.2591682","lng":"21.0262224","name":"Jagiello\u0144ska - Plac Hallera","spot":"1","number":"9653","bikes":"6","bike_racks":"20","free_racks":"16","terminal_type":"7inch","bike_numbers":"27551,27356,25267,25018,29012,29277","bike_types":{"4":6},"place_type":"0","rack_locks":"1"},{"uid":"2585964","lat":"52.2613811","lng":"21.0305437","name":"Plac Hallera - Sawinkowa","spot":"1","number":"9654","bikes":"15","bike_racks":"28","free_racks":"13","terminal_type":"7inch","bike_numbers":"24737,28735,28496,28484,28447,28080,27645,27550,27387,27313,26690,26079,28951,96242,96233","bike_types":{"4":15},"place_type":"0","rack_locks":"1"},{"uid":"2585967","lat":"52.263","lng":"21.03418","name":"Namys\u0142owska - Szymanowskiego","spot":"1","number":"9655","bikes":"2","bike_racks":"16","free_racks":"14","terminal_type":"7inch","bike_numbers":"26809,25547","bike_types":{"4":2},"place_type":"0","rack_locks":"1"},{"uid":"2585968","lat":"52.2538188","lng":"21.0231542","name":"Ratuszowa - ZOO","spot":"1","number":"9656","bikes":"15","bike_racks":"23","free_racks":"7","terminal_type":"7inch","bike_numbers":"24708,24612,24022,25005,27252,27028,25877,25851,25792,25667,25525,29048,28972,96099,29271","bike_types":{"4":14,"26":1},"place_type":"0","rack_locks":"1"},{"uid":"2585971","lat":"52.256355","lng":"21.029538","name":"Jagiello\u0144ska - Ratuszowa","spot":"1","number":"9657","bikes":"10","bike_racks":"16","free_racks":"6","terminal_type":"7inch","bike_numbers":"24903,28687,27995,27994,27676,27481,27026,25029,29120,60862","bike_types":{"4":9,"0":1},"place_type":"0","rack_locks":"1"},{"uid":"2585972","lat":"52.261449","lng":"21.037614","name":"11 Listopada - Ratuszowa","spot":"1","number":"9658","bikes":"16","bike_racks":"30","free_racks":"16","terminal_type":"7inch","bike_numbers":"24723,28467,28362,28310,28104,27796,27744,27597,27018,26814,26801,26156,26012,29352,63625,96118","bike_types":{"4":16},"place_type":"0","rack_locks":"1"},{"uid":"2585974","lat":"52.263109","lng":"21.0381895","name":"11 listopada - \u015arodkowa","spot":"1","number":"9659","bikes":"10","bike_racks":"18","free_racks":"8","terminal_type":"7inch","bike_numbers":"28081,27810,27195,26919,26732,26275,25398,25257,28996,96419","bike_types":{"4":10},"place_type":"0","rack_locks":"1"},{"uid":"2585975","lat":"52.25839","lng":"21.03537","name":"Stalowa - 11 Listopada","spot":"1","number":"9660","bikes":"13","bike_racks":"24","free_racks":"11","terminal_type":"7inch","bike_numbers":"24556,24527,27634,27017,25831,25736,25567,25448,29090,29143,96315,96272,96124","bike_types":{"4":12,"0":1},"place_type":"0","rack_locks":"1"},{"uid":"2585978","lat":"52.234791","lng":"21.07905","name":"al. Stan\u00f3w Zjednoczonych - Ostrobramska","spot":"1","number":"9661","bikes":"5","bike_racks":"20","free_racks":"14","terminal_type":"7inch","bike_numbers":"24731,28103,27201,27112,96155","bike_types":{"4":5},"place_type":"0","rack_locks":"1"},{"uid":"2585981","lat":"52.2524758","lng":"21.0303479","name":"Floria\u0144ska - Park Praski","spot":"1","number":"9662","bikes":"11","bike_racks":"23","free_racks":"11","terminal_type":"7inch","bike_numbers":"28537,28050,28010,27803,27530,27167,26740,25918,25121,29002,96412","bike_types":{"4":11},"place_type":"0","rack_locks":"1"},{"uid":"2585982","lat":"52.2549757","lng":"21.0339005","name":"Plac Wile\u0144ski","spot":"1","number":"9663","bikes":"36","bike_racks":"30","free_racks":"0","terminal_type":"7inch","bike_numbers":"28869,28603,28502,28405,28393,28347,28053,27911,27778,27519,27312,27192,27146,27079,27035,26964,26843,26617,26594,26592,26552,26549,26404,26140,25788,25577,25405,25249,25064,29097,29004,28933,29139,96209,29193,29228","bike_types":{"4":35,"0":1},"place_type":"0","rack_locks":"1"},{"uid":"2585983","lat":"52.2579576","lng":"21.0399804","name":"Wile\u0144ska - Rzeszotarskiej","spot":"1","number":"9664","bikes":"4","bike_racks":"16","free_racks":"12","terminal_type":"7inch","bike_numbers":"26745,26610,26167,25716","bike_types":{"4":4},"place_type":"0","rack_locks":"1"},{"uid":"2585984","lat":"52.2475848","lng":"20.9568001","name":"al. Prymasa Tysi\u0105clecia - Obozowa","spot":"1","number":"9665","bikes":"7","bike_racks":"13","free_racks":"5","terminal_type":"7inch","bike_numbers":"28013,26595,26353,25810,25605,25285,28894","bike_types":{"4":7},"place_type":"0","rack_locks":"1"},{"uid":"2585985","lat":"52.248607","lng":"21.029647","name":"Okrzei - Panie\u0144ska","spot":"1","number":"9666","bikes":"10","bike_racks":"16","free_racks":"7","terminal_type":"7inch","bike_numbers":"28693,28574,27330,26742,25724,29073,96568,96448,96143,24055","bike_types":{"4":9,"26":1},"place_type":"0","rack_locks":"1"},{"uid":"2585987","lat":"52.2506334","lng":"21.0311174","name":"Sierakowskiego - K\u0142opotowskiego","spot":"1","number":"9667","bikes":"20","bike_racks":"25","free_racks":"4","terminal_type":"7inch","bike_numbers":"24926,28714,28548,28114,28072,27582,27408,27397,27275,27116,27007,26974,26771,25943,25696,25658,25334,96472,96166,96132","bike_types":{"4":20},"place_type":"0","rack_locks":"1"},{"uid":"2585990","lat":"52.2520876","lng":"21.0381368","name":"Targowa - Z\u0105bkowska","spot":"1","number":"9668","bikes":"17","bike_racks":"18","free_racks":"1","terminal_type":"7inch","bike_numbers":"24602,28892,28646,28629,28446,27727,26781,26597,26440,25820,25747,25327,29030,96013,96540,96281,96176","bike_types":{"4":17},"place_type":"0","rack_locks":"1"},{"uid":"2585992","lat":"52.2544855","lng":"21.0433458","name":"Fabryka W\u00f3dek Koneser","spot":"1","number":"9669","bikes":"22","bike_racks":"25","free_racks":"25","terminal_type":"7inch","bike_numbers":"24992,24861,24814,28683,28568,28520,28077,27920,27362,27262,27255,27148,26714,26649,26554,26530,26222,26166,26117,26059,25200,96364","bike_types":{"4":22},"place_type":"0","rack_locks":"1"},{"uid":"2585994","lat":"52.2559027","lng":"21.0495613","name":"Radzymi\u0144ska - Wiosenna","spot":"1","number":"9670","bikes":"19","bike_racks":"26","free_racks":"7","terminal_type":"7inch","bike_numbers":"24961,24770,24725,28764,28491,28408,27683,27331,27246,27212,26837,26359,26282,25906,25896,25101,96477,96457,29168","bike_types":{"4":19},"place_type":"0","rack_locks":"1"},{"uid":"2585995","lat":"52.25965","lng":"21.0529","name":"Radzymi\u0144ska - \u0141om\u017cy\u0144ska","spot":"1","number":"9671","bikes":"21","bike_racks":"24","free_racks":"3","terminal_type":"7inch","bike_numbers":"28615,28532,28211,27798,27687,27459,27416,27411,27394,27224,26996,26734,26508,26344,26225,26118,25893,25855,25802,25474,25284","bike_types":{"4":21},"place_type":"0","rack_locks":"1"},{"uid":"2585996","lat":"52.2583512","lng":"21.0585337","name":"P\u0119tla Kaw\u0119czy\u0144ska-Bazylika","spot":"1","number":"9672","bikes":"13","bike_racks":"26","free_racks":"12","terminal_type":"7inch","bike_numbers":"24893,24857,24724,25009,28382,28275,27650,27137,26603,25998,60845,96469,96116","bike_types":{"4":13},"place_type":"0","rack_locks":"1"},{"uid":"2585997","lat":"52.249864871462","lng":"21.042911410332","name":"Targowa - Kijowska","spot":"1","number":"9673","bikes":"21","bike_racks":"18","free_racks":"0","terminal_type":"7inch","bike_numbers":"24844,24788,24753,24623,24496,27772,27434,27197,27100,26902,26709,26127,25660,25522,25471,25259,96478,96354,96313,96120,29246","bike_types":{"4":20,"51":1},"place_type":"0","rack_locks":"1"},{"uid":"2586000","lat":"52.252745","lng":"21.0510331","name":"Dworzec Wschodni - Kijowska","spot":"1","number":"9674","bikes":"28","bike_racks":"27","free_racks":"7","terminal_type":"7inch","bike_numbers":"24907,24796,24586,24010,25008,28482,27902,27731,27661,27654,27421,27352,27237,27068,26827,26473,26315,26128,26028,25634,25570,25378,25366,29639,28834,96564,96452,29245","bike_types":{"4":27,"26":1},"place_type":"0","rack_locks":"1"},{"uid":"2586001","lat":"52.247314","lng":"21.042731","name":"Metro Stadion Narodowy","spot":"1","number":"9675","bikes":"9","bike_racks":"15","free_racks":"6","terminal_type":"7inch","bike_numbers":"24768,24640,28553,28535,28332,27155,27031,25878,96356","bike_types":{"4":9},"place_type":"0","rack_locks":"1"},{"uid":"2586003","lat":"52.2472308","lng":"21.0476456","name":"al. Zieleniecka - Teatr Powszechny","spot":"1","number":"9676","bikes":"9","bike_racks":"14","free_racks":"5","terminal_type":"7inch","bike_numbers":"28369,28019,27211,26874,26622,26313,25980,29102,96028","bike_types":{"4":9},"place_type":"0","rack_locks":"1"},{"uid":"2586005","lat":"52.247136","lng":"21.056658","name":"Grochowska - Mi\u0144ska","spot":"1","number":"9677","bikes":"23","bike_racks":"30","free_racks":"4","terminal_type":"7inch","bike_numbers":"28632,28515,27755,27673,27403,27353,27260,27173,27045,26517,26343,26192,26136,26043,25996,25439,25182,25148,25129,25046,28954,29281,29237","bike_types":{"4":23},"place_type":"0","rack_locks":"1"},{"uid":"2586009","lat":"52.2464","lng":"21.06868","name":"Praga-Po\u0142udnie-Ratusz","spot":"1","number":"9678","bikes":"12","bike_racks":"15","free_racks":"3","terminal_type":"7inch","bike_numbers":"24550,27827,27589,26979,26427,25773,25594,25274,96548,96380,96244,96091","bike_types":{"4":12},"place_type":"0","rack_locks":"1"},{"uid":"2586011","lat":"52.2501129","lng":"21.0772011","name":"Dwernickiego - Siennicka","spot":"1","number":"9679","bikes":"19","bike_racks":"25","free_racks":"11","terminal_type":"7inch","bike_numbers":"24736,24577,24539,28697,28014,27802,27770,27474,27194,26696,26583,25969,25836,25824,25587,25299,25047,96255,29249","bike_types":{"4":19},"place_type":"0","rack_locks":"1"},{"uid":"2586012","lat":"52.260428882956","lng":"21.041538119316","name":"Stalowa - Czynszowa","spot":"1","number":"9680","bikes":"10","bike_racks":"15","free_racks":"5","terminal_type":"7inch","bike_numbers":"27163,26633,26109,25882,25678,28952,29124,96555,96443,96283","bike_types":{"4":9,"0":1},"place_type":"0","rack_locks":"1"},{"uid":"2586014","lat":"52.2372419","lng":"21.0437644","name":"Wybrze\u017ce Szczeci\u0144skie - Stadion Narodowy","spot":"1","number":"9681","bikes":"27","bike_racks":"23","free_racks":"0","terminal_type":"7inch","bike_numbers":"24694,24644,24639,28592,28274,27641,27480,27426,27371,27272,26750,26701,26653,26361,26155,26101,25894,25453,25339,25275,25233,29126,28837,96025,96014,96001,96133","bike_types":{"4":26,"0":1},"place_type":"0","rack_locks":"1"},{"uid":"2586018","lat":"52.2387103","lng":"21.0507515","name":"Rondo Waszyngtona - Stadion Narodowy","spot":"1","number":"9682","bikes":"18","bike_racks":"27","free_racks":"10","terminal_type":"7inch","bike_numbers":"28286,27914,27730,26935,26790,26672,26579,26443,26044,25746,25618,25451,25293,25093,96042,96502,96189,29189","bike_types":{"4":18},"place_type":"0","rack_locks":"1"},{"uid":"2586019","lat":"52.242281006874","lng":"21.071160435677","name":"Waszyngtona - Kinowa","spot":"1","number":"9683","bikes":"15","bike_racks":"15","free_racks":"0","terminal_type":"7inch","bike_numbers":"24706,28033,27143,27130,26424,25838,25745,25688,25457,25216,25186,29027,96572,96157,29174","bike_types":{"4":15},"place_type":"0","rack_locks":"1"},{"uid":"2586021","lat":"52.2445639","lng":"21.0838057","name":"Rondo Wiatraczna","spot":"1","number":"9684","bikes":"25","bike_racks":"30","free_racks":"2","terminal_type":"7inch","bike_numbers":"24668,24593,24515,28304,27775,27276,27270,27209,26839,26360,25607,25550,25438,25211,25159,25126,25039,29213,96558,96514,96500,96271,96156,96150,29149","bike_types":{"4":25},"place_type":"0","rack_locks":"1"},{"uid":"2586022","lat":"52.2347451","lng":"21.053651","name":"Francuska - Walecznych","spot":"1","number":"9685","bikes":"15","bike_racks":"15","free_racks":"0","terminal_type":"7inch","bike_numbers":"24908,24616,24606,28588,26570,25984,25976,25586,25523,25362,25160,29340,29087,63621,96117","bike_types":{"4":15},"place_type":"0","rack_locks":"1"},{"uid":"2586024","lat":"52.236598","lng":"21.064774","name":"Mi\u0119dzynarodowa - Walecznych","spot":"1","number":"9686","bikes":"4","bike_racks":"15","free_racks":"11","terminal_type":"7inch","bike_numbers":"24012,26387,25355,29119","bike_types":{"26":1,"4":3},"place_type":"0","rack_locks":"1"},{"uid":"2586026","lat":"52.243020071904","lng":"21.102375984192","name":"Plac Szembeka","spot":"1","number":"9687","bikes":"10","bike_racks":"15","free_racks":"3","terminal_type":"7inch","bike_numbers":"24009,27883,26796,25458,25430,25338,29078,96543,96228,96203","bike_types":{"26":1,"4":9},"place_type":"0","rack_locks":"1"},{"uid":"2586028","lat":"52.237559","lng":"21.120087","name":"P\u0119tla Goc\u0142awek","spot":"1","number":"9688","bikes":"8","bike_racks":"16","free_racks":"7","terminal_type":"7inch","bike_numbers":"28465,27709,27615,27164,27088,26505,25874,29446","bike_types":{"4":8},"place_type":"0","rack_locks":"1"},{"uid":"2586030","lat":"52.2258359","lng":"21.0600907","name":"Brukselska - PROM","spot":"1","number":"9689","bikes":"11","bike_racks":"15","free_racks":"4","terminal_type":"7inch","bike_numbers":"28801,28116,27674,27533,27424,27368,27248,26496,26124,25844,25524","bike_types":{"4":11},"place_type":"0","rack_locks":"1"},{"uid":"2586031","lat":"52.260205610017","lng":"21.046854257584","name":"al. Solidarno\u015bci - Szwedzka","spot":"1","number":"9690","bikes":"12","bike_racks":"18","free_racks":"4","terminal_type":"7inch","bike_numbers":"24975,24457,28378,28004,27024,26948,26780,26354,25946,29436,25631,96003","bike_types":{"4":11,"51":1},"place_type":"0","rack_locks":"1"},{"uid":"2586032","lat":"52.230088","lng":"21.067948","name":"al. Stan\u00f3w Zjednoczonych - Mi\u0119dzynarodowa","spot":"1","number":"9691","bikes":"9","bike_racks":"26","free_racks":"17","terminal_type":"7inch","bike_numbers":"24665,28367,27044,25300,25119,29113,28976,96292,29268","bike_types":{"4":9},"place_type":"0","rack_locks":"1"},{"uid":"2586034","lat":"52.23483","lng":"21.09975","name":"Ostrobramska - Zamieniecka","spot":"1","number":"9692","bikes":"20","bike_racks":"23","free_racks":"2","terminal_type":"7inch","bike_numbers":"24940,24669,24545,24491,28352,28257,27763,27422,26906,26817,26520,26292,26122,25385,25368,25176,25110,96559,96437,96375","bike_types":{"4":19,"51":1},"place_type":"0","rack_locks":"1"},{"uid":"2586037","lat":"52.2251969","lng":"21.0712892","name":"Afryka\u0144ska - Egipska","spot":"1","number":"9693","bikes":"11","bike_racks":"16","free_racks":"6","terminal_type":"7inch","bike_numbers":"24004,28773,28717,27382,26217,26067,26052,25956,25639,28914,96575","bike_types":{"26":1,"4":10},"place_type":"0","rack_locks":"1"},{"uid":"2586039","lat":"52.22837","lng":"21.08581","name":"Abrahama - Kapelan\u00f3w AK","spot":"1","number":"9694","bikes":"7","bike_racks":"15","free_racks":"8","terminal_type":"7inch","bike_numbers":"28152,27005,25513,25217,96565,96456,96291","bike_types":{"4":7},"place_type":"0","rack_locks":"1"},{"uid":"2586042","lat":"52.2296088","lng":"21.0945572","name":"Fieldorfa - Bukowskiego","spot":"1","number":"9695","bikes":"15","bike_racks":"20","free_racks":"5","terminal_type":"7inch","bike_numbers":"28636,28493,28290,28144,28118,28037,27889,27713,27669,26898,25433,29103,28849,28845,96450","bike_types":{"4":15},"place_type":"0","rack_locks":"1"},{"uid":"2586044","lat":"52.22974","lng":"21.10624","name":"Rechniewskiego - Nowaka-Jeziora\u0144skiego","spot":"1","number":"9696","bikes":"18","bike_racks":"30","free_racks":"11","terminal_type":"7inch","bike_numbers":"24884,24793,28032,27464,27367,27145,26013,25829,25722,25496,25332,25189,29038,29364,96377,96201,96108,29243","bike_types":{"4":18},"place_type":"0","rack_locks":"1"},{"uid":"2586045","lat":"52.2223071","lng":"21.0907259","name":"Meissnera - Fieldorfa","spot":"1","number":"9697","bikes":"14","bike_racks":"15","free_racks":"1","terminal_type":"7inch","bike_numbers":"24530,24517,28418,28366,28106,27980,27542,27099,26355,26058,25640,25419,28970,63613","bike_types":{"4":14},"place_type":"0","rack_locks":"1"},{"uid":"2586268","lat":"52.23938046828","lng":"21.016716957092","name":"Krakowskie Przedmie\u015bcie - Traugutta 2","spot":"1","number":"94931","bikes":"15","bike_racks":"24","free_racks":"8","terminal_type":"7inch","bike_numbers":"24842,24839,24678,24485,28555,28364,28038,26807,26498,25790,25564,25466,29079,60831,28852","bike_types":{"4":14,"51":1},"place_type":"0","rack_locks":"1"},{"uid":"2586270","lat":"52.241814568386","lng":"21.024039387703","name":"Lipowa - Dobra 2","spot":"1","number":"94961","bikes":"12","bike_racks":"19","free_racks":"11","terminal_type":"7inch","bike_numbers":"24044,28653,28426,26918,26680,26382,25772,25073,29057,96328,96293,29164","bike_types":{"26":1,"4":11},"place_type":"0","rack_locks":"1"},{"uid":"2586272","lat":"52.219916006513","lng":"21.011733412743","name":"Plac Politechniki 2","spot":"1","number":"95381","bikes":"20","bike_racks":"27","free_racks":"6","terminal_type":"7inch","bike_numbers":"24800,24474,28363,27406,27152,27072,26772,26478,26383,25867,25644,25220,29346,29017,29455,28823,28977,96355,96341,96302","bike_types":{"4":19,"51":1},"place_type":"0","rack_locks":"1"},{"uid":"2675985","lat":"52.21759","lng":"21.0096855","name":"Kaczy\u0144skiego - Rektorska","spot":"1","number":"9587","bikes":"18","bike_racks":"19","free_racks":"2","terminal_type":"7inch","bike_numbers":"24747,24619,24582,24492,28435,28317,28289,28196,26866,26715,26479,26465,26379,26196,26116,25452,25630,63627","bike_types":{"4":17,"51":1},"place_type":"0","rack_locks":"1"},{"uid":"2676298","lat":"52.255871","lng":"21.010043","name":"Veturilko - Sanguszki - Wybrze\u017ce Gda\u0144skie","spot":"1","number":"9716","bikes":"11","bike_racks":"14","free_racks":"4","terminal_type":"7inch","bike_numbers":"24377,24372,24367,24358,24264,24254,24395,24299,24292,24288,24282","bike_types":{"35":5,"34":6},"place_type":"11","rack_locks":"1"},{"uid":"2685255","lat":"52.278754","lng":"20.991692","name":"Veturilko - K\u0119pa Potocka","spot":"1","number":"9711","bikes":"10","bike_racks":"14","free_racks":"5","terminal_type":"7inch","bike_numbers":"24354,24280,24277,24269,24253,24387,24385,24400,24301,24290","bike_types":{"35":4,"34":6},"place_type":"11","rack_locks":"1"},{"uid":"2685262","lat":"52.2918548","lng":"21.0354469","name":"Veturilko - Park Br\u00f3dnowski","spot":"1","number":"9712","bikes":"10","bike_racks":"14","free_racks":"5","terminal_type":"7inch","bike_numbers":"24359,24355,24275,24268,24257,24389,24388,24386,24382,24283","bike_types":{"35":6,"34":4},"place_type":"11","rack_locks":"1"},