[{"region_info":{"lat":"52.2345","lng":"21.0024","zoom":"11","name":"VETURILO Poland","hotline":"+4819115","domain":"vp","language":"pl","email":"info@nextbike.pl","timezone":"Europe\/Warsaw","currency":"PLN","country_calling_code":"+48","system_operator_address":"Nextbike Polska S.A. ul. Przasnyska 6B, 01-756 Warszawa","country":"PL","country_name":"Poland","terms":"http:\/\/www.veturilo.waw.pl\/terms\/?v=201701","policy":"","website":"http:\/\/www.veturilo.waw.pl\/","show_free_racks":"1","booked_bikes":"0","set_point_bikes":"5283","available_bikes":"4653"},"places_summary":{"lngMin":20.8689688,"lngMax":21.120087,"latMin":52.117285,"latMax":52.3485329,"lngAvg":21.007806372598,"latAvg":52.230618632679},"places":[{"uid":"2585259","lat":"52.296298","lng":"20.9583575","name":"Dewajtis - UKSW","spot":"1","number":"9402","bikes":"18","bike_racks":"30","free_racks":"16","terminal_type":"7inch","bike_numbers":"24724,24682,28645,28478,28401,28065,26649,26338,26242,26181,25987,25109,28958,29428,29128,28976,96374,96172","bike_types":{"4":17,"0":1},"place_type":"0","rack_locks":"1"},{"uid":"2585263","lat":"52.2909738","lng":"20.9295559","name":"Metro M\u0142ociny","spot":"1","number":"9403","bikes":"18","bike_racks":"30","free_racks":"11","terminal_type":"7inch","bike_numbers":"24036,28395,28072,27858,27612,27548,27537,27145,27098,26635,26225,25472,25400,25305,28871,96531,29162,96591","bike_types":{"54":1,"4":17},"place_type":"0","rack_locks":"1"},{"uid":"2585265","lat":"52.2901732","lng":"20.9503698","name":"Marymoncka - Dewajtis","spot":"1","number":"9404","bikes":"31","bike_racks":"30","free_racks":"5","terminal_type":"7inch","bike_numbers":"24907,24846,24708,24513,24509,28707,28601,28568,28370,27768,27671,27514,27445,27350,27273,27217,27110,26632,26539,26278,25956,25848,25544,25460,28911,96448,96219,96206,29188,29161,96584","bike_types":{"4":31},"place_type":"0","rack_locks":"1"},{"uid":"2585267","lat":"52.285914","lng":"20.940561","name":"Metro Wawrzyszew","spot":"1","number":"9405","bikes":"7","bike_racks":"20","free_racks":"11","terminal_type":"7inch","bike_numbers":"24004,28444,27531,27231,25734,28895,29182","bike_types":{"26":1,"4":6},"place_type":"0","rack_locks":"1"},{"uid":"2585269","lat":"52.2336142","lng":"21.0146353","name":"G\u00f3rskiego - Szpitalna","spot":"1","number":"9406","bikes":"10","bike_racks":"16","free_racks":"6","terminal_type":"7inch","bike_numbers":"28106,27950,27144,27100,26530,26474,26128,25389,25228,25060","bike_types":{"4":10},"place_type":"0","rack_locks":"1"},{"uid":"2585271","lat":"52.2816265","lng":"20.9498871","name":"Metro Stare Bielany","spot":"1","number":"9407","bikes":"10","bike_racks":"30","free_racks":"21","terminal_type":"7inch","bike_numbers":"24730,24016,28759,28360,28213,28073,26828,29090,96513,96263","bike_types":{"4":9,"26":1},"place_type":"0","rack_locks":"1"},{"uid":"2585272","lat":"52.2361217","lng":"21.0219096","name":"Ordynacka - Uniwersytet Muzyczny","spot":"1","number":"9408","bikes":"7","bike_racks":"20","free_racks":"11","terminal_type":"7inch","bike_numbers":"28819,28334,26944,26528,25499,96474,96176","bike_types":{"4":8},"place_type":"0","rack_locks":"1"},{"uid":"2585273","lat":"52.2768774","lng":"20.9481302","name":"Bielany-Ratusz","spot":"1","number":"9409","bikes":"18","bike_racks":"28","free_racks":"10","terminal_type":"7inch","bike_numbers":"24690,28363,27990,27966,27801,27656,27486,27480,27092,27038,26968,26929,26895,26294,25358,96047,96505,29154","bike_types":{"4":18},"place_type":"0","rack_locks":"1"},{"uid":"2585275","lat":"52.2761569","lng":"20.9616673","name":"Metro S\u0142odowiec","spot":"1","number":"9410","bikes":"16","bike_racks":"30","free_racks":"14","terminal_type":"7inch","bike_numbers":"28680,28483,27509,27348,26893,26751,26547,26475,26363,26199,25884,29026,96509,96458,96436,96153","bike_types":{"4":16},"place_type":"0","rack_locks":"1"},{"uid":"2585278","lat":"52.2777751","lng":"20.9856999","name":"Potocka - OSiR \u017boliborz","spot":"1","number":"9411","bikes":"7","bike_racks":"15","free_racks":"8","terminal_type":"7inch","bike_numbers":"24660,28155,26252,26211,25422,25309,96307","bike_types":{"4":7},"place_type":"0","rack_locks":"1"},{"uid":"2585280","lat":"52.273527782989","lng":"20.994186401367","name":"Gwia\u017adzista - Promyka","spot":"1","number":"9412","bikes":"10","bike_racks":"16","free_racks":"6","terminal_type":"7inch","bike_numbers":"28737,27720,27235,27078,26177,26030,25477,29551,96392,29233","bike_types":{"4":10},"place_type":"0","rack_locks":"1"},{"uid":"2585281","lat":"52.270941","lng":"20.9326269","name":"al. Reymonta - Conrada","spot":"1","number":"9413","bikes":"17","bike_racks":"30","free_racks":"11","terminal_type":"7inch","bike_numbers":"24930,28577,28138,27955,27638,27615,27396,27132,27119,26774,26513,25727,25614,25192,25142,25105,96094","bike_types":{"4":17},"place_type":"0","rack_locks":"1"},{"uid":"2585283","lat":"52.2706441","lng":"20.9504181","name":"Broniewskiego - Perzy\u0144skiego","spot":"1","number":"9414","bikes":"15","bike_racks":"16","free_racks":"1","terminal_type":"7inch","bike_numbers":"24854,24824,24530,27924,27876,27661,27191,26672,26264,26135,25897,29057,29434,96363,96159","bike_types":{"4":15},"place_type":"0","rack_locks":"1"},{"uid":"2585284","lat":"52.2714203","lng":"20.9727099","name":"Metro Marymont","spot":"1","number":"9415","bikes":"19","bike_racks":"30","free_racks":"10","terminal_type":"7inch","bike_numbers":"24683,24019,28763,27949,27769,27390,27123,26466,25869,25749,25646,25036,29125,28962,96032,96568,96418,96268,96166","bike_types":{"4":17,"26":1,"0":1},"place_type":"0","rack_locks":"1"},{"uid":"2585285","lat":"52.2694081","lng":"20.9833664","name":"Metro Plac Wilsona","spot":"1","number":"9416","bikes":"14","bike_racks":"21","free_racks":"6","terminal_type":"7inch","bike_numbers":"24638,24026,28882,28634,28416,27903,27685,27640,26582,26465,26423,26270,96002,96293","bike_types":{"4":13,"26":1},"place_type":"0","rack_locks":"1"},{"uid":"2585286","lat":"52.2668623","lng":"20.9637032","name":"Broniewskiego - W\u0142o\u015bcia\u0144ska","spot":"1","number":"9417","bikes":"23","bike_racks":"19","free_racks":"0","terminal_type":"7inch","bike_numbers":"24891,24738,28676,28375,28130,27844,27550,27104,27059,26933,26376,26283,25714,25568,25540,25431,25364,25224,29444,28857,96351,96261,96160","bike_types":{"4":23},"place_type":"0","rack_locks":"1"},{"uid":"2585288","lat":"52.2643984","lng":"20.9723179","name":"Broniewskiego - Krasi\u0144skiego","spot":"1","number":"9418","bikes":"14","bike_racks":"16","free_racks":"2","maintenance":"1","terminal_type":"7inch","bike_numbers":"24843,24740,28885,28633,28332,27711,26813,26800,26445,25700,25570,28939,96412,96169","bike_types":{"4":14},"place_type":"0","rack_locks":"1"},{"uid":"2585289","lat":"52.267875","lng":"21.0020667","name":"Wybrze\u017ce Gdy\u0144skie - KS Sp\u00f3jnia","spot":"1","number":"9419","bikes":"12","bike_racks":"15","free_racks":"3","terminal_type":"7inch","bike_numbers":"24966,24776,28079,27807,27686,26912,26798,26607,26285,26000,25468,29173","bike_types":{"4":12},"place_type":"0","rack_locks":"1"},{"uid":"2585291","lat":"52.2624054","lng":"20.9802551","name":"Plac Grunwaldzki","spot":"1","number":"9420","bikes":"21","bike_racks":"30","free_racks":"9","terminal_type":"7inch","bike_numbers":"24870,24826,24770,24643,24495,27998,27749,27703,27432,27333,27190,27044,26946,26887,26360,25516,25407,25244,29446,29248,24050","bike_types":{"4":19,"51":1,"26":1},"place_type":"0","rack_locks":"1"},{"uid":"2585296","lat":"52.2612575","lng":"20.9863191","name":"Zaj\u0105czka - Bitwy Pod Rokitn\u0105","spot":"1","number":"9421","bikes":"12","bike_racks":"15","free_racks":"4","terminal_type":"7inch","bike_numbers":"24015,28021,28013,27069,26617,26222,25819,25106,25022,29084,28914,96108","bike_types":{"26":1,"4":11},"place_type":"0","rack_locks":"1"},{"uid":"2585297","lat":"52.2645018","lng":"20.9895998","name":"Plac Inwalid\u00f3w","spot":"1","number":"9422","bikes":"11","bike_racks":"15","free_racks":"3","terminal_type":"7inch","bike_numbers":"28373,27074,26971,26598,26563,26427,25882,25144,25085,96042,96578","bike_types":{"4":11},"place_type":"0","rack_locks":"1"},{"uid":"2585299","lat":"52.258245356688","lng":"20.898613929749","name":"P\u0119tla Stare Bemowo","spot":"1","number":"9423","bikes":"11","bike_racks":"21","free_racks":"10","terminal_type":"7inch","bike_numbers":"24020,28462,27683,27250,27149,26380,25566,25171,25034,96035,96247","bike_types":{"26":1,"4":10},"place_type":"0","rack_locks":"1"},{"uid":"2585301","lat":"52.260895125763","lng":"20.923923254013","name":"P\u0119tla Nowe Bemowo","spot":"1","number":"9424","bikes":"18","bike_racks":"25","free_racks":"7","terminal_type":"7inch","bike_numbers":"24790,28820,28514,28282,28147,27869,27314,26786,26477,26290,25220,28935,28934,96008,96314,96233,96200,96110","bike_types":{"4":18},"place_type":"0","rack_locks":"1"},{"uid":"2585304","lat":"52.2575903","lng":"20.9323374","name":"Obro\u0144c\u00f3w Tobruku - Pieni\u0105\u017cka","spot":"1","number":"9425","bikes":"12","bike_racks":"22","free_racks":"10","terminal_type":"7inch","bike_numbers":"24559,24508,28539,28285,27540,26758,26595,26583,25461,25399,96353,29212","bike_types":{"4":12},"place_type":"0","rack_locks":"1"},{"uid":"2585305","lat":"52.2593225","lng":"20.9605511","name":"Pow\u0105zkowska - Krasi\u0144skiego","spot":"1","number":"9426","bikes":"19","bike_racks":"23","free_racks":"4","terminal_type":"7inch","bike_numbers":"24804,24592,24536,28876,28638,28358,28210,28145,27639,27305,26463,26147,26083,26063,29348,28959,29448,96031,96174","bike_types":{"4":18},"place_type":"0","rack_locks":"1"},{"uid":"2585306","lat":"52.2563145","lng":"20.9682307","name":"Pow\u0105zkowska - Plac Niemena","spot":"1","number":"9427","bikes":"9","bike_racks":"16","free_racks":"7","terminal_type":"7inch","bike_numbers":"24582,24043,24042,24021,28562,26354,25668,25473,24053","bike_types":{"4":5,"26":4},"place_type":"0","rack_locks":"1"},{"uid":"2585307","lat":"52.258524460024","lng":"20.970931649208","name":"Przasnyska - Rydygiera","spot":"1","number":"9428","bikes":"15","bike_racks":"15","free_racks":"0","terminal_type":"7inch","bike_numbers":"24798,28442,28211,27882,27715,27253,27252,26940,26926,26409,25485,25390,25235,29190,29262","bike_types":{"4":15},"place_type":"0","rack_locks":"1"},{"uid":"2585308","lat":"52.253594","lng":"20.9798744","name":"Pow\u0105zkowska - Burakowska","spot":"1","number":"9429","bikes":"20","bike_racks":"20","free_racks":"0","terminal_type":"7inch","bike_numbers":"24755,24610,25000,28427,28350,28151,27770,27016,26977,26853,26677,25807,25660,25259,25185,28840,28838,96203,96175,96173","bike_types":{"4":20},"place_type":"0","rack_locks":"1"},{"uid":"2585311","lat":"52.2576018","lng":"20.9944975","name":"Metro Dworzec Gda\u0144ski","spot":"1","number":"9430","bikes":"22","bike_racks":"30","free_racks":"3","terminal_type":"7inch","bike_numbers":"24486,24481,28727,28597,28593,27980,27500,27380,27257,26938,26533,26401,26281,26178,25803,25284,25189,29134,28993,96432,96228,96150","bike_types":{"51":2,"4":21},"place_type":"0","rack_locks":"1"},{"uid":"2585315","lat":"52.2465952","lng":"20.9429216","name":"Obozowa - Cio\u0142ka","spot":"1","number":"9432","bikes":"12","bike_racks":"13","free_racks":"1","terminal_type":"7inch","bike_numbers":"24028,28413,28094,27600,26906,26086,25414,25152,29071,96543,29180,24052","bike_types":{"26":2,"4":10},"place_type":"0","rack_locks":"1"},{"uid":"2585317","lat":"52.227621983552","lng":"20.956758856773","name":"al. Prymasa Tysi\u0105clecia - Kasprzaka","spot":"1","number":"9433","bikes":"23","bike_racks":"23","free_racks":"0","terminal_type":"7inch","bike_numbers":"24971,24736,24713,24576,28510,28457,27774,27678,27547,27296,27259,27195,26948,26611,26226,25372,25354,25061,29343,96506,96480,96343,96577","bike_types":{"4":23},"place_type":"0","rack_locks":"1"},{"uid":"2585319","lat":"52.246037","lng":"20.962463","name":"Obozowa - Radziwie","spot":"1","number":"9434","bikes":"4","bike_racks":"13","free_racks":"10","terminal_type":"7inch","bike_numbers":"24716,25684,25395,29007","bike_types":{"4":4},"place_type":"0","rack_locks":"1"},{"uid":"2585321","lat":"52.2514708","lng":"20.9857053","name":"al. Jana Paw\u0142a II - Stawki","spot":"1","number":"9435","bikes":"8","bike_racks":"23","free_racks":"15","terminal_type":"7inch","bike_numbers":"24517,28743,26717,26531,25427,25219,96497,96376","bike_types":{"4":8},"place_type":"0","rack_locks":"1"},{"uid":"2585323","lat":"52.2535305","lng":"20.9924922","name":"Stawki - Dubois","spot":"1","number":"9436","bikes":"15","bike_racks":"13","free_racks":"2","terminal_type":"7inch","bike_numbers":"24626,28755,28544,28534,28511,27529,27309,26549,26286,26158,25145,29113,29112,29073,96453","bike_types":{"4":15},"place_type":"0","rack_locks":"1"},{"uid":"2585326","lat":"52.2541702","lng":"20.9980649","name":"Andersa - Muranowska","spot":"1","number":"9437","bikes":"19","bike_racks":"30","free_racks":"11","terminal_type":"7inch","bike_numbers":"24805,24671,28348,27860,26964,26565,26488,26428,25983,25887,25762,25738,25213,25094,96060,63619,96487,96288,96251","bike_types":{"4":19},"place_type":"0","rack_locks":"1"},{"uid":"2585327","lat":"52.255877","lng":"21.0099819","name":"Sanguszki - Wybrze\u017ce Gda\u0144skie","spot":"1","number":"9438","bikes":"26","bike_racks":"28","free_racks":"2","terminal_type":"7inch","bike_numbers":"24865,24652,28738,28715,28602,28472,28194,28115,27635,27617,27239,26773,26686,26492,26170,26015,25699,25580,25530,25302,25089,29449,29122,28850,96443,29274","bike_types":{"4":25,"0":1},"place_type":"0","rack_locks":"1"},{"uid":"2585330","lat":"52.24418","lng":"20.97794","name":"Okopowa - Anielewicza","spot":"1","number":"9440","bikes":"7","bike_racks":"20","free_racks":"12","terminal_type":"7inch","bike_numbers":"24847,24728,28677,28493,27143,26144,25721","bike_types":{"4":7},"place_type":"0","rack_locks":"1"},{"uid":"2585333","lat":"52.2486","lng":"20.98352","name":"Smocza - Mi\u0142a","spot":"1","number":"9441","bikes":"8","bike_racks":"15","free_racks":"7","terminal_type":"7inch","bike_numbers":"24995,24585,28674,27857,26839,25687,25609,96434","bike_types":{"4":8},"place_type":"0","rack_locks":"1"},{"uid":"2585334","lat":"52.24616","lng":"20.98538","name":"Smocza - Anielewicza","spot":"1","number":"9442","bikes":"13","bike_racks":"17","free_racks":"4","terminal_type":"7inch","bike_numbers":"28672,28501,28428,27983,27900,27470,27293,27125,26864,26239,26100,25601,96445","bike_types":{"4":13},"place_type":"0","rack_locks":"1"},{"uid":"2585335","lat":"52.247226","lng":"20.9893155","name":"al. Jana Paw\u0142a II - Anielewicza","spot":"1","number":"9443","bikes":"8","bike_racks":"22","free_racks":"14","terminal_type":"7inch","bike_numbers":"24853,28504,27395,26193,25253,28938,96128,29265","bike_types":{"4":8},"place_type":"0","rack_locks":"1"},{"uid":"2585337","lat":"52.249052","lng":"20.9948923","name":"Anielewicza - Zamenhofa","spot":"1","number":"9444","bikes":"8","bike_racks":"15","free_racks":"6","terminal_type":"7inch","bike_numbers":"28486,28405,28135,27677,26123,26060,96574,29186","bike_types":{"4":8,"16":1},"place_type":"0","rack_locks":"1"},{"uid":"2585338","lat":"52.2492196","lng":"20.9971878","name":"Anielewicza - Andersa","spot":"1","number":"9445","bikes":"12","bike_racks":"20","free_racks":"7","terminal_type":"7inch","bike_numbers":"24523,28902,28678,27221,26820,26108,25753,25651,25594,29426,96385,96585","bike_types":{"4":12},"place_type":"0","rack_locks":"1"},{"uid":"2585340","lat":"52.251549","lng":"21.002749","name":"Bonifraterska - Franciszka\u0144ska","spot":"1","number":"9446","bikes":"8","bike_racks":"16","free_racks":"8","terminal_type":"7inch","bike_numbers":"24927,24924,28030,27062,26810,29345,28972,29155","bike_types":{"4":8},"place_type":"0","rack_locks":"1"},{"uid":"2585342","lat":"52.2541119","lng":"21.0093342","name":"Ko\u015bcielna - Piesza","spot":"1","number":"9448","bikes":"21","bike_racks":"26","free_racks":"5","terminal_type":"7inch","bike_numbers":"24669,24623,28267,27992,27716,27452,27216,27183,26749,26618,26421,26148,25990,25789,25755,25464,25040,29129,25961,28894,96456","bike_types":{"4":20,"0":1},"place_type":"0","rack_locks":"1"},{"uid":"2585344","lat":"52.2392622","lng":"20.8987641","name":"P\u0119tla Os. G\u00f3rczewska","spot":"1","number":"9449","bikes":"11","bike_racks":"15","free_racks":"5","terminal_type":"7inch","bike_numbers":"24586,28728,28703,28429,28042,27912,26614,25661,25640,96378,96269","bike_types":{"4":11},"place_type":"0","rack_locks":"1"},{"uid":"2585345","lat":"52.2389287","lng":"20.9139535","name":"Bemowo-Ratusz","spot":"1","number":"9450","bikes":"14","bike_racks":"20","free_racks":"5","terminal_type":"7inch","bike_numbers":"24953,24654,28111,28017,28016,27989,27752,27189,27142,26381,26102,25935,25520,96366","bike_types":{"4":15},"place_type":"0","rack_locks":"1"},{"uid":"2585346","lat":"52.2387861","lng":"20.9424946","name":"Okocimska - Olbrachta","spot":"1","number":"9451","bikes":"11","bike_racks":"18","free_racks":"6","terminal_type":"7inch","bike_numbers":"24835,24567,27676,27439,27148,26989,26953,26508,26031,25240,96354","bike_types":{"4":12},"place_type":"0","rack_locks":"1"},{"uid":"2585349","lat":"52.2506241","lng":"21.0533611","name":"Dworzec Wschodni - Lubelska","spot":"1","number":"9452","bikes":"13","bike_racks":"15","free_racks":"2","terminal_type":"7inch","bike_numbers":"28741,27956,27727,27543,27444,26913,26745,26126,25238,25119,29140,28853,96244","bike_types":{"4":12,"0":1},"place_type":"0","rack_locks":"1"},{"uid":"2585351","lat":"52.2369249","lng":"20.9723559","name":"Leszno - M\u0142ynarska","spot":"1","number":"9453","bikes":"30","bike_racks":"30","free_racks":"0","terminal_type":"7inch","bike_numbers":"24834,24753,24646,24023,28310,28158,27988,27951,27168,27151,26480,26136,25854,25802,25778,25621,25618,25409,25381,25332,25306,25077,29117,28956,28921,29459,29141,96023,96019,96124","bike_types":{"4":28,"26":1,"0":1},"place_type":"0","rack_locks":"1"},{"uid":"2585352","lat":"52.2430451","lng":"20.9803864","name":"Dzielna - Bellottiego","spot":"1","number":"9454","bikes":"0","bike_racks":"13","free_racks":"12","terminal_type":"7inch","place_type":"0","rack_locks":"1","bike_numbers":null,"bike_types":[]},{"uid":"2585353","lat":"52.24108","lng":"20.98316","name":"Wolno\u015b\u0107 - Bellottiego","spot":"1","number":"9455","bikes":"9","bike_racks":"16","free_racks":"7","terminal_type":"7inch","bike_numbers":"24635,24471,25004,28078,27679,27049,26183,29656,25627","bike_types":{"4":8,"51":1},"place_type":"0","rack_locks":"1"},{"uid":"2585354","lat":"52.2435448","lng":"20.9873507","name":"Smocza - Nowolipki","spot":"1","number":"9456","bikes":"15","bike_racks":"16","free_racks":"1","terminal_type":"7inch","bike_numbers":"24519,24518,24001,28080,27681,27304,27223,26412,26271,25133,28941,29359,96223,96171,29220","bike_types":{"4":14,"26":1},"place_type":"0","rack_locks":"1"},{"uid":"2585356","lat":"52.2445767","lng":"20.99177","name":"al. Jana Paw\u0142a II - Nowolipki","spot":"1","number":"9457","bikes":"7","bike_racks":"16","free_racks":"9","terminal_type":"7inch","bike_numbers":"28615,28384,26901,26738,26422,25670,28852","bike_types":{"4":7},"place_type":"0","rack_locks":"1"},{"uid":"2585358","lat":"52.22868","lng":"20.91509","name":"Powsta\u0144c\u00f3w \u015al\u0105skich - Cz\u0142uchowska","spot":"1","number":"9458","bikes":"15","bike_racks":"16","free_racks":"2","terminal_type":"7inch","bike_numbers":"24751,24453,28772,28025,27965,27771,27655,26633,26451,26124,25922,28924,28813,96444,96123","bike_types":{"4":14,"51":1},"place_type":"0","rack_locks":"1"},{"uid":"2585360","lat":"52.2342032","lng":"20.934689","name":"Jana Olbrachta - Antka Rozpylacza","spot":"1","number":"9459","bikes":"17","bike_racks":"13","free_racks":"0","terminal_type":"7inch","bike_numbers":"24935,24813,24006,28708,27997,27651,27345,26258,26017,25858,25019,28948,28808,28983,96518,96421,29277","bike_types":{"4":16,"26":1},"place_type":"0","rack_locks":"1"},{"uid":"2585364","lat":"52.2401623","lng":"20.9877277","name":"Wola-Ratusz","spot":"1","number":"9460","bikes":"2","bike_racks":"15","free_racks":"10","terminal_type":"7inch","bike_numbers":"26764,26279","bike_types":{"4":2},"place_type":"0","rack_locks":"1"},{"uid":"2585368","lat":"52.2445326","lng":"20.99998","name":"Plac Bankowy - Kino Muran\u00f3w","spot":"1","number":"9462","bikes":"9","bike_racks":"17","free_racks":"9","terminal_type":"7inch","bike_numbers":"28533,28525,27788,26502,26392,25035,29368,96300,96121","bike_types":{"4":9},"place_type":"0","rack_locks":"1"},{"uid":"2585369","lat":"52.2449465","lng":"21.0012943","name":"Andersa - D\u0142uga","spot":"1","number":"9463","bikes":"23","bike_racks":"30","free_racks":"7","terminal_type":"7inch","bike_numbers":"24801,28764,28729,28668,28627,28402,28316,28019,27385,27109,26829,26377,25946,25851,25678,25676,25615,25447,28916,29445,29421,28883,29231","bike_types":{"4":23},"place_type":"0","rack_locks":"1"},{"uid":"2585370","lat":"52.2442666","lng":"21.0015893","name":"Marsza\u0142kowska - al. Solidarno\u015bci","spot":"1","number":"9464","bikes":"23","bike_racks":"30","free_racks":"6","terminal_type":"7inch","bike_numbers":"28714,28688,28665,28507,27780,27610,27367,27341,27263,27099,27018,26157,26087,25565,25508,25092,25080,29103,28954,28846,96562,96547,96527","bike_types":{"4":23},"place_type":"0","rack_locks":"1"},{"uid":"2585371","lat":"52.2431975","lng":"21.0016603","name":"Plac Bankowy - Ratusz","spot":"1","number":"9465","bikes":"21","bike_racks":"30","free_racks":"9","terminal_type":"7inch","bike_numbers":"24943,24741,24490,28726,28132,27152,27137,27077,26778,26486,26250,25968,25723,25444,25319,25178,25128,25124,25104,29089,29014","bike_types":{"4":20,"51":1},"place_type":"0","rack_locks":"1"},{"uid":"2585373","lat":"52.2435719","lng":"21.0066801","name":"Senatorska - Biela\u0144ska","spot":"1","number":"9466","bikes":"12","bike_racks":"17","free_racks":"12","terminal_type":"7inch","bike_numbers":"24894,28643,28116,27626,27155,26888,26615,26455,25291,29649,28867,96100","bike_types":{"4":11},"place_type":"0","rack_locks":"1"},{"uid":"2585377","lat":"52.246314509834","lng":"21.0113042593","name":"Miodowa","spot":"1","number":"9467","bikes":"8","bike_racks":"24","free_racks":"17","terminal_type":"7inch","bike_numbers":"28576,26951,26743,26554,26406,25183,29432,29264","bike_types":{"4":8},"place_type":"0","rack_locks":"1"},{"uid":"2585378","lat":"52.2435965","lng":"21.0140803","name":"Krakowskie Przedmie\u015bcie - Tr\u0119backa","spot":"1","number":"9468","bikes":"18","bike_racks":"14","free_racks":"1","terminal_type":"7inch","bike_numbers":"24631,24616,24615,24541,28031,27802,27782,27551,27507,27187,26999,26622,29061,28992,96406,96394,96332,96131","bike_types":{"4":18},"place_type":"0","rack_locks":"1"},{"uid":"2585379","lat":"52.2465625","lng":"21.0174345","name":"Mariensztat","spot":"1","number":"9469","bikes":"14","bike_racks":"15","free_racks":"0","terminal_type":"7inch","bike_numbers":"24012,28644,28477,27450,27377,27359,27260,27066,26118,25554,25438,25419,29451,63613","bike_types":{"26":1,"4":13},"place_type":"0","rack_locks":"1"},{"uid":"2585381","lat":"52.224934","lng":"20.945489","name":"Jana Kazimierza - Giz\u00f3w","spot":"1","number":"9471","bikes":"8","bike_racks":"13","free_racks":"5","terminal_type":"7inch","bike_numbers":"28272,27425,27055,25863,25805,25369,29171,29221","bike_types":{"4":9},"place_type":"0","rack_locks":"1"},{"uid":"2585385","lat":"52.23016","lng":"20.951558","name":"Wolska - Elekcyjna","spot":"1","number":"9472","bikes":"11","bike_racks":"20","free_racks":"9","terminal_type":"7inch","bike_numbers":"24769,24698,28640,27874,27299,27262,26925,25992,25947,96212,29254","bike_types":{"4":11},"place_type":"0","rack_locks":"1"},{"uid":"2585387","lat":"52.237662392829","lng":"20.955492854118","name":"al. Prymasa Tysi\u0105clecia - G\u00f3rczewska","spot":"1","number":"9473","bikes":"18","bike_racks":"20","free_racks":"2","terminal_type":"7inch","bike_numbers":"24597,27840,27789,27419,26762,26608,26494,26449,26407,26040,25671,25619,25413,25165,96350,96236,29211,29239","bike_types":{"4":18},"place_type":"0","rack_locks":"1"},{"uid":"2585389","lat":"52.2333374","lng":"20.9652776","name":"Wolska - P\u0142ocka","spot":"1","number":"9474","bikes":"15","bike_racks":"15","free_racks":"0","terminal_type":"7inch","bike_numbers":"24999,24916,28347,28300,27880,27645,27539,27306,27199,27047,26701,26639,26326,25927,25644","bike_types":{"4":15},"place_type":"0","rack_locks":"1"},{"uid":"2585391","lat":"52.228522296173","lng":"20.969638824463","name":"Kasprzaka - Skierniewicka","spot":"1","number":"9475","bikes":"13","bike_racks":"21","free_racks":"9","terminal_type":"7inch","bike_numbers":"24944,24707,24507,27757,26840,26802,26215,25606,25303,29048,96349,96163,29207","bike_types":{"4":13},"place_type":"0","rack_locks":"1"},{"uid":"2585394","lat":"52.22898","lng":"20.97843","name":"Kasprzaka - Karolkowa","spot":"1","number":"9476","bikes":"2","bike_racks":"15","free_racks":"13","terminal_type":"7inch","bike_numbers":"26826,26093","bike_types":{"4":2},"place_type":"0","rack_locks":"1"},{"uid":"2585396","lat":"52.2328752","lng":"20.9805411","name":"Muzeum Powstania Warszawskiego","spot":"1","number":"9477","bikes":"6","bike_racks":"10","free_racks":"4","terminal_type":"7inch","bike_numbers":"28453,27542,25685,28919,96490,96428","bike_types":{"4":6},"place_type":"0","rack_locks":"1"},{"uid":"2585398","lat":"52.22983","lng":"20.983123","name":"Metro Rondo Daszy\u0144skiego","spot":"1","number":"9478","bikes":"9","bike_racks":"26","free_racks":"18","terminal_type":"7inch","bike_numbers":"24877,24571,28035,27697,27022,26961,26467,25363,29387","bike_types":{"4":9},"place_type":"0","rack_locks":"1"},{"uid":"2585400","lat":"52.23145","lng":"20.98869","name":"Prosta - Wronia","spot":"1","number":"9479","bikes":"2","bike_racks":"15","free_racks":"10","terminal_type":"7inch","bike_numbers":"27440,29266","bike_types":{"4":3},"place_type":"0","rack_locks":"1"},{"uid":"2585401","lat":"52.2373141","lng":"20.9888488","name":"\u017belazna - Ch\u0142odna","spot":"1","number":"9480","bikes":"9","bike_racks":"15","free_racks":"6","terminal_type":"7inch","bike_numbers":"27624,26490,26461,26388,25775,29131,96462,96417,96102","bike_types":{"4":8,"0":1},"place_type":"0","rack_locks":"1"},{"uid":"2585402","lat":"52.2344946","lng":"20.9905117","name":"\u017belazna - Grzybowska","spot":"1","number":"9481","bikes":"11","bike_racks":"20","free_racks":"12","terminal_type":"7inch","bike_numbers":"24997,28719,28044,28041,26852,26435,25290,29023,29652,29178,96576","bike_types":{"4":11},"place_type":"0","rack_locks":"1"},{"uid":"2585405","lat":"52.238666","lng":"20.9957314","name":"al. Jana Paw\u0142a II - Plac Mirowski","spot":"1","number":"9482","bikes":"6","bike_racks":"16","free_racks":"8","terminal_type":"7inch","bike_numbers":"28553,27379,27266,25638,96147,29279","bike_types":{"4":6},"place_type":"0","rack_locks":"1"},{"uid":"2585406","lat":"52.2357151","lng":"20.9966071","name":"al. Jana Paw\u0142a II - Grzybowska","spot":"1","number":"9483","bikes":"9","bike_racks":"23","free_racks":"15","terminal_type":"7inch","bike_numbers":"28004,27080,26986,26687,26301,26246,25339,25191,96583","bike_types":{"4":9},"place_type":"0","rack_locks":"1"},{"uid":"2585410","lat":"52.23958","lng":"21.00027","name":"Ptasia - Zimna","spot":"1","number":"9485","bikes":"8","bike_racks":"16","free_racks":"9","terminal_type":"7inch","bike_numbers":"24950,27922,27376,26253,25838,25261,96534,96170","bike_types":{"4":8},"place_type":"0","rack_locks":"1"},{"uid":"2585412","lat":"52.2336314","lng":"21.0028795","name":"Emilii Plater - \u015awi\u0119tokrzyska","spot":"1","number":"9486","bikes":"27","bike_racks":"26","free_racks":"0","terminal_type":"7inch","bike_numbers":"24792,24764,24735,28897,28744,28549,28459,28152,27426,27246,27095,27082,27075,26790,26694,26540,26536,26382,26267,26001,25969,25782,25641,29043,96275,96168,96125","bike_types":{"4":27},"place_type":"0","rack_locks":"1"},{"uid":"2585413","lat":"52.2358704","lng":"21.0037806","name":"Plac Grzybowski","spot":"1","number":"9487","bikes":"24","bike_racks":"26","free_racks":"1","terminal_type":"7inch","bike_numbers":"24908,28608,28259,28091,28033,27241,27170,27024,26991,26789,26454,26240,26159,25816,25800,29013,63615,96519,96439,96419,96380,96276,29256,29241","bike_types":{"4":24},"place_type":"0","rack_locks":"1"},{"uid":"2585416","lat":"52.2384853","lng":"21.0067552","name":"Marsza\u0142kowska - Kr\u00f3lewska","spot":"1","number":"9488","bikes":"7","bike_racks":"19","free_racks":"12","terminal_type":"7inch","bike_numbers":"24584,27907,26496,26101,25824,25371,29015","bike_types":{"4":7},"place_type":"0","rack_locks":"1"},{"uid":"2585417","lat":"52.2364206","lng":"21.0072407","name":"Marsza\u0142kowska - Zielna","spot":"1","number":"9489","bikes":"23","bike_racks":"30","free_racks":"6","terminal_type":"7inch","bike_numbers":"24806,24666,24560,28485,28093,27534,27272,27116,27088,26997,26772,26771,25963,25831,25411,25351,25044,25626,96573,96554,96427,96254,96189","bike_types":{"4":23},"place_type":"0","rack_locks":"1"},{"uid":"2585420","lat":"52.2397008","lng":"21.0119292","name":"Plac Ma\u0142achowskiego","spot":"1","number":"9491","bikes":"3","bike_racks":"16","free_racks":"15","terminal_type":"7inch","bike_numbers":"27609,26885,25432","bike_types":{"4":3},"place_type":"0","rack_locks":"1"},{"uid":"2585422","lat":"52.2359114","lng":"21.0135654","name":"Plac Powsta\u0144c\u00f3w Warszawy","spot":"1","number":"9492","bikes":"8","bike_racks":"20","free_racks":"10","terminal_type":"7inch","bike_numbers":"24675,28045,26970,26379,26292,25837,25713,28778","bike_types":{"4":8},"place_type":"0","rack_locks":"1"},{"uid":"2585423","lat":"52.2393559","lng":"21.016603","name":"Krakowskie Przedmie\u015bcie - Traugutta","spot":"1","number":"9493","bikes":"4","bike_racks":"24","free_racks":"19","terminal_type":"7inch","bike_numbers":"25847,25726,25552,25155","bike_types":{"4":4},"place_type":"0","rack_locks":"1"},{"uid":"2585429","lat":"52.238298","lng":"21.0184014","name":"Obo\u017ana - Kopernika","spot":"1","number":"9495","bikes":"13","bike_racks":"22","free_racks":"9","terminal_type":"7inch","bike_numbers":"28575,28305,27557,26962,26468,25731,25343,25030,29087,25630,28913,96041,96009","bike_types":{"4":13},"place_type":"0","rack_locks":"1"},{"uid":"2585430","lat":"52.24190654256","lng":"21.024259328842","name":"Lipowa - Dobra","spot":"1","number":"9496","bikes":"26","bike_racks":"19","free_racks":"1","terminal_type":"7inch","bike_numbers":"24929,24553,24469,28699,28626,28555,28529,28103,27751,27173,26890,26735,26420,26336,26315,26162,26067,26053,25871,25555,25320,29102,29097,28909,96464,96284","bike_types":{"4":23,"51":1},"place_type":"0","rack_locks":"1"},{"uid":"2585431","lat":"52.2413087","lng":"21.0281727","name":"Centrum Nauki Kopernik","spot":"1","number":"9497","bikes":"18","bike_racks":"30","free_racks":"12","terminal_type":"7inch","bike_numbers":"24925,24575,28573,28262,27929,27826,27796,27616,27236,26866,26601,25830,25560,25299,28866,96558,96227,29258","bike_types":{"4":18},"place_type":"0","rack_locks":"1"},{"uid":"2585432","lat":"52.2264464","lng":"20.9837164","name":"Kolejowa","spot":"1","number":"9498","bikes":"17","bike_racks":"16","free_racks":"0","terminal_type":"7inch","bike_numbers":"28313,27941,27901,27824,27454,27043,26830,26597,26359,26106,25610,25295,25027,29063,96510,96461,29163","bike_types":{"4":17},"place_type":"0","rack_locks":"1"},{"uid":"2585433","lat":"52.22983","lng":"20.993996","name":"\u017belazna - Sienna","spot":"1","number":"9499","bikes":"8","bike_racks":"24","free_racks":"14","terminal_type":"7inch","bike_numbers":"26878,26265,26028,25603,25488,25388,96026,96478","bike_types":{"4":8},"place_type":"0","rack_locks":"1"},{"uid":"2585435","lat":"52.230201297582","lng":"20.999550819397","name":"al. Jana Paw\u0142a II - Z\u0142ota","spot":"1","number":"9500","bikes":"10","bike_racks":"16","free_racks":"5","terminal_type":"7inch","bike_numbers":"26920,26173,25862,25605,25578,25456,25423,96540,96181,29168","bike_types":{"4":10},"place_type":"0","rack_locks":"1"},{"uid":"2585438","lat":"52.2309778","lng":"21.0036755","name":"Emilii Plater - Z\u0142ota","spot":"1","number":"9501","bikes":"34","bike_racks":"30","free_racks":"0","terminal_type":"7inch","bike_numbers":"24883,28473,28425,28374,28276,28064,28046,27634,27409,27353,27329,27237,27174,27106,26819,26728,26511,26309,26256,26005,25981,25725,25469,25434,25118,25082,29080,29374,28967,96553,96455,96451,96178,96084","bike_types":{"4":34},"place_type":"0","rack_locks":"1"},{"uid":"2585440","lat":"52.232816601853","lng":"21.006980538368","name":"Pa\u0142ac Kultury i Nauki","spot":"1","number":"9502","bikes":"5","bike_racks":"17","free_racks":"12","terminal_type":"7inch","bike_numbers":"24478,27853,27321,25984,96523","bike_types":{"51":1,"4":4},"place_type":"0","rack_locks":"1"},{"uid":"2585442","lat":"52.232934","lng":"21.0101791","name":"Marsza\u0142kowska - Z\u0142ota","spot":"1","number":"9503","bikes":"14","bike_racks":"22","free_racks":"8","terminal_type":"7inch","bike_numbers":"24914,24549,28717,28528,28012,26972,26921,26236,26004,25229,29123,28856,96230,29255","bike_types":{"4":13,"0":1},"place_type":"0","rack_locks":"1"},{"uid":"2585445","lat":"52.231987","lng":"21.016092","name":"Bracka - Krucza","spot":"1","number":"9504","bikes":"17","bike_racks":"20","free_racks":"3","terminal_type":"7inch","bike_numbers":"24762,28574,28523,28001,27740,27670,26965,26914,26861,26441,26322,25761,25539,25525,25032,28945,96502","bike_types":{"4":17},"place_type":"0","rack_locks":"1"},{"uid":"2585446","lat":"52.2355713","lng":"21.0179642","name":"Nowy \u015awiat - Warecka","spot":"1","number":"9505","bikes":"15","bike_racks":"24","free_racks":"11","terminal_type":"7inch","bike_numbers":"24817,24684,24673,28761,28757,27820,27809,27414,25214,25211,25058,96533,96441,96290,96146","bike_types":{"4":15},"place_type":"0","rack_locks":"1"},{"uid":"2585447","lat":"52.2337571","lng":"21.0202789","name":"Ga\u0142czy\u0144skiego - Foksal","spot":"1","number":"9506","bikes":"14","bike_racks":"24","free_racks":"9","terminal_type":"7inch","bike_numbers":"24754,24745,24625,28747,27411,27301,27028,26698,25895,25696,25265,25175,96005,96088","bike_types":{"4":14},"place_type":"0","rack_locks":"1"},{"uid":"2585450","lat":"52.2375934","lng":"21.0256487","name":"Topiel - Tamka","spot":"1","number":"9507","bikes":"4","bike_racks":"20","free_racks":"15","terminal_type":"7inch","bike_numbers":"24608,26740,25586,25188","bike_types":{"4":4},"place_type":"0","rack_locks":"1"},{"uid":"2585452","lat":"52.2358752","lng":"21.0317323","name":"Solec - Jaracza","spot":"1","number":"9508","bikes":"9","bike_racks":"15","free_racks":"5","terminal_type":"7inch","bike_numbers":"28435,26662,26527,26069,25972,25463,29040,96463,96161","bike_types":{"4":9},"place_type":"0","rack_locks":"1"},{"uid":"2585453","lat":"52.2218874","lng":"20.9795301","name":"al. Jerozolimskie - Niemcewicza","spot":"1","number":"9509","bikes":"2","bike_racks":"19","free_racks":"15","terminal_type":"7inch","bike_numbers":"27127,26586","bike_types":{"4":2},"place_type":"0","rack_locks":"1"},{"uid":"2585455","lat":"52.2222155","lng":"20.9866293","name":"Ochota-Ratusz","spot":"1","number":"9510","bikes":"10","bike_racks":"23","free_racks":"13","terminal_type":"7inch","bike_numbers":"28620,28540,26984,26343,25710,25317,28910,29454,96264,96255","bike_types":{"4":10},"place_type":"0","rack_locks":"1"},{"uid":"2585457","lat":"52.2249718","lng":"20.9897661","name":"Plac Zawiszy","spot":"1","number":"9511","bikes":"25","bike_racks":"24","free_racks":"3","terminal_type":"7inch","bike_numbers":"24946,24861,24718,24470,28599,28354,28133,27584,27524,27318,26935,26503,26438,26078,25890,25771,25669,25506,25049,29041,28980,28952,29639,96387,96114","bike_types":{"4":24,"51":1},"place_type":"0","rack_locks":"1"},{"uid":"2585460","lat":"52.22626","lng":"20.9961309","name":"al. Jerozolimskie - Lindleya","spot":"1","number":"9512","bikes":"1","bike_racks":"15","free_racks":"14","terminal_type":"7inch","bike_numbers":"28912","bike_types":{"4":1},"place_type":"0","rack_locks":"1"},{"uid":"2585462","lat":"52.2241455","lng":"20.9975244","name":"Lindleya - szpital","spot":"1","number":"9513","bikes":"15","bike_racks":"28","free_racks":"13","terminal_type":"7inch","bike_numbers":"24961,24734,24719,24602,28252,27832,27192,26585,26304,26072,25948,25811,96571,96119,29166","bike_types":{"4":15},"place_type":"0","rack_locks":"1"},{"uid":"2585464","lat":"52.227861","lng":"21.0008509","name":"Warszawa \u015ar\u00f3dmie\u015bcie WKD","spot":"1","number":"9514","bikes":"21","bike_racks":"18","free_racks":"0","terminal_type":"7inch","bike_numbers":"24960,24773,24726,28904,28637,28565,27756,27705,27523,27433,27065,26138,25494,25402,25020,29386,96472,96383,96111,96081,29270","bike_types":{"4":22},"place_type":"0","rack_locks":"1"},{"uid":"2585466","lat":"52.2249555","lng":"21.0031664","name":"Oczki - WUM","spot":"1","number":"9515","bikes":"16","bike_racks":"19","free_racks":"3","terminal_type":"7inch","bike_numbers":"28695,28551,28454,28154,27398,27355,27338,27302,26555,26163,25893,25820,25045,28816,96415,96262","bike_types":{"4":16},"place_type":"0","rack_locks":"1"},{"uid":"2585469","lat":"52.2290464","lng":"21.0054544","name":"Emilii Plater - Al. Jerozolimskie","spot":"1","number":"9517","bikes":"34","bike_racks":"30","free_racks":"0","terminal_type":"7inch","bike_numbers":"24951,24802,24768,24537,28869,28623,28585,28393,28286,28050,27957,27606,27166,26910,26714,26684,26369,26216,26133,26099,26091,25955,25786,25773,25705,25561,25403,25233,96483,96260,96245,96122,96082,29185","bike_types":{"4":34},"place_type":"0","rack_locks":"1"},{"uid":"2585470","lat":"52.2259343","lng":"21.0067537","name":"Emilii Plater - Wsp\u00f3lna","spot":"1","number":"9518","bikes":"5","bike_racks":"15","free_racks":"10","terminal_type":"7inch","bike_numbers":"28420,28040,27545,27473,26678","bike_types":{"4":5},"place_type":"0","rack_locks":"1"},{"uid":"2585472","lat":"52.23001","lng":"21.01088","name":"Metro Centrum","spot":"1","number":"9519","bikes":"18","bike_racks":"30","free_racks":"10","terminal_type":"7inch","bike_numbers":"24965,24715,28587,28389,28319,27819,27812,27748,27741,27289,27000,26248,25274,29144,96517,96423,96375,96143","bike_types":{"4":17,"0":1},"place_type":"0","rack_locks":"1"},{"uid":"2585473","lat":"52.229347019086","lng":"21.011314988136","name":"Marsza\u0142kowska - Al. Jerozolimskie","spot":"1","number":"9520","bikes":"23","bike_racks":"24","free_racks":"1","terminal_type":"7inch","bike_numbers":"24920,24814,24534,24040,28537,28464,28398,28387,28341,28024,27783,27406,27118,27061,26886,26450,26431,26394,26020,25849,25612,25264,96014","bike_types":{"4":22,"26":1},"place_type":"0","rack_locks":"1"},{"uid":"2585476","lat":"52.230418150276","lng":"21.013610959053","name":"al. Jerozolimskie - rejon Rotundy","spot":"1","number":"9521","bikes":"19","bike_racks":"24","free_racks":"5","terminal_type":"7inch","bike_numbers":"24590,24491,24474,25009,28495,27892,27805,27733,27434,26389,25441,25378,25353,25308,25258,25197,25098,28970,29148","bike_types":{"4":17,"51":2},"place_type":"0","rack_locks":"1"},{"uid":"2585477","lat":"52.2262882","lng":"21.0135705","name":"Marsza\u0142kowska - Ho\u017ca","spot":"1","number":"9522","bikes":"4","bike_racks":"15","free_racks":"11","terminal_type":"7inch","bike_numbers":"25704,96215,29230,96586","bike_types":{"4":4},"place_type":"0","rack_locks":"1"},{"uid":"2585492","lat":"52.2282923","lng":"21.0178542","name":"Krucza - Wsp\u00f3lna","spot":"1","number":"9523","bikes":"9","bike_racks":"28","free_racks":"19","terminal_type":"7inch","bike_numbers":"28901,28294,27611,27526,26171,25747,25360,25169,29042","bike_types":{"4":9},"place_type":"0","rack_locks":"1"},{"uid":"2585684","lat":"52.23144","lng":"21.0213036","name":"Rondo de Gaulle'a","spot":"1","number":"9524","bikes":"11","bike_racks":"22","free_racks":"10","terminal_type":"7inch","bike_numbers":"28494,28049,27731,27386,27126,27017,25962,25249,29349,29107,63625","bike_types":{"4":11},"place_type":"0","rack_locks":"1"},{"uid":"2585694","lat":"52.2278487","lng":"21.0235084","name":"Plac Trzech Krzy\u017cy","spot":"1","number":"9525","bikes":"14","bike_racks":"23","free_racks":"9","maintenance":"1","terminal_type":"7inch","bike_numbers":"24659,28739,27875,26765,26522,26127,25598,25474,25031,29121,96468,96440,96322,29215","bike_types":{"4":12,"0":1},"place_type":"0","rack_locks":"1"},{"uid":"2585695","lat":"52.23324","lng":"21.0261179","name":"Smolna - PKP Powi\u015ble","spot":"1","number":"9526","bikes":"6","bike_racks":"18","free_racks":"12","terminal_type":"7inch","bike_numbers":"24796,28503,26923,25939,25735,28966","bike_types":{"4":6},"place_type":"0","rack_locks":"1"},{"uid":"2585699","lat":"52.2340191","lng":"21.0300328","name":"Herberta - PKP Powi\u015ble","spot":"1","number":"9527","bikes":"25","bike_racks":"26","free_racks":"1","terminal_type":"7inch","bike_numbers":"24878,24779,24510,28430,27775,27564,27496,27248,27130,26787,26736,26709,25804,25534,25529,25511,25449,29114,29110,96556,96340,96256,96134,29227,96589","bike_types":{"4":25},"place_type":"0","rack_locks":"1"},{"uid":"2585704","lat":"52.2347879","lng":"21.0340991","name":"Solec - al. 3 Maja","spot":"1","number":"9528","bikes":"23","bike_racks":"24","free_racks":"0","terminal_type":"7inch","bike_numbers":"24911,24780,24565,24032,28588,28520,28208,27930,27918,27371,27034,26896,26590,25857,25589,25451,28834,28961,28996,96324,96235,96191,96151","bike_types":{"4":22,"26":1},"place_type":"0","rack_locks":"1"},{"uid":"2585708","lat":"52.2301405","lng":"21.0303694","name":"Ksi\u0105\u017c\u0119ca - Rozbrat","spot":"1","number":"9529","bikes":"15","bike_racks":"15","free_racks":"0","terminal_type":"7inch","bike_numbers":"24591,28212,27859,27763,27633,27175,27063,26634,26596,26302,25562,25342,29373,96311,96099","bike_types":{"4":15},"place_type":"0","rack_locks":"1"},{"uid":"2585711","lat":"52.2172177","lng":"20.9713608","name":"Szcz\u0119\u015bliwicka - APS","spot":"1","number":"9530","bikes":"18","bike_racks":"22","free_racks":"4","terminal_type":"7inch","bike_numbers":"24613,24554,28596,28450,28338,27765,26801,26282,26141,25277,25237,25195,25081,29065,60855,29126,96007,96409","bike_types":{"4":17,"0":1},"place_type":"0","rack_locks":"1"},{"uid":"2585712","lat":"52.2179474","lng":"20.9775567","name":"Kopi\u0144ska - Bia\u0142obrzeska","spot":"1","number":"9531","bikes":"11","bike_racks":"15","free_racks":"4","terminal_type":"7inch","bike_numbers":"24482,25001,28592,28516,27714,27375,27315,26545,28986,96337,29195","bike_types":{"51":1,"4":10},"place_type":"0","rack_locks":"1"},{"uid":"2585714","lat":"52.2178554","lng":"20.9828138","name":"Plac Narutowicza","spot":"1","number":"9532","bikes":"23","bike_racks":"30","free_racks":"7","terminal_type":"7inch","bike_numbers":"24605,28589,28570,28424,28307,27979,27969,27883,27828,26947,26610,26532,26342,26192,25989,25976,25828,25479,29012,25631,28811,96500,29205","bike_types":{"4":23},"place_type":"0","rack_locks":"1"},{"uid":"2585716","lat":"52.216641","lng":"20.9879476","name":"Raszy\u0144ska - Wawelska","spot":"1","number":"9533","bikes":"1","bike_racks":"20","free_racks":"19","terminal_type":"7inch","bike_numbers":"29458","bike_types":{"4":1},"place_type":"0","rack_locks":"1"},{"uid":"2585717","lat":"52.2191029","lng":"20.9890149","name":"Raszy\u0144ska - Filtrowa","spot":"1","number":"9534","bikes":"4","bike_racks":"22","free_racks":"17","terminal_type":"7inch","bike_numbers":"28563,28437,26261,96243","bike_types":{"4":4},"place_type":"0","rack_locks":"1"},{"uid":"2585720","lat":"52.220676","lng":"21.0045554","name":"al. Niepodleg\u0142o\u015bci - Nowowiejska","spot":"1","number":"9535","bikes":"9","bike_racks":"30","free_racks":"22","terminal_type":"7inch","bike_numbers":"24996,24778,24688,28263,27483,26570,25416,96416,29224","bike_types":{"4":9},"place_type":"0","rack_locks":"1"},{"uid":"2585721","lat":"52.2174693","lng":"21.0056537","name":"Kaczy\u0144skiego - al. Niepodleg\u0142o\u015bci","spot":"1","number":"9536","bikes":"7","bike_racks":"16","free_racks":"9","terminal_type":"7inch","bike_numbers":"28003,26980,26624,26584,26501,29055,29234","bike_types":{"4":7},"place_type":"0","rack_locks":"1"},{"uid":"2585722","lat":"52.2226831","lng":"21.0081097","name":"Noakowskiego - Koszykowa","spot":"1","number":"9537","bikes":"12","bike_racks":"24","free_racks":"12","terminal_type":"7inch","bike_numbers":"24895,24856,28392,28207,28055,27963,27182,25846,25315,25113,29062,96520","bike_types":{"4":12},"place_type":"0","rack_locks":"1"},{"uid":"2585724","lat":"52.219916","lng":"21.0116824","name":"Plac Politechniki","spot":"1","number":"9538","bikes":"8","bike_racks":"27","free_racks":"19","terminal_type":"7inch","bike_numbers":"24634,28552,27261,26752,25287,29036,28875,96454","bike_types":{"4":8},"place_type":"0","rack_locks":"1"},{"uid":"2585727","lat":"52.223503","lng":"21.0128519","name":"Pozna\u0144ska - Zesp\u00f3\u0142 Szk\u00f3\u0142 Gastronomicznych","spot":"1","number":"9539","bikes":"10","bike_racks":"18","free_racks":"8","terminal_type":"7inch","bike_numbers":"27447,27417,27254,26734,26131,25878,25821,28951,29357,96220","bike_types":{"4":10},"place_type":"0","rack_locks":"1"},{"uid":"2585728","lat":"52.2174857","lng":"21.0142949","name":"Rondo Jazdy Polskiej","spot":"1","number":"9540","bikes":"13","bike_racks":"24","free_racks":"10","terminal_type":"7inch","bike_numbers":"28274,27561,26179,26073,25843,25764,25718,25286,25112,29104,29461,96570,96225","bike_types":{"4":13},"place_type":"0","rack_locks":"1"},{"uid":"2585729","lat":"52.2197435","lng":"21.0157353","name":"ul. Wary\u0144skiego-ul. Nowowiejska-Metro Politechnika ","spot":"1","number":"9541","bikes":"15","bike_racks":"20","free_racks":"4","terminal_type":"7inch","bike_numbers":"28614,28595,28309,27627,27295,27087,26993,26822,26616,26364,26140,25827,25338,25117,29067","bike_types":{"4":15},"place_type":"0","rack_locks":"1"},{"uid":"2585731","lat":"52.2197681","lng":"21.0172775","name":"Plac Zbawiciela","spot":"1","number":"9542","bikes":"8","bike_racks":"12","free_racks":"5","terminal_type":"7inch","bike_numbers":"24670,28355,28324,26574,26544,26010,25278,96442","bike_types":{"4":8},"place_type":"0","rack_locks":"1"},{"uid":"2585735","lat":"52.2229427","lng":"21.0158211","name":"Plac Konstytucji","spot":"1","number":"9543","bikes":"16","bike_racks":"30","free_racks":"14","terminal_type":"7inch","bike_numbers":"28564,28410,28293,27970,27556,27382,26976,26780,26232,26034,25542,25254,25232,29137,28969,96028","bike_types":{"4":15,"0":1},"place_type":"0","rack_locks":"1"},{"uid":"2585737","lat":"52.2238152","lng":"21.0207859","name":"Mokotowska - Pi\u0119kna","spot":"1","number":"9544","bikes":"15","bike_racks":"22","free_racks":"9","terminal_type":"7inch","bike_numbers":"24917,24742,25006,28071,28015,27587,27443,27247,26630,26095,26046,25707,25418,25122,29641","bike_types":{"4":15},"place_type":"0","rack_locks":"1"},{"uid":"2585738","lat":"52.2200212","lng":"21.0256299","name":"Plac na Rozdro\u017cu","spot":"1","number":"9545","bikes":"12","bike_racks":"26","free_racks":"12","terminal_type":"7inch","bike_numbers":"25002,28556,28458,28107,27563,27365,27156,27056,26823,26368,25514,29554","bike_types":{"4":12},"place_type":"0","rack_locks":"1"},{"uid":"2585742","lat":"52.2249504","lng":"21.0268155","name":"Matejki - Wiejska","spot":"1","number":"9546","bikes":"15","bike_racks":"20","free_racks":"6","terminal_type":"7inch","bike_numbers":"28622,28104,27374,27372,27249,27218,26760,26739,25799,25792,25507,25379,25160,29095,29455","bike_types":{"4":16},"place_type":"0","rack_locks":"1"},{"uid":"2585747","lat":"52.2221129","lng":"21.0343873","name":"My\u015bliwiecka - Rozbrat","spot":"1","number":"9547","bikes":"24","bike_racks":"21","free_racks":"2","terminal_type":"7inch","bike_numbers":"27899,27867,27848,27319,27269,27240,27165,26936,26889,26817,26741,26737,26710,26514,26007,25996,25642,25283,25267,25072,29213,28815,96022,96323","bike_types":{"4":24},"place_type":"0","rack_locks":"1"},{"uid":"2585748","lat":"52.2277124","lng":"21.0442955","name":"Port Czerniakowski","spot":"1","number":"9548","bikes":"18","bike_racks":"30","free_racks":"13","terminal_type":"7inch","bike_numbers":"24874,24841,24661,24526,24005,28586,27505,26685,26092,25796,25654,25200,25126,29647,96033,96565,96564,96242","bike_types":{"4":17,"26":1},"place_type":"0","rack_locks":"1"},{"uid":"2585749","lat":"52.2109711","lng":"20.9759125","name":"Gr\u00f3jecka - Bitwy Warszawskiej 1920 roku","spot":"1","number":"9549","bikes":"10","bike_racks":"20","free_racks":"10","terminal_type":"7inch","bike_numbers":"24974,28345,27244,26365,25316,29136,96036,96485,96424,29172","bike_types":{"4":9,"0":1},"place_type":"0","rack_locks":"1"},{"uid":"2585750","lat":"52.2130296","lng":"20.9819985","name":"Pasteura - Winnicka - UW","spot":"1","number":"9550","bikes":"16","bike_racks":"24","free_racks":"11","terminal_type":"7inch","bike_numbers":"28753,28710,28579,28008,27228,26719,26559,26432,26059,25608,25604,25227,25151,25141,96077,29273","bike_types":{"4":16},"place_type":"0","rack_locks":"1"},{"uid":"2585762","lat":"52.2107722","lng":"20.9847557","name":"Stefana Banacha - UW","spot":"1","number":"9551","bikes":"2","bike_racks":"29","free_racks":"26","terminal_type":"7inch","bike_numbers":"28192,29344","bike_types":{"4":2},"place_type":"0","rack_locks":"1"},{"uid":"2585764","lat":"52.212671","lng":"21.003437","name":"Biblioteka Narodowa","spot":"1","number":"9552","bikes":"9","bike_racks":"24","free_racks":"15","terminal_type":"7inch","bike_numbers":"24640,27690,26037,25875,25535,25446,25437,29130,96377","bike_types":{"4":8,"0":1},"place_type":"0","rack_locks":"1"},{"uid":"2585766","lat":"52.21691","lng":"21.01997","name":"Marsza\u0142kowska - Litewska","spot":"1","number":"9553","bikes":"8","bike_racks":"15","free_racks":"7","terminal_type":"7inch","bike_numbers":"24979,24954,24706,28275,27582,27167,26350,25547","bike_types":{"4":8},"place_type":"0","rack_locks":"1"},{"uid":"2585770","lat":"52.2083858","lng":"20.9631103","name":"P\u0119tla Szcz\u0119\u015bliwice","spot":"1","number":"9554","bikes":"11","bike_racks":"19","free_racks":"9","terminal_type":"7inch","bike_numbers":"24871,27420,26469,26145,26026,25920,25385,25629,96039,96115,96076","bike_types":{"4":10},"place_type":"0","rack_locks":"1"},{"uid":"2585771","lat":"52.206153650625","lng":"20.970287919044","name":"Dickensa - Geodet\u00f3w","spot":"1","number":"9555","bikes":"15","bike_racks":"16","free_racks":"1","terminal_type":"7inch","bike_numbers":"28517,28143,28018,27657,27629,27139,27027,26783,26638,26262,26011,25716,29039,96530,96277","bike_types":{"4":15},"place_type":"0","rack_locks":"1"},{"uid":"2585772","lat":"52.205361371875","lng":"20.984664559364","name":"\u017bwirki i Wigury - Ksi\u0119cia Trojdena","spot":"1","number":"9556","bikes":"7","bike_racks":"17","free_racks":"12","terminal_type":"7inch","bike_numbers":"27383,27324,26894,26378,25907,25245,96398","bike_types":{"4":7},"place_type":"0","rack_locks":"1"},{"uid":"2585774","lat":"52.205801893754","lng":"20.998928546906","name":"Rakowiecka - \u015aw. A. Boboli","spot":"1","number":"9557","bikes":"16","bike_racks":"17","free_racks":"0","terminal_type":"7inch","bike_numbers":"24637,28732,28303,27948,27833,27429,26682,25923,25279,25052,25021,29657,96548,96507,96405,96193","bike_types":{"4":16},"place_type":"0","rack_locks":"1"},{"uid":"2585776","lat":"52.209916","lng":"21.0067794","name":"al. Niepodleg\u0142o\u015bci - Batorego","spot":"1","number":"9558","bikes":"43","bike_racks":"26","free_racks":"0","terminal_type":"7inch","bike_numbers":"24820,24622,24521,24502,28698,28572,28400,28062,28058,27935,27698,27597,27511,27463,27208,27117,26959,26673,26564,26543,26493,26453,26402,26346,26325,26291,26150,25823,25597,25522,25345,25285,25231,25134,25121,25093,28864,28858,28979,96003,96359,96292,96149","bike_types":{"4":42},"place_type":"0","rack_locks":"1"},{"uid":"2585779","lat":"52.2132375","lng":"21.0210568","name":"Plac Unii Lubelskiej","spot":"1","number":"9559","bikes":"9","bike_racks":"24","free_racks":"15","terminal_type":"7inch","bike_numbers":"24574,24504,24497,27913,27730,27669,27129,27009,29189","bike_types":{"4":8,"51":1},"place_type":"0","rack_locks":"1"},{"uid":"2585781","lat":"52.2027557","lng":"20.9508951","name":"W\u0142odarzewska - Maszynowa","spot":"1","number":"9560","bikes":"4","bike_racks":"18","free_racks":"14","terminal_type":"7inch","bike_numbers":"28023,27233,26932,96025","bike_types":{"4":4},"place_type":"0","rack_locks":"1"},{"uid":"2585782","lat":"52.2017647","lng":"20.9820897","name":"Sanocka - Pruszkowska","spot":"1","number":"9561","bikes":"16","bike_racks":"15","free_racks":"0","terminal_type":"7inch","bike_numbers":"24931,24593,28821,28530,27157,27102,26872,26863,26836,26546,25282,28847,28828,28985,96450,96164","bike_types":{"4":16},"place_type":"0","rack_locks":"1"},{"uid":"2585785","lat":"52.1981365","lng":"20.9833717","name":"\u017bwirki i Wigury - Rac\u0142awicka","spot":"1","number":"9562","bikes":"8","bike_racks":"18","free_racks":"10","terminal_type":"7inch","bike_numbers":"28898,28409,28253,27851,27667,27226,26726,96001","bike_types":{"4":8},"place_type":"0","rack_locks":"1"},{"uid":"2585787","lat":"52.20177","lng":"20.99969","name":"Wo\u0142oska - Kulskiego","spot":"1","number":"9563","bikes":"11","bike_racks":"15","free_racks":"4","terminal_type":"7inch","bike_numbers":"24678,24543,28561,27057,26440,26243,25633,25550,25130,96080,29196","bike_types":{"4":11},"place_type":"0","rack_locks":"1"},{"uid":"2585788","lat":"52.2042638","lng":"21.014428","name":"Madali\u0144skiego - Kazimierzowska","spot":"1","number":"9564","bikes":"7","bike_racks":"24","free_racks":"16","terminal_type":"7inch","bike_numbers":"24903,24569,27029,25686,29115,96572,96303","bike_types":{"4":7},"place_type":"0","rack_locks":"1"},{"uid":"2585789","lat":"52.2055175","lng":"21.0231033","name":"Pu\u0142awska - Dworkowa","spot":"1","number":"9565","bikes":"21","bike_racks":"19","free_racks":"0","terminal_type":"7inch","bike_numbers":"24580,24461,28722,28488,28340,28301,28196,27843,27784,27388,27211,27135,26746,26690,26613,25986,25794,29200,28843,96370,29206","bike_types":{"4":20,"51":1},"place_type":"0","rack_locks":"1"},{"uid":"2585790","lat":"52.2071756","lng":"21.0312643","name":"Belwederska - Gagarina","spot":"1","number":"9566","bikes":"30","bike_racks":"30","free_racks":"0","terminal_type":"7inch","bike_numbers":"24983,24956,24767,24599,28581,27953,27889,27555,27460,27084,26868,26361,26219,26081,25865,25728,25697,25442,25405,25280,25252,25206,25149,25132,25071,29072,28946,96404,96372,96095","bike_types":{"4":30},"place_type":"0","rack_locks":"1"},{"uid":"2585791","lat":"52.2074193","lng":"21.0479621","name":"Czerniakowska - Gagarina","spot":"1","number":"9567","bikes":"10","bike_racks":"25","free_racks":"14","terminal_type":"7inch","bike_numbers":"24649,28114,27222,26481,26129,25011,29092,29078,96466,96162","bike_types":{"4":9},"place_type":"0","rack_locks":"1"},{"uid":"2585794","lat":"52.1938131","lng":"20.9914431","name":"Etiudy Rewolucyjnej - Mi\u0105czy\u0144ska","spot":"1","number":"9568","bikes":"13","bike_racks":"18","free_racks":"3","terminal_type":"7inch","bike_numbers":"24828,28439,28027,26916,25921,25859,25732,25251,25222,25168,25158,96038,96536","bike_types":{"4":13},"place_type":"0","rack_locks":"1"},{"uid":"2585799","lat":"52.1994156","lng":"21.0121384","name":"Metro Rac\u0142awicka","spot":"1","number":"9570","bikes":"21","bike_racks":"30","free_racks":"7","terminal_type":"7inch","bike_numbers":"24866,24845,24781,24696,28700,28535,27995,26213,25770,25467,25223,25083,29338,28936,29419,96034,96438,96426,96410,96156,29249","bike_types":{"4":21},"place_type":"0","rack_locks":"1"},{"uid":"2585800","lat":"52.199505","lng":"21.0240975","name":"Pu\u0142awska - Dolna","spot":"1","number":"9571","bikes":"7","bike_racks":"18","free_racks":"11","terminal_type":"7inch","bike_numbers":"24748,24655,27936,26185,29646,96492,96152","bike_types":{"4":7},"place_type":"0","rack_locks":"1"},{"uid":"2585802","lat":"52.2014754","lng":"21.0360047","name":"Sobieskiego - Che\u0142mska","spot":"1","number":"9572","bikes":"11","bike_racks":"15","free_racks":"4","terminal_type":"7inch","bike_numbers":"24564,27198,27161,26155,25829,25822,29076,29021,28900,96352,96320","bike_types":{"4":11},"place_type":"0","rack_locks":"1"},{"uid":"2585804","lat":"52.1998446","lng":"21.05095","name":"Czerniakowska - ZUS","spot":"1","number":"9573","bikes":"9","bike_racks":"15","free_racks":"6","terminal_type":"7inch","bike_numbers":"24844,24627,24458,27835,27723,29047,96010,96552,96285","bike_types":{"4":8,"51":1},"place_type":"0","rack_locks":"1"},{"uid":"2585807","lat":"52.1916776","lng":"20.8689688","name":"PKP Ursus-Nied\u017awiadek","spot":"1","number":"9574","bikes":"9","bike_racks":"15","free_racks":"6","terminal_type":"7inch","bike_numbers":"24744,28905,28039,27598,25888,25840,25733,96512,96345","bike_types":{"4":9},"place_type":"0","rack_locks":"1"},{"uid":"2585808","lat":"52.1960469","lng":"20.8849347","name":"PKP Ursus","spot":"1","number":"9575","bikes":"11","bike_racks":"16","free_racks":"5","terminal_type":"7inch","bike_numbers":"28460,28336,28287,28083,27614,26659,26602,26328,25835,25262,25221","bike_types":{"4":11},"place_type":"0","rack_locks":"1"},{"uid":"2585809","lat":"52.1869936","lng":"20.8906478","name":"Sosnkowskiego - OSiR Ursus","spot":"1","number":"9576","bikes":"11","bike_racks":"15","free_racks":"4","terminal_type":"7inch","bike_numbers":"28122,27942,27569,27508,26397,26393,26339,25667,25575,28893,96091","bike_types":{"4":11},"place_type":"0","rack_locks":"1"},{"uid":"2585811","lat":"52.2005548","lng":"20.8937538","name":"Ursus-Ratusz","spot":"1","number":"9577","bikes":"9","bike_racks":"15","free_racks":"6","terminal_type":"7inch","bike_numbers":"28591,28117,27865,27438,26974,26708,25768,25194,96331","bike_types":{"4":9},"place_type":"0","rack_locks":"1"},{"uid":"2585814","lat":"52.1906376","lng":"20.8999443","name":"Skoroszewska - Prystora","spot":"1","number":"9578","bikes":"11","bike_racks":"17","free_racks":"8","terminal_type":"7inch","bike_numbers":"24656,27565,27131,26024,25826,25717,25655,25260,25256,96400,96301","bike_types":{"4":11},"place_type":"0","rack_locks":"1"},{"uid":"2585817","lat":"52.1882609","lng":"20.9603771","name":"G\u0142adka - OSiR W\u0142ochy","spot":"1","number":"9579","bikes":"11","bike_racks":"16","free_racks":"4","terminal_type":"7inch","bike_numbers":"24619,28636,28538,27938,27416,26500,26426,26065,25664,25199,29005","bike_types":{"4":11},"place_type":"0","rack_locks":"1"},{"uid":"2585820","lat":"52.2056441","lng":"20.9159142","name":"PKP W\u0142ochy","spot":"1","number":"9580","bikes":"12","bike_racks":"17","free_racks":"5","terminal_type":"7inch","bike_numbers":"24674,28325,28304,27797,27625,26755,26043,25781,25517,96313,96182,96135","bike_types":{"4":12},"place_type":"0","rack_locks":"1"},{"uid":"2585821","lat":"52.2012157","lng":"20.9353145","name":"al. Jerozolimskie - Popularna","spot":"1","number":"9581","bikes":"11","bike_racks":"19","free_racks":"7","terminal_type":"7inch","bike_numbers":"24837,24487,28260,27455,26843,26184,26090,25382,29361,96545,96435","bike_types":{"4":10,"51":1},"place_type":"0","rack_locks":"1"},{"uid":"2585824","lat":"52.1924709","lng":"20.9596664","name":"W\u0142ochy-Ratusz","spot":"1","number":"9582","bikes":"13","bike_racks":"15","free_racks":"1","terminal_type":"7inch","bike_numbers":"24958,24462,28296,28089,27855,27154,26518,26510,26098,26013,25590,28832,96187","bike_types":{"4":12,"51":1},"place_type":"0","rack_locks":"1"},{"uid":"2585825","lat":"52.1946888","lng":"20.9667823","name":"1 Sierpnia - DK W\u0142ochy","spot":"1","number":"9583","bikes":"22","bike_racks":"15","free_racks":"0","terminal_type":"7inch","bike_numbers":"24857,24455,28731,28550,27846,27743,27546,27515,27493,27071,27012,26983,26476,26403,26029,25234,29060,96305,96296,96177,96130,29164","bike_types":{"4":21,"51":1},"place_type":"0","rack_locks":"1"},{"uid":"2585827","lat":"52.1888962","lng":"21.0175887","name":"Metro Wierzbno","spot":"1","number":"9584","bikes":"13","bike_racks":"20","free_racks":"7","terminal_type":"7inch","bike_numbers":"24905,28713,27915,27672,27079,26696,26436,26230,25970,25424,96004,96188,29216","bike_types":{"4":13},"place_type":"0","rack_locks":"1"},{"uid":"2585830","lat":"52.18648","lng":"21.02538","name":"Pu\u0142awska - Idzikowskiego","spot":"1","number":"9585","bikes":"10","bike_racks":"17","free_racks":"7","terminal_type":"7inch","bike_numbers":"28497,27978,27962,27387,26722,26556,26164,25583,25193,29269","bike_types":{"4":10},"place_type":"0","rack_locks":"1"},{"uid":"2585835","lat":"52.1882861","lng":"21.0498825","name":"Sobieskiego - Mangalia","spot":"1","number":"9586","bikes":"12","bike_racks":"15","free_racks":"2","terminal_type":"7inch","bike_numbers":"24527,28756,28268,27976,27006,26603,26573,26079,28964,96386,96348,96310","bike_types":{"4":12},"place_type":"0","rack_locks":"1"},{"uid":"2585837","lat":"52.178777","lng":"21.0016387","name":"Wo\u0142oska - Marynarska","spot":"1","number":"9588","bikes":"19","bike_racks":"26","free_racks":"9","terminal_type":"7inch","bike_numbers":"24876,28666,28502,27164,27097,26922,26784,26742,26612,25744,25138,25026,29422,29431,63626,96477,96192,96093,29283","bike_types":{"4":19},"place_type":"0","rack_locks":"1"},{"uid":"2585838","lat":"52.1800882","lng":"21.0207403","name":"al. Niepodleg\u0142o\u015bci - al. Wilanowska","spot":"1","number":"9589","bikes":"15","bike_racks":"22","free_racks":"5","terminal_type":"7inch","bike_numbers":"24897,24888,28490,28482,28157,27719,27214,26643,25867,25116,28798,96279,96226,29278,96579","bike_types":{"4":15},"place_type":"0","rack_locks":"1"},{"uid":"2585839","lat":"52.1779163","lng":"21.049562","name":"P\u0119tla Stegny","spot":"1","number":"9590","bikes":"20","bike_racks":"23","free_racks":"3","terminal_type":"7inch","bike_numbers":"24885,24013,28775,28326,26669,26663,26097,25720,25645,25482,25111,25102,25062,28826,28977,96433,29268,29267,29242,29217","bike_types":{"4":19,"26":1},"place_type":"0","rack_locks":"1"},{"uid":"2585843","lat":"52.1818472","lng":"21.0562822","name":"Sobieskiego - \u015bw. Bonifacego","spot":"1","number":"9591","bikes":"21","bike_racks":"22","free_racks":"1","terminal_type":"7inch","bike_numbers":"24693,24681,24557,24463,28822,28696,28441,27934,27890,27793,27695,27402,27093,26898,26479,26206,26070,25551,29017,96488,96272","bike_types":{"4":20,"51":1},"place_type":"0","rack_locks":"1"},{"uid":"2585844","lat":"52.1702836","lng":"20.9959132","name":"P\u0119tla Bokserska","spot":"1","number":"9592","bikes":"15","bike_racks":"15","free_racks":"0","terminal_type":"7inch","bike_numbers":"24705,28433,27923,27786,27392,27039,26507,25741,25097,25067,25047,28968,96447,96397,29260","bike_types":{"4":15},"place_type":"0","rack_locks":"1"},{"uid":"2585846","lat":"52.1710498","lng":"21.0059144","name":"Gintrowskiego - Gotarda","spot":"1","number":"9593","bikes":"14","bike_racks":"15","free_racks":"2","terminal_type":"7inch","bike_numbers":"24860,24596,24500,28701,27710,27186,27122,26854,25937,25833,25724,29427,96029,96210","bike_types":{"4":13,"51":1},"place_type":"0","rack_locks":"1"},{"uid":"2585848","lat":"52.174435","lng":"21.0128814","name":"al. Lotnik\u00f3w - Kaczmarskiego","spot":"1","number":"9594","bikes":"9","bike_racks":"30","free_racks":"17","terminal_type":"7inch","bike_numbers":"24793,28527,27884,27232,25772,25153,96413,96342,96295","bike_types":{"4":10},"place_type":"0","rack_locks":"1"},{"uid":"2585850","lat":"52.1733132","lng":"21.0257305","name":"Metro S\u0142u\u017cew","spot":"1","number":"9595","bikes":"21","bike_racks":"24","free_racks":"4","terminal_type":"7inch","bike_numbers":"24617,27842,27510,27351,26880,26372,26358,26356,25788,25504,25255,25068,25059,25046,96058,63623,63621,96479,96459,96238,29272","bike_types":{"4":21},"place_type":"0","rack_locks":"1"},{"uid":"2585853","lat":"52.17343","lng":"21.03179","name":"Wa\u0142brzyska - Wr\u00f3bla","spot":"1","number":"9596","bikes":"20","bike_racks":"30","free_racks":"9","terminal_type":"7inch","bike_numbers":"24777,28611,28481,28311,28002,27831,27622,27399,27036,27015,26351,26257,25900,25410,25373,25242,25204,25172,28845,29192","bike_types":{"4":20},"place_type":"0","rack_locks":"1"},{"uid":"2585856","lat":"52.170135","lng":"21.0685748","name":"Jana III Sobieskiego - al. Wilanowska","spot":"1","number":"9597","bikes":"16","bike_racks":"15","free_racks":"0","terminal_type":"7inch","bike_numbers":"28366,28335,28321,27897,27583,27415,27407,26695,26626,26520,26057,25999,25870,25682,25501,25129","bike_types":{"4":16},"place_type":"0","rack_locks":"1"},{"uid":"2585860","lat":"52.1655879","lng":"21.0839331","name":"al. Wilanowska - Przycz\u00f3\u0142kowa","spot":"1","number":"9598","bikes":"12","bike_racks":"16","free_racks":"4","terminal_type":"7inch","bike_numbers":"24522,28081,28051,27772,27631,27599,27410,27290,27234,26484,25812,25500","bike_types":{"4":12},"place_type":"0","rack_locks":"1"},{"uid":"2585863","lat":"52.16479","lng":"21.10925","name":"Vogla - Syta","spot":"1","number":"9599","bikes":"13","bike_racks":"16","free_racks":"3","terminal_type":"7inch","bike_numbers":"28448,28256,27834,27474,27373,26557,26434,26333,25808,29011,28829,28997,96425","bike_types":{"4":13},"place_type":"0","rack_locks":"1"},{"uid":"2585868","lat":"52.1606257","lng":"21.0723245","name":"al. Rzeczypospolitej - Klimczaka","spot":"1","number":"9600","bikes":"7","bike_racks":"16","free_racks":"10","terminal_type":"7inch","bike_numbers":"28048,27894,27461,26094,60828,29654,96107","bike_types":{"4":7},"place_type":"0","rack_locks":"1"},{"uid":"2585871","lat":"52.1569168","lng":"21.0760903","name":"al. Rzeczypospolitej - Branickiego","spot":"1","number":"9601","bikes":"9","bike_racks":"16","free_racks":"6","terminal_type":"7inch","bike_numbers":"24822,24797,28331,27745,27081,26186,26114,25548,96270","bike_types":{"4":9},"place_type":"0","rack_locks":"1"},{"uid":"2585872","lat":"52.1593735","lng":"21.086449","name":"Przycz\u00f3\u0142kowa - Branickiego","spot":"1","number":"9602","bikes":"12","bike_racks":"16","free_racks":"4","terminal_type":"7inch","bike_numbers":"28257,27613,27466,26589,25361,25248,25016,96052,96040,96495,96338,96195","bike_types":{"4":12},"place_type":"0","rack_locks":"1"},{"uid":"2585873","lat":"52.1618136","lng":"21.0277355","name":"Metro Ursyn\u00f3w II","spot":"1","number":"9603","bikes":"12","bike_racks":"30","free_racks":"17","terminal_type":"7inch","bike_numbers":"24031,28817,28193,28108,28092,28054,26975,25383,25015,29002,28870,96184","bike_types":{"26":1,"4":11},"place_type":"0","rack_locks":"1"},{"uid":"2585875","lat":"52.1622579","lng":"21.0280761","name":"Metro Ursyn\u00f3w I","spot":"1","number":"9604","bikes":"13","bike_racks":"30","free_racks":"16","terminal_type":"7inch","bike_numbers":"24737,24489,27713,27032,26950,26353,26217,26180,26039,60831,96465,29170,29208","bike_types":{"4":12,"51":1},"place_type":"0","rack_locks":"1"},{"uid":"2585876","lat":"52.162401","lng":"21.0383811","name":"Jastrz\u0119bowskiego - SGGW","spot":"1","number":"9605","bikes":"25","bike_racks":"28","free_racks":"3","terminal_type":"7inch","bike_numbers":"24823,24611,24484,24476,27981,27694,27431,27147,26904,26458,26357,26321,26245,26096,25965,25839,25817,25776,25557,29346,29024,25628,28800,28974,96258","bike_types":{"4":23,"51":2},"place_type":"0","rack_locks":"1"},{"uid":"2585880","lat":"52.1557534","lng":"21.0232776","name":"Romera - Pieciolinii","spot":"1","number":"9606","bikes":"17","bike_racks":"16","free_racks":"3","terminal_type":"7inch","bike_numbers":"28803,28661,28034,27519,27111,27025,26860,26195,26149,25758,25210,29096,29032,28837,96437,96246,29177","bike_types":{"4":17},"place_type":"0","rack_locks":"1"},{"uid":"2585883","lat":"52.1568674","lng":"21.0338401","name":"Metro Stok\u0142osy","spot":"1","number":"9607","bikes":"22","bike_racks":"27","free_racks":"5","terminal_type":"7inch","bike_numbers":"24851,28353,28349,28144,27975,27453,27197,27153,26716,26191,26189,26146,25648,25536,25454,25186,25184,29066,29433,28868,96358,29237","bike_types":{"4":22},"place_type":"0","rack_locks":"1"},{"uid":"2585885","lat":"52.1572887","lng":"21.0440084","name":"Roso\u0142a - Ciszewskiego - SGGW","spot":"1","number":"9608","bikes":"21","bike_racks":"30","free_racks":"9","terminal_type":"7inch","bike_numbers":"24697,28419,28365,28068,27506,27403,27103,26900,26515,26415,26375,26341,26280,25978,25571,25533,25512,25377,29119,28881,96525","bike_types":{"4":21},"place_type":"0","rack_locks":"1"},{"uid":"2585888","lat":"52.1521429","lng":"21.0181224","name":"Pu\u0142awska - Pileckiego","spot":"1","number":"9609","bikes":"9","bike_racks":"22","free_racks":"13","terminal_type":"7inch","bike_numbers":"28650,28480,28056,26928,25874,60836,28824,63628,96542","bike_types":{"4":9},"place_type":"0","rack_locks":"1"},{"uid":"2585893","lat":"52.1495064","lng":"21.0332527","name":"Ciszewskiego - Pileckiego","spot":"1","number":"9610","bikes":"15","bike_racks":"22","free_racks":"6","terminal_type":"7inch","bike_numbers":"24850,24038,28446,28372,27994,27878,27209,25346,29340,28844,63608,96491,96198,29158,29251","bike_types":{"4":14,"26":1},"place_type":"0","rack_locks":"1"},{"uid":"2585894","lat":"52.1549453","lng":"21.0492977","name":"Roso\u0142a - Gandhi","spot":"1","number":"9611","bikes":"19","bike_racks":"22","free_racks":"3","terminal_type":"7inch","bike_numbers":"24712,24624,24022,28343,28216,28057,27825,27570,27159,27141,26720,26525,25818,25814,25559,63605,96476,96395,96234","bike_types":{"4":18,"26":1},"place_type":"0","rack_locks":"1"},{"uid":"2585897","lat":"52.1493105","lng":"21.0453361","name":"Metro Imielin","spot":"1","number":"9612","bikes":"12","bike_racks":"22","free_racks":"9","terminal_type":"7inch","bike_numbers":"24977,28683,27781,27702,26748,26660,25695,25493,29443,96045,96289,96117","bike_types":{"4":12},"place_type":"0","rack_locks":"1"},{"uid":"2585899","lat":"52.1522333","lng":"21.0563922","name":"Roso\u0142a - Weso\u0142a","spot":"1","number":"9613","bikes":"7","bike_racks":"23","free_racks":"15","terminal_type":"7inch","bike_numbers":"28621,27909,26561,26499,29098,63614,96304","bike_types":{"4":7},"place_type":"0","rack_locks":"1"},{"uid":"2585901","lat":"52.1427201","lng":"21.0383624","name":"Pileckiego - Alternatywy","spot":"1","number":"9614","bikes":"25","bike_racks":"30","free_racks":"4","terminal_type":"7inch","bike_numbers":"24934,24803,24632,24629,24598,28099,27987,27758,27053,26818,26797,26637,26553,25519,25490,25453,25196,29050,60842,60834,29660,60862,28861,96561,96194","bike_types":{"4":25},"place_type":"0","rack_locks":"1"},{"uid":"2585902","lat":"52.142735","lng":"21.0448131","name":"Dereniowa - P\u0142askowickiej","spot":"1","number":"9615","bikes":"11","bike_racks":"22","free_racks":"10","terminal_type":"7inch","bike_numbers":"24991,28251,28087,27810,26966,26858,26640,25502,25412,29053,96097","bike_types":{"4":11},"place_type":"0","rack_locks":"1"},{"uid":"2585904","lat":"52.1376039","lng":"21.0505531","name":"Stryje\u0144skich - Belgradzka","spot":"1","number":"9616","bikes":"10","bike_racks":"15","free_racks":"5","terminal_type":"7inch","bike_numbers":"28421,28221,27352,26609,26399,26329,25966,25436,29064,28906","bike_types":{"4":10},"place_type":"0","rack_locks":"1"},{"uid":"2585905","lat":"52.1403909","lng":"21.0568187","name":"Metro Natolin","spot":"1","number":"9617","bikes":"16","bike_racks":"30","free_racks":"15","terminal_type":"7inch","bike_numbers":"24501,24459,28461,28377,27739,27568,26845,26105,25225,25050,28943,29552,28799,63629,96141,24047","bike_types":{"4":14,"51":1,"26":1},"place_type":"0","rack_locks":"1"},{"uid":"2585906","lat":"52.1420749","lng":"21.0659905","name":"Belgradzka - Roso\u0142a","spot":"1","number":"9618","bikes":"10","bike_racks":"23","free_racks":"13","terminal_type":"7inch","bike_numbers":"24892,25007,28505,27585,25953,28982,63606,96333,96237,29204","bike_types":{"4":10},"place_type":"0","rack_locks":"1"},{"uid":"2585908","lat":"52.1314333","lng":"21.0561562","name":"Stryje\u0144skich - W\u0105wozowa","spot":"1","number":"9619","bikes":"15","bike_racks":"23","free_racks":"8","terminal_type":"7inch","bike_numbers":"24981,24695,28773,28582,27829,27790,27525,26688,26324,25964,25370,25226,60867,96231,96587","bike_types":{"4":15},"place_type":"0","rack_locks":"1"},{"uid":"2585911","lat":"52.3326052","lng":"20.9418404","name":"Ordon\u00f3wny - \u015awiatowida","spot":"1","number":"9620","bikes":"13","bike_racks":"22","free_racks":"9","terminal_type":"7inch","bike_numbers":"24882,24743,28314,27996,27986,27664,26699,26018,25577,25489,96257,96185,96592","bike_types":{"4":13},"place_type":"0","rack_locks":"1"},{"uid":"2585913","lat":"52.1310925","lng":"21.0654795","name":"Metro Kabaty","spot":"1","number":"9621","bikes":"14","bike_racks":"22","free_racks":"8","terminal_type":"7inch","bike_numbers":"24867,24858,28580,28383,28298,28005,27804,26580,26075,26008,25894,25433,25103,96241","bike_types":{"4":14},"place_type":"0","rack_locks":"1"},{"uid":"2585916","lat":"52.1332642","lng":"21.0747962","name":"W\u0105wozowa - Roso\u0142a","spot":"1","number":"9622","bikes":"6","bike_racks":"18","free_racks":"12","terminal_type":"7inch","bike_numbers":"27113,26960,25673,29342,63602,96355","bike_types":{"4":6},"place_type":"0","rack_locks":"1"},{"uid":"2585917","lat":"52.324116","lng":"21.05663","name":"Skarbka z G\u00f3r - Berensona","spot":"1","number":"9623","bikes":"17","bike_racks":"26","free_racks":"9","terminal_type":"7inch","bike_numbers":"24939,28657,28619,28607,28277,27632,26881,26768,26707,26644,26430,26152,26142,25916,25679,96020,96120","bike_types":{"4":17},"place_type":"0","rack_locks":"1"},{"uid":"2585919","lat":"52.3485329","lng":"20.9418336","name":"Aluzyjna - Tr\u0105by","spot":"1","number":"9624","bikes":"12","bike_racks":"16","free_racks":"4","terminal_type":"7inch","bike_numbers":"24896,28612,27779,27721,26655,26623,25936,25841,25300,29045,96265,96199","bike_types":{"4":12},"place_type":"0","rack_locks":"1"},{"uid":"2585920","lat":"52.3226982","lng":"20.9448107","name":"\u015awiatowida - Mehoffera","spot":"1","number":"9625","bikes":"10","bike_racks":"16","free_racks":"6","terminal_type":"7inch","bike_numbers":"27335,26674,26651,26620,25736,29077,28823,28878,96239,96190","bike_types":{"4":10},"place_type":"0","rack_locks":"1"},{"uid":"2585921","lat":"52.3212548","lng":"20.9477347","name":"Bia\u0142o\u0142\u0119cki O\u015brodek Sportu","spot":"1","number":"9626","bikes":"23","bike_racks":"30","free_racks":"9","terminal_type":"7inch","bike_numbers":"24993,24926,24859,28671,28652,28642,28426,27847,26941,26692,26575,26551,26489,26172,29044,28995,96044,96486,96481,96137,29181,29203,29223","bike_types":{"4":23},"place_type":"0","rack_locks":"1"},{"uid":"2585922","lat":"52.3211272","lng":"20.9712964","name":"Bia\u0142o\u0142\u0119ka-Ratusz","spot":"1","number":"9627","bikes":"14","bike_racks":"19","free_racks":"6","terminal_type":"7inch","bike_numbers":"24900,24833,24677,28771,28431,27284,26954,26915,26472,26038,25607,29108,96396,29197","bike_types":{"4":14},"place_type":"0","rack_locks":"1"},{"uid":"2585924","lat":"52.3132981","lng":"20.9655324","name":"My\u015bliborska - al. Kukli\u0144skiego","spot":"1","number":"9628","bikes":"12","bike_racks":"22","free_racks":"10","terminal_type":"7inch","bike_numbers":"27952,27871,27868,27303,26835,26834,25915,25599,25139,29127,96391,96138","bike_types":{"4":11,"0":1},"place_type":"0","rack_locks":"1"},{"uid":"2585925","lat":"52.3031984","lng":"20.9891666","name":"Modli\u0144ska - \u017bera\u0144ska","spot":"1","number":"9629","bikes":"17","bike_racks":"30","free_racks":"13","terminal_type":"7inch","bike_numbers":"28886,28308,28127,27982,27961,27895,27725,27108,26873,26769,26763,26592,26269,25470,25349,29133,96544","bike_types":{"4":16,"0":1},"place_type":"0","rack_locks":"1"},{"uid":"2585926","lat":"52.3150181","lng":"21.0610807","name":"Skarbka z G\u00f3r - Magiczna","spot":"1","number":"9630","bikes":"15","bike_racks":"30","free_racks":"13","terminal_type":"7inch","bike_numbers":"24692,28583,28456,28067,27487,27360,27354,26827,26815,26460,26413,25376,25146,25958,96204","bike_types":{"4":16},"place_type":"0","rack_locks":"1"},{"uid":"2585928","lat":"52.3000268","lng":"21.0425266","name":"P\u0119tla Br\u00f3dno - Podgrodzie","spot":"1","number":"9631","bikes":"11","bike_racks":"16","free_racks":"5","terminal_type":"7inch","bike_numbers":"28190,27742,27282,27008,26259,25591,25159,29350,29082,96575,29174","bike_types":{"4":11},"place_type":"0","rack_locks":"1"},{"uid":"2585929","lat":"52.2939957","lng":"21.0272258","name":"Rembieli\u0144ska - Kondratowicza","spot":"1","number":"9632","bikes":"12","bike_racks":"23","free_racks":"11","terminal_type":"7inch","bike_numbers":"24864,28270,27902,27288,26194,26110,26103,25784,25398,25218,28806,29160","bike_types":{"4":12},"place_type":"0","rack_locks":"1"},{"uid":"2585931","lat":"52.2917236","lng":"21.0481189","name":"Targ\u00f3wek-Ratusz","spot":"1","number":"9633","bikes":"15","bike_racks":"22","free_racks":"6","terminal_type":"7inch","bike_numbers":"24039,24014,27327,27300,26859,26335,26058,25988,25943,25510,25150,29075,96240,96132,96103","bike_types":{"26":2,"4":13},"place_type":"0","rack_locks":"1"},{"uid":"2585932","lat":"52.292208","lng":"21.0419554","name":"Kondratowicza - Chodecka","spot":"1","number":"9634","bikes":"14","bike_racks":"23","free_racks":"7","terminal_type":"7inch","bike_numbers":"24816,24672,28702,28628,28566,28100,27538,27527,27451,27357,26657,26424,96401,96282","bike_types":{"4":14},"place_type":"0","rack_locks":"1"},{"uid":"2585934","lat":"52.2925145","lng":"21.0573949","name":"Kondratowicza - Przy Grodzisku","spot":"1","number":"9635","bikes":"12","bike_racks":"18","free_racks":"6","terminal_type":"7inch","bike_numbers":"28651,27778,27750,27601,26994,26529,26305,26275,26204,25526,96526,96326","bike_types":{"4":12},"place_type":"0","rack_locks":"1"},{"uid":"2585936","lat":"52.2878069","lng":"21.0213829","name":"Wysockiego - Poborza\u0144ska","spot":"1","number":"9636","bikes":"16","bike_racks":"23","free_racks":"7","terminal_type":"7inch","bike_numbers":"28758,28066,27484,27035,26979,26667,26599,26313,26153,26151,25406,25334,25170,28849,96524,96430","bike_types":{"4":16},"place_type":"0","rack_locks":"1"},{"uid":"2585937","lat":"52.2885915","lng":"21.0310087","name":"Rembieli\u0144ska - Wyszogrodzka","spot":"1","number":"9637","bikes":"25","bike_racks":"30","free_racks":"5","terminal_type":"7inch","bike_numbers":"28705,28498,28404,28150,28137,28126,28120,28082,27498,27342,27037,26963,26537,26331,26273,26231,26122,25901,28908,29388,29146,96046,96452,96336,29247","bike_types":{"4":24,"0":1},"place_type":"0","rack_locks":"1"},{"uid":"2585938","lat":"52.2864841","lng":"21.0401998","name":"Chodecka - \u017buromi\u0144ska","spot":"1","number":"9638","bikes":"14","bike_racks":"15","free_racks":"1","terminal_type":"7inch","bike_numbers":"24921,24008,28414,27814,27776,27512,27448,26221,25929,25162,29004,96179,29151,29209","bike_types":{"4":13,"26":1},"place_type":"0","rack_locks":"1"},{"uid":"2585939","lat":"52.281231017533","lng":"21.025852560997","name":"Wysockiego - Matki Teresy z Kalkuty","spot":"1","number":"9639","bikes":"9","bike_racks":"17","free_racks":"8","terminal_type":"7inch","bike_numbers":"24987,24657,27663,26871,26844,26756,26076,26027,25815","bike_types":{"4":9},"place_type":"0","rack_locks":"1"},{"uid":"2585941","lat":"52.2835693","lng":"21.0720858","name":"Blokowa - DK Zacisze","spot":"1","number":"9640","bikes":"15","bike_racks":"18","free_racks":"3","terminal_type":"7inch","bike_numbers":"24573,28265,27925,26847,26606,26456,25780,25636,25429,25357,25350,25268,25180,29020,29202","bike_types":{"4":15},"place_type":"0","rack_locks":"1"},{"uid":"2585942","lat":"52.276259","lng":"21.0530748","name":"P\u0119tla Targ\u00f3wek","spot":"1","number":"9641","bikes":"13","bike_racks":"22","free_racks":"8","terminal_type":"7inch","bike_numbers":"24687,28408,28088,28075,27916,27313,26491,26048,25359,25263,25161,25074,29214","bike_types":{"4":13},"place_type":"0","rack_locks":"1"},{"uid":"2585943","lat":"52.27139","lng":"21.01566","name":"Jagiello\u0144ska - ALK","spot":"1","number":"9642","bikes":"8","bike_racks":"16","free_racks":"8","terminal_type":"7inch","bike_numbers":"27644,26051,25572,25176,25167,96327,96112,29165","bike_types":{"4":8},"place_type":"0","rack_locks":"1"},{"uid":"2585947","lat":"52.2694683","lng":"21.0499817","name":"Ossowskiego","spot":"1","number":"9644","bikes":"9","bike_racks":"17","free_racks":"8","terminal_type":"7inch","bike_numbers":"24636,28368,27312,27220,27031,26390,25216,96368,96142","bike_types":{"4":9},"place_type":"0","rack_locks":"1"},{"uid":"2585951","lat":"52.272602123161","lng":"21.063210368156","name":"Radzymi\u0144ska -Trocka","spot":"1","number":"9645","bikes":"14","bike_racks":"20","free_racks":"6","terminal_type":"7inch","bike_numbers":"28686,28646,28362,27939,27405,27397,26718,26130,25928,25712,25148,96516,29193,29243","bike_types":{"4":14},"place_type":"0","rack_locks":"1"},{"uid":"2585953","lat":"52.27347","lng":"21.07698","name":"Bukowiecka - Zamkowa","spot":"1","number":"9646","bikes":"15","bike_racks":"15","free_racks":"0","terminal_type":"7inch","bike_numbers":"28694,28681,28028,27854,27658,27422,27328,26263,25977,25483,25465,29135,28963,96252,29245","bike_types":{"4":14,"0":1},"place_type":"0","rack_locks":"1"},{"uid":"2585954","lat":"52.2668885","lng":"21.0585675","name":"Radzymi\u0144ska - Piotra Skargi","spot":"1","number":"9647","bikes":"12","bike_racks":"20","free_racks":"8","terminal_type":"7inch","bike_numbers":"24901,24848,28542,28339,27914,27877,27421,26793,26396,25896,29120,24049","bike_types":{"4":10,"0":1,"26":1},"place_type":"0","rack_locks":"1"},{"uid":"2585955","lat":"52.2614369","lng":"21.0155744","name":"Wybrze\u017ce Helskie - ZOO","spot":"1","number":"9648","bikes":"15","bike_racks":"22","free_racks":"7","terminal_type":"7inch","bike_numbers":"24570,28616,28554,27734,27482,26917,26874,26713,26143,28960,28777,96549,96274,96221,96582","bike_types":{"4":15},"place_type":"0","rack_locks":"1"},{"uid":"2585956","lat":"52.2632492","lng":"21.0212231","name":"Rondo Starzy\u0144skiego","spot":"1","number":"9649","bikes":"21","bike_racks":"24","free_racks":"3","terminal_type":"7inch","bike_numbers":"24938,28723,28496,28417,28134,27427,27370,27020,26919,26648,26505,26367,25659,25635,25587,25069,96555,96298,96186,96129,24046","bike_types":{"4":20,"26":1},"place_type":"0","rack_locks":"1"},{"uid":"2585958","lat":"52.26421","lng":"21.02618","name":"Darwina - Nusbauma-Hilarowicza","spot":"1","number":"9650","bikes":"14","bike_racks":"21","free_racks":"7","terminal_type":"7inch","bike_numbers":"28774,28606,27030,27019,26777,25842,25754,25751,25634,25466,29347,28827,96021,96208","bike_types":{"4":14},"place_type":"0","rack_locks":"1"},{"uid":"2585960","lat":"52.26554","lng":"21.03122","name":"Namys\u0142owska - Darwina","spot":"1","number":"9651","bikes":"8","bike_racks":"15","free_racks":"6","terminal_type":"7inch","bike_numbers":"28258,26642,26276,25795,25787,25053,28981,96356","bike_types":{"4":8},"place_type":"0","rack_locks":"1"},{"uid":"2585961","lat":"52.2690405","lng":"21.0379493","name":"Rondo \u017baba","spot":"1","number":"9652","bikes":"17","bike_racks":"22","free_racks":"6","terminal_type":"7inch","bike_numbers":"25008,28390,28357,28098,27323,26949,26805,26730,26666,25564,25246,25063,29124,28971,96302,96297,29169","bike_types":{"4":16,"0":1},"place_type":"0","rack_locks":"1"},{"uid":"2585963","lat":"52.2591682","lng":"21.0262224","name":"Jagiello\u0144ska - Plac Hallera","spot":"1","number":"9653","bikes":"14","bike_racks":"20","free_racks":"6","terminal_type":"7inch","bike_numbers":"28385,27893,27821,27574,27356,27283,26982,26297,26168,26033,25993,25985,25933,25677","bike_types":{"4":14},"place_type":"0","rack_locks":"1"},{"uid":"2585964","lat":"52.2613811","lng":"21.0305437","name":"Plac Hallera - Sawinkowa","spot":"1","number":"9654","bikes":"7","bike_racks":"28","free_racks":"20","terminal_type":"7inch","bike_numbers":"28647,28148,27502,26715,26671,26327,96569","bike_types":{"4":7},"place_type":"0","rack_locks":"1"},{"uid":"2585967","lat":"52.263","lng":"21.03418","name":"Namys\u0142owska - Szymanowskiego","spot":"1","number":"9655","bikes":"7","bike_racks":"16","free_racks":"8","terminal_type":"7inch","bike_numbers":"28380,27580,26387,25421,25230,25217,28987","bike_types":{"4":7},"place_type":"0","rack_locks":"1"},{"uid":"2585968","lat":"52.2538188","lng":"21.0231542","name":"Ratuszowa - ZOO","spot":"1","number":"9656","bikes":"16","bike_racks":"23","free_racks":"7","terminal_type":"7inch","bike_numbers":"24771,24644,24581,24017,28560,28524,28140,27959,27446,27160,26627,26229,26111,26085,25767,25415","bike_types":{"4":15,"26":1},"place_type":"0","rack_locks":"1"},{"uid":"2585971","lat":"52.256355","lng":"21.029538","name":"Jagiello\u0144ska - Ratuszowa","spot":"1","number":"9657","bikes":"15","bike_racks":"16","free_racks":"3","terminal_type":"7inch","bike_numbers":"24838,24548,28660,27158,27134,26693,26408,26188,25739,25182,29116,28888,28989,29199,29225","bike_types":{"4":15},"place_type":"0","rack_locks":"1"},{"uid":"2585972","lat":"52.261449","lng":"21.037614","name":"11 Listopada - Ratuszowa","spot":"1","number":"9658","bikes":"21","bike_racks":"30","free_racks":"9","terminal_type":"7inch","bike_numbers":"24978,28569,28547,28295,28026,27888,27761,27744,27560,26987,26958,26846,26404,26395,26366,26166,25779,25297,29436,29159,29156","bike_types":{"4":21},"place_type":"0","rack_locks":"1"},{"uid":"2585974","lat":"52.263109","lng":"21.0381895","name":"11 listopada - \u015arodkowa","spot":"1","number":"9659","bikes":"16","bike_racks":"18","free_racks":"3","terminal_type":"7inch","bike_numbers":"24893,28578,28515,28369,28085,27864,27660,27576,26930,26732,26464,26295,26224,25967,25445,96167","bike_types":{"4":16},"place_type":"0","rack_locks":"1"},{"uid":"2585975","lat":"52.25839","lng":"21.03537","name":"Stalowa - 11 Listopada","spot":"1","number":"9660","bikes":"12","bike_racks":"24","free_racks":"11","terminal_type":"7inch","bike_numbers":"24831,28762,28750,28153,27800,25919,25813,25588,25541,25157,25625,28830","bike_types":{"4":12},"place_type":"0","rack_locks":"1"},{"uid":"2585978","lat":"52.234791","lng":"21.07905","name":"al. Stan\u00f3w Zjednoczonych - Ostrobramska","spot":"1","number":"9661","bikes":"17","bike_racks":"20","free_racks":"5","terminal_type":"7inch","bike_numbers":"24472,28721,28465,28131,27264,26691,26645,26352,25904,25719,25114,29091,29143,28918,96379,96145,96078","bike_types":{"51":1,"4":15,"0":1},"place_type":"0","rack_locks":"1"},{"uid":"2585981","lat":"52.2524758","lng":"21.0303479","name":"Floria\u0144ska - Park Praski","spot":"1","number":"9662","bikes":"20","bike_racks":"23","free_racks":"3","terminal_type":"7inch","bike_numbers":"24011,28367,28110,28014,27927,27803,26814,26636,26362,26208,26049,26041,26002,25952,25918,25596,25527,25325,29101,29456","bike_types":{"26":1,"4":19},"place_type":"0","rack_locks":"1"},{"uid":"2585982","lat":"52.2549757","lng":"21.0339005","name":"Plac Wile\u0144ski","spot":"1","number":"9663","bikes":"39","bike_racks":"30","free_racks":"0","terminal_type":"7inch","bike_numbers":"24662,24606,24546,24525,28659,28653,28548,28139,27960,27908,27794,27675,27437,26517,26289,26212,26089,26061,25899,25706,25096,25075,25018,29056,29031,28950,29360,28978,96546,96499,96367,96360,96357,96315,96267,96216,96086,29246,96581","bike_types":{"4":39},"place_type":"0","rack_locks":"1"},{"uid":"2585983","lat":"52.2579576","lng":"21.0399804","name":"Wile\u0144ska - Rzeszotarskiej","spot":"1","number":"9664","bikes":"9","bike_racks":"16","free_racks":"8","terminal_type":"7inch","bike_numbers":"24531,28736,28724,27974,27818,27412,27343,26908,26879","bike_types":{"4":9},"place_type":"0","rack_locks":"1"},{"uid":"2585984","lat":"52.2475848","lng":"20.9568001","name":"al. Prymasa Tysi\u0105clecia - Obozowa","spot":"1","number":"9665","bikes":"9","bike_racks":"13","free_racks":"4","terminal_type":"7inch","bike_numbers":"24532,28682,28489,28142,27115,26470,26330,26062,25375","bike_types":{"4":9},"place_type":"0","rack_locks":"1"},{"uid":"2585985","lat":"52.248607","lng":"21.029647","name":"Okrzei - Panie\u0144ska","spot":"1","number":"9666","bikes":"13","bike_racks":"16","free_racks":"9","terminal_type":"7inch","bike_numbers":"28801,28673,28423,28297,27817,27709,27330,26154,25810,25740,25127,96484,96133","bike_types":{"4":13},"place_type":"0","rack_locks":"1"},{"uid":"2585987","lat":"52.2506334","lng":"21.0311174","name":"Sierakowskiego - K\u0142opotowskiego","spot":"1","number":"9667","bikes":"15","bike_racks":"25","free_racks":"10","terminal_type":"7inch","bike_numbers":"24800,24658,24538,24506,24467,28685,27764,27637,26247,26113,26044,25790,25480,25298,96422","bike_types":{"4":14,"51":1},"place_type":"0","rack_locks":"1"},{"uid":"2585990","lat":"52.2520876","lng":"21.0381368","name":"Targowa - Z\u0105bkowska","spot":"1","number":"9668","bikes":"13","bike_racks":"18","free_racks":"4","terminal_type":"7inch","bike_numbers":"24982,24842,25003,28406,28119,27977,27856,27699,26988,26161,25766,25088,96196","bike_types":{"4":13},"place_type":"0","rack_locks":"1"},{"uid":"2585992","lat":"52.2544855","lng":"21.0433458","name":"Fabryka W\u00f3dek Koneser","spot":"1","number":"9669","bikes":"18","bike_racks":"25","free_racks":"7","terminal_type":"7inch","bike_numbers":"24967,24583,24496,28209,28053,27650,27316,27275,27229,27162,27014,26841,26705,25652,25491,25101,96414,96106","bike_types":{"4":17,"51":1},"place_type":"0","rack_locks":"1"},{"uid":"2585994","lat":"52.2559027","lng":"21.0495613","name":"Radzymi\u0144ska - Wiosenna","spot":"1","number":"9670","bikes":"8","bike_racks":"26","free_racks":"19","terminal_type":"7inch","bike_numbers":"24725,28052,27212,27171,26848,25954,29081,28836","bike_types":{"4":8},"place_type":"0","rack_locks":"1"},{"uid":"2585995","lat":"52.25965","lng":"21.0529","name":"Radzymi\u0144ska - \u0141om\u017cy\u0144ska","spot":"1","number":"9671","bikes":"18","bike_racks":"24","free_racks":"5","terminal_type":"7inch","bike_numbers":"24514,28629,28509,28312,27586,27424,27393,27188,27184,27064,26629,26495,26214,26160,29352,28991,96105,29271","bike_types":{"4":19},"place_type":"0","rack_locks":"1"},{"uid":"2585996","lat":"52.2583512","lng":"21.0585337","name":"P\u0119tla Kaw\u0119czy\u0144ska-Bazylika","spot":"1","number":"9672","bikes":"24","bike_racks":"26","free_racks":"2","terminal_type":"7inch","bike_numbers":"24915,24890,24880,28302,27971,27827,27646,27621,27381,26995,26807,26711,26323,26109,25998,25980,25926,25250,28975,96498,96281,96116,29238,29229","bike_types":{"4":24},"place_type":"0","rack_locks":"1"},{"uid":"2585997","lat":"52.249864871462","lng":"21.042911410332","name":"Targowa - Kijowska","spot":"1","number":"9673","bikes":"15","bike_racks":"18","free_racks":"3","terminal_type":"7inch","bike_numbers":"28718,28214,27755,27717,27530,26831,26446,25855,25573,29105,96559,96361,96344,96127,29253","bike_types":{"4":15},"place_type":"0","rack_locks":"1"},{"uid":"2586000","lat":"52.252745","lng":"21.0510331","name":"Dworzec Wschodni - Kijowska","spot":"1","number":"9674","bikes":"19","bike_racks":"27","free_racks":"7","terminal_type":"7inch","bike_numbers":"24815,28624,28359,28096,28010,27575,27423,27389,26842,26293,25675,25386,25051,29010,29659,96229,96197,96158,96118","bike_types":{"4":19},"place_type":"0","rack_locks":"1"},{"uid":"2586001","lat":"52.247314","lng":"21.042731","name":"Metro Stadion Narodowy","spot":"1","number":"9675","bikes":"18","bike_racks":"15","free_racks":"0","terminal_type":"7inch","bike_numbers":"24909,24761,24642,24545,24010,28484,28452,28254,28029,27331,26519,26042,25043,29365,28812,28988,96319,29228","bike_types":{"4":17,"26":1},"place_type":"0","rack_locks":"1"},{"uid":"2586003","lat":"52.2472308","lng":"21.0476456","name":"al. Zieleniecka - Teatr Powszechny","spot":"1","number":"9676","bikes":"9","bike_racks":"14","free_racks":"5","terminal_type":"7inch","bike_numbers":"24940,24932,24475,28011,27861,27464,26400,29035,28891","bike_types":{"4":8,"51":1},"place_type":"0","rack_locks":"1"},{"uid":"2586005","lat":"52.247346","lng":"21.055947","name":"Grochowska - Mi\u0144ska","spot":"1","number":"9677","bikes":"10","bike_racks":"22","free_racks":"12","terminal_type":"7inch","bike_numbers":"24729,27394,27344,26665,26442,26156,25567,25294,29339,25632","bike_types":{"4":10},"place_type":"0","rack_locks":"1"},{"uid":"2586009","lat":"52.2464","lng":"21.06868","name":"Praga-Po\u0142udnie-Ratusz","spot":"1","number":"9678","bikes":"14","bike_racks":"15","free_racks":"1","terminal_type":"7inch","bike_numbers":"24964,24873,24620,27838,27068,26766,26478,25973,25748,25496,29364,96563,96294,29244","bike_types":{"4":14},"place_type":"0","rack_locks":"1"},{"uid":"2586011","lat":"52.2501129","lng":"21.0772011","name":"Dwernickiego - Siennicka","spot":"1","number":"9679","bikes":"23","bike_racks":"25","free_racks":"2","terminal_type":"7inch","bike_numbers":"24758,24577,24483,28899,28697,28521,28475,28468,27886,27879,27554,27428,27276,27225,27026,26875,26654,26571,25649,25543,25079,25065,96286","bike_types":{"4":22,"51":1},"place_type":"0","rack_locks":"1"},{"uid":"2586012","lat":"52.260428882956","lng":"21.041538119316","name":"Stalowa - Czynszowa","spot":"1","number":"9680","bikes":"8","bike_racks":"15","free_racks":"7","terminal_type":"7inch","bike_numbers":"28667,27841,26862,25950,25746,25593,28809,29281","bike_types":{"4":8},"place_type":"0","rack_locks":"1"},{"uid":"2586014","lat":"52.2372419","lng":"21.0437644","name":"Wybrze\u017ce Szczeci\u0144skie - Stadion Narodowy","spot":"1","number":"9681","bikes":"12","bike_racks":"23","free_racks":"10","terminal_type":"7inch","bike_numbers":"24928,24665,24639,24494,28220,28077,27178,27089,26957,26902,26658,96325","bike_types":{"4":11,"51":1},"place_type":"0","rack_locks":"1"},{"uid":"2586018","lat":"52.2387103","lng":"21.0507515","name":"Rondo Waszyngtona - Stadion Narodowy","spot":"1","number":"9682","bikes":"14","bike_racks":"27","free_racks":"14","terminal_type":"7inch","bike_numbers":"28720,28558,28391,27785,27777,27562,27533,27413,26483,26117,25944,25347,28863,28862","bike_types":{"4":14},"place_type":"0","rack_locks":"1"},{"uid":"2586019","lat":"52.242281006874","lng":"21.071160435677","name":"Waszyngtona - Kinowa","spot":"1","number":"9683","bikes":"15","bike_racks":"15","free_racks":"0","terminal_type":"7inch","bike_numbers":"24945,24898,24884,24787,24782,24009,27459,25889,24498,25624,96449,96431,96318,29149,29276","bike_types":{"4":13,"26":1,"51":1},"place_type":"0","rack_locks":"1"},{"uid":"2586021","lat":"52.2445639","lng":"21.0838057","name":"Rondo Wiatraczna","spot":"1","number":"9684","bikes":"12","bike_racks":"30","free_racks":"20","terminal_type":"7inch","bike_numbers":"24794,24676,24528,24479,26837,26785,26653,26473,26414,29441,96055,24054","bike_types":{"4":10,"51":1,"26":1},"place_type":"0","rack_locks":"1"},{"uid":"2586022","lat":"52.2347451","lng":"21.053651","name":"Francuska - Walecznych","spot":"1","number":"9685","bikes":"7","bike_racks":"15","free_racks":"8","terminal_type":"7inch","bike_numbers":"24607,24529,24524,27920,27653,27267,25455","bike_types":{"4":7},"place_type":"0","rack_locks":"1"},{"uid":"2586024","lat":"52.236598","lng":"21.064774","name":"Mi\u0119dzynarodowa - Walecznych","spot":"1","number":"9686","bikes":"10","bike_racks":"15","free_racks":"5","terminal_type":"7inch","bike_numbers":"24918,28557,28436,28322,28038,27090,26704,26022,25912,25546","bike_types":{"4":10},"place_type":"0","rack_locks":"1"},{"uid":"2586026","lat":"52.243020071904","lng":"21.102375984192","name":"Plac Szembeka","spot":"1","number":"9687","bikes":"11","bike_racks":"15","free_racks":"4","terminal_type":"7inch","bike_numbers":"28292,28020,27404,27243,26014,25917,25099,25025,28942,28994,96429","bike_types":{"4":11},"place_type":"0","rack_locks":"1"},{"uid":"2586028","lat":"52.237559","lng":"21.120087","name":"P\u0119tla Goc\u0142awek","spot":"1","number":"9688","bikes":"13","bike_racks":"16","free_racks":"3","terminal_type":"7inch","bike_numbers":"24980,24955,24664,28663,28512,27589,26706,26448,25974,25476,29003,96201,96092","bike_types":{"4":13},"place_type":"0","rack_locks":"1"},{"uid":"2586030","lat":"52.2258359","lng":"21.0600907","name":"Brukselska - PROM","spot":"1","number":"9689","bikes":"10","bike_racks":"15","free_racks":"7","terminal_type":"7inch","bike_numbers":"24947,24685,24505,28315,27469,26167,25666,25404,29447,25622","bike_types":{"4":10},"place_type":"0","rack_locks":"1"},{"uid":"2586031","lat":"52.260205610017","lng":"21.046854257584","name":"al. Solidarno\u015bci - Szwedzka","spot":"1","number":"9690","bikes":"13","bike_racks":"18","free_racks":"5","terminal_type":"7inch","bike_numbers":"24913,24775,24720,28101,28000,26956,26897,26857,26132,26032,25341,96287,24051","bike_types":{"4":12,"26":1},"place_type":"0","rack_locks":"1"},{"uid":"2586032","lat":"52.230088","lng":"21.067948","name":"al. Stan\u00f3w Zjednoczonych - Mi\u0119dzynarodowa","spot":"1","number":"9691","bikes":"12","bike_racks":"26","free_racks":"14","terminal_type":"7inch","bike_numbers":"24722,27536,27271,27070,26934,26581,26542,25913,25885,28805,28973,96083","bike_types":{"4":12},"place_type":"0","rack_locks":"1"},{"uid":"2586034","lat":"52.23483","lng":"21.09975","name":"Ostrobramska - Zamieniecka","spot":"1","number":"9692","bikes":"17","bike_racks":"23","free_racks":"5","terminal_type":"7inch","bike_numbers":"24972,28105,27476,27363,26385,26277,26068,26025,26023,25722,25296,25275,96050,96529,96209,29191,29263","bike_types":{"4":17},"place_type":"0","rack_locks":"1"},{"uid":"2586037","lat":"52.2251969","lng":"21.0712892","name":"Afryka\u0144ska - Egipska","spot":"1","number":"9693","bikes":"13","bike_racks":"16","free_racks":"3","terminal_type":"7inch","bike_numbers":"24969,24739,24604,24539,27072,27033,26176,25362,25095,29083,29046,29194,29175","bike_types":{"4":13},"place_type":"0","rack_locks":"1"},{"uid":"2586039","lat":"52.22837","lng":"21.08581","name":"Abrahama - Kapelan\u00f3w AK","spot":"1","number":"9694","bikes":"11","bike_racks":"15","free_racks":"4","terminal_type":"7inch","bike_numbers":"24973,24731,24589,28903,28749,28632,28412,28364,26865,25756,96283","bike_types":{"4":11},"place_type":"0","rack_locks":"1"},{"uid":"2586044","lat":"52.22974","lng":"21.10624","name":"Rechniewskiego - Nowaka-Jeziora\u0144skiego","spot":"1","number":"9696","bikes":"24","bike_racks":"30","free_racks":"5","terminal_type":"7inch","bike_numbers":"24984,24551,28873,28195,27870,27815,27732,27693,27176,26605,26504,25745,25693,25435,25330,25107,25028,96054,96341,96253,96249,96155,96087,29240","bike_types":{"4":24},"place_type":"0","rack_locks":"1"},{"uid":"2586045","lat":"52.2223071","lng":"21.0907259","name":"Meissnera - Fieldorfa","spot":"1","number":"9697","bikes":"16","bike_racks":"15","free_racks":"0","terminal_type":"7inch","bike_numbers":"24029,28887,28693,28032,27642,27521,27504,27179,26794,25425,25321,25314,28807,28841,96224,29176","bike_types":{"26":1,"4":15},"place_type":"0","rack_locks":"1"},{"uid":"2586268","lat":"52.23938046828","lng":"21.016716957092","name":"Krakowskie Przedmie\u015bcie - Traugutta 2","spot":"1","number":"94931","bikes":"14","bike_racks":"24","free_racks":"8","terminal_type":"7inch","bike_numbers":"24933,24774,28745,28352,28269,27112,27041,25960,25689,25243,25070,96471,96470,96328","bike_types":{"4":14},"place_type":"0","rack_locks":"1"},