[{"region_info":{"lat":"52.2345","lng":"21.0024","zoom":"11","name":"VETURILO Poland","hotline":"+4819115","domain":"vp","country":"PL","country_name":"Poland","terms":"http:\/\/www.veturilo.waw.pl\/terms\/?v=201701","policy":"","website":"http:\/\/www.veturilo.waw.pl\/","show_free_racks":"1","booked_bikes":"0","set_point_bikes":"5279","available_bikes":"4783"},"places_summary":{"lngMin":20.8689688,"lngMax":21.120087,"latMin":52.117285,"latMax":52.3485329,"lngAvg":21.007811803367,"latAvg":52.230676667704},"places":[{"uid":"2585259","lat":"52.296298","lng":"20.9583575","name":"Dewajtis - UKSW","spot":"1","number":"9402","bikes":"17","bike_racks":"30","free_racks":"13","terminal_type":"7inch","bike_numbers":"24731,28434,28383,27912,27097,26963,26925,26860,26774,25927,25842,25704,25358,29338,29428,28911,96170","bike_types":{"4":17},"place_type":"0","rack_locks":"1"},{"uid":"2585263","lat":"52.2909738","lng":"20.9295559","name":"Metro M\u0142ociny","spot":"1","number":"9403","bikes":"14","bike_racks":"30","free_racks":"16","terminal_type":"7inch","bike_numbers":"24993,24972,24614,27843,27517,27379,26915,26130,25722,25526,25292,29072,96522,96479","bike_types":{"4":14},"place_type":"0","rack_locks":"1"},{"uid":"2585265","lat":"52.2901732","lng":"20.9503698","name":"Marymoncka - Dewajtis","spot":"1","number":"9404","bikes":"25","bike_racks":"30","free_racks":"8","terminal_type":"7inch","bike_numbers":"24843,28527,28442,28094,27989,27713,27701,27491,26632,26558,26546,26330,26217,25956,25776,25734,25407,25248,25080,25052,25044,29010,28913,96490,96190","bike_types":{"4":25},"place_type":"0","rack_locks":"1"},{"uid":"2585267","lat":"52.285914","lng":"20.940561","name":"Metro Wawrzyszew","spot":"1","number":"9405","bikes":"3","bike_racks":"20","free_racks":"17","terminal_type":"7inch","bike_numbers":"27335,26288,25677","bike_types":{"4":3},"place_type":"0","rack_locks":"1"},{"uid":"2585269","lat":"52.2336142","lng":"21.0146353","name":"G\u00f3rskiego - Szpitalna","spot":"1","number":"9406","bikes":"9","bike_racks":"16","free_racks":"7","terminal_type":"7inch","bike_numbers":"24560,28378,27700,27070,26442,26313,25820,25097,96085","bike_types":{"4":9},"place_type":"0","rack_locks":"1"},{"uid":"2585271","lat":"52.2816265","lng":"20.9498871","name":"Metro Stare Bielany","spot":"1","number":"9407","bikes":"12","bike_racks":"30","free_racks":"18","terminal_type":"7inch","bike_numbers":"28260,28196,27950,27098,26663,26575,25499,25295,29142,28776,28986,96502","bike_types":{"4":11,"0":1},"place_type":"0","rack_locks":"1"},{"uid":"2585272","lat":"52.2361217","lng":"21.0219096","name":"Ordynacka - Uniwersytet Muzyczny","spot":"1","number":"9408","bikes":"11","bike_racks":"20","free_racks":"9","terminal_type":"7inch","bike_numbers":"24937,28472,27812,27429,27054,26787,26192,25653,25180,96389,96207","bike_types":{"4":11},"place_type":"0","rack_locks":"1"},{"uid":"2585273","lat":"52.2768774","lng":"20.9481302","name":"Bielany-Ratusz","spot":"1","number":"9409","bikes":"17","bike_racks":"28","free_racks":"11","terminal_type":"7inch","bike_numbers":"24492,28610,28316,28217,27263,27074,26815,26100,25991,25857,25740,25588,25544,25436,25239,29050,96320","bike_types":{"51":1,"4":16},"place_type":"0","rack_locks":"1"},{"uid":"2585275","lat":"52.2761569","lng":"20.9616673","name":"Metro S\u0142odowiec","spot":"1","number":"9410","bikes":"23","bike_racks":"30","free_racks":"6","terminal_type":"7inch","bike_numbers":"24945,24918,24713,24032,28424,27691,27636,26926,26562,26554,26018,26011,25970,25222,25162,29373,29419,29553,28973,96044,96357,96122,96090","bike_types":{"4":23,"26":1},"place_type":"0","rack_locks":"1"},{"uid":"2585278","lat":"52.2777751","lng":"20.9856999","name":"Potocka - OSiR \u017boliborz","spot":"1","number":"9411","bikes":"12","bike_racks":"15","free_racks":"3","terminal_type":"7inch","bike_numbers":"27876,27673,27609,27072,26608,26599,25604,25353,25338,25275,25033,29449","bike_types":{"4":12},"place_type":"0","rack_locks":"1"},{"uid":"2585280","lat":"52.273527782989","lng":"20.994186401367","name":"Gwia\u017adzista - Promyka","spot":"1","number":"9412","bikes":"10","bike_racks":"16","free_racks":"5","terminal_type":"7inch","bike_numbers":"24818,24694,24612,24532,24491,27861,27282,26941,26222,25083","bike_types":{"4":10,"51":1},"place_type":"0","rack_locks":"1"},{"uid":"2585281","lat":"52.270941","lng":"20.9326269","name":"al. Reymonta - Conrada","spot":"1","number":"9413","bikes":"28","bike_racks":"30","free_racks":"2","terminal_type":"7inch","bike_numbers":"24934,24846,24583,24574,28822,28680,27996,27841,27683,27646,26692,26679,26475,26297,26286,26090,26076,25931,25433,25322,25220,25115,25114,28859,28831,96569,96518,96462","bike_types":{"4":28},"place_type":"0","rack_locks":"1"},{"uid":"2585283","lat":"52.2706441","lng":"20.9504181","name":"Broniewskiego - Perzy\u0144skiego","spot":"1","number":"9414","bikes":"18","bike_racks":"16","free_racks":"2","terminal_type":"7inch","bike_numbers":"24009,28721,27969,27847,27760,27670,26729,26326,26250,25915,25767,25268,29068,28935,96530,96431,29169,96582","bike_types":{"26":1,"4":17},"place_type":"0","rack_locks":"1"},{"uid":"2585284","lat":"52.2714203","lng":"20.9727099","name":"Metro Marymont","spot":"1","number":"9415","bikes":"21","bike_racks":"30","free_racks":"9","terminal_type":"7inch","bike_numbers":"24750,24646,28315,28252,27859,27182,27161,26834,26709,26607,26491,26432,26319,25856,25766,25592,25585,29034,29361,28829,96425","bike_types":{"4":21},"place_type":"0","rack_locks":"1"},{"uid":"2585285","lat":"52.2694081","lng":"20.9833664","name":"Metro Plac Wilsona","spot":"1","number":"9416","bikes":"19","bike_racks":"21","free_racks":"5","terminal_type":"7inch","bike_numbers":"24967,24966,24926,24798,24783,28772,28599,28538,28056,27899,27222,26932,26501,25930,25478,25461,25119,29014,96547","bike_types":{"4":19},"place_type":"0","rack_locks":"1"},{"uid":"2585286","lat":"52.2668623","lng":"20.9637032","name":"Broniewskiego - W\u0142o\u015bcia\u0144ska","spot":"1","number":"9417","bikes":"24","bike_racks":"19","free_racks":"2","terminal_type":"7inch","bike_numbers":"24902,24746,24553,28775,27505,27196,26965,26253,25840,25520,25400,25384,25081,29213,29061,25622,28852,96037,96419,96366,96335,96241,29193,29150","bike_types":{"4":24},"place_type":"0","rack_locks":"1"},{"uid":"2585288","lat":"52.2643984","lng":"20.9723179","name":"Broniewskiego - Krasi\u0144skiego","spot":"1","number":"9418","bikes":"7","bike_racks":"16","free_racks":"10","maintenance":"1","terminal_type":"7inch","bike_numbers":"24816,24740,24589,24513,28428,28398,96411","bike_types":{"4":7},"place_type":"0","rack_locks":"1"},{"uid":"2585289","lat":"52.267875","lng":"21.0020667","name":"Wybrze\u017ce Gdy\u0144skie - KS Sp\u00f3jnia","spot":"1","number":"9419","bikes":"14","bike_racks":"15","free_racks":"15","terminal_type":"7inch","bike_numbers":"28904,28560,28082,27756,26900,26238,26131,26095,25555,25090,25077,28960,29647,96327","bike_types":{"4":14},"place_type":"0","rack_locks":"1"},{"uid":"2585291","lat":"52.2624054","lng":"20.9802551","name":"Plac Grunwaldzki","spot":"1","number":"9420","bikes":"17","bike_racks":"30","free_racks":"13","terminal_type":"7inch","bike_numbers":"24549,28297,28212,27422,27037,26946,26841,26443,26199,25999,25605,25193,25176,28908,28875,96474,96097","bike_types":{"4":17},"place_type":"0","rack_locks":"1"},{"uid":"2585296","lat":"52.2612575","lng":"20.9863191","name":"Zaj\u0105czka - Bitwy Pod Rokitn\u0105","spot":"1","number":"9421","bikes":"11","bike_racks":"15","free_racks":"4","terminal_type":"7inch","bike_numbers":"28555,28041,27450,27224,26036,25802,25415,29038,28842,28832,96267","bike_types":{"4":11},"place_type":"0","rack_locks":"1"},{"uid":"2585297","lat":"52.2645018","lng":"20.9895998","name":"Plac Inwalid\u00f3w","spot":"1","number":"9422","bikes":"10","bike_racks":"15","free_racks":"5","terminal_type":"7inch","bike_numbers":"24864,28566,28022,28021,27308,27250,26519,26357,25413,28909","bike_types":{"4":10},"place_type":"0","rack_locks":"1"},{"uid":"2585299","lat":"52.258245356688","lng":"20.898613929749","name":"P\u0119tla Stare Bemowo","spot":"1","number":"9423","bikes":"15","bike_racks":"21","free_racks":"5","terminal_type":"7inch","bike_numbers":"24461,28710,28514,27934,27028,26468,26213,26049,25889,25706,25365,25216,25073,25632,96192","bike_types":{"51":1,"4":14},"place_type":"0","rack_locks":"1"},{"uid":"2585301","lat":"52.260895125763","lng":"20.923923254013","name":"P\u0119tla Nowe Bemowo","spot":"1","number":"9424","bikes":"22","bike_racks":"25","free_racks":"2","terminal_type":"7inch","bike_numbers":"24930,24559,27380,25519,25264,29138,96418,96377,96376,96375,96321,96314,96297,96293,96242,96233,96232,96228,96227,96206,96143,96111","bike_types":{"4":21,"0":1},"place_type":"0","rack_locks":"1"},{"uid":"2585304","lat":"52.2575903","lng":"20.9323374","name":"Obro\u0144c\u00f3w Tobruku - Pieni\u0105\u017cka","spot":"1","number":"9425","bikes":"6","bike_racks":"12","free_racks":"7","terminal_type":"7inch","bike_numbers":"24882,27438,26620,26097,96216,96194","bike_types":{"4":6},"place_type":"0","rack_locks":"1"},{"uid":"2585305","lat":"52.2593225","lng":"20.9605511","name":"Pow\u0105zkowska - Krasi\u0144skiego","spot":"1","number":"9426","bikes":"20","bike_racks":"23","free_racks":"3","terminal_type":"7inch","bike_numbers":"27617,27459,27383,26667,26613,26279,26098,25612,25306,25207,25019,29066,29039,29654,96568,96521,96487,96392,96212,29212","bike_types":{"4":20},"place_type":"0","rack_locks":"1"},{"uid":"2585306","lat":"52.2563145","lng":"20.9682307","name":"Pow\u0105zkowska - Plac Niemena","spot":"1","number":"9427","bikes":"11","bike_racks":"16","free_racks":"5","terminal_type":"7inch","bike_numbers":"24537,28665,27948,27860,27293,26592,26111,25391,25277,96259,96140","bike_types":{"4":11},"place_type":"0","rack_locks":"1"},{"uid":"2585307","lat":"52.258524460024","lng":"20.970931649208","name":"Przasnyska - Rydygiera","spot":"1","number":"9428","bikes":"8","bike_racks":"15","free_racks":"7","terminal_type":"7inch","bike_numbers":"24944,28635,26762,25705,25698,29020,28950,96295","bike_types":{"4":8},"place_type":"0","rack_locks":"1"},{"uid":"2585308","lat":"52.253594","lng":"20.9798744","name":"Pow\u0105zkowska - Burakowska","spot":"1","number":"9429","bikes":"15","bike_racks":"20","free_racks":"5","terminal_type":"7inch","bike_numbers":"24971,28659,28351,27201,27195,27042,26447,25293,63601,96512,96489,96382,96306,96142,96117","bike_types":{"4":15},"place_type":"0","rack_locks":"1"},{"uid":"2585311","lat":"52.2576018","lng":"20.9944975","name":"Metro Dworzec Gda\u0144ski","spot":"1","number":"9430","bikes":"18","bike_racks":"30","free_racks":"17","terminal_type":"7inch","bike_numbers":"24776,24539,28701,28575,27922,27502,27431,27124,27083,26511,25614,25496,29054,28839,96571,96546,96499,29221","bike_types":{"4":17},"place_type":"0","rack_locks":"1"},{"uid":"2585315","lat":"52.2465952","lng":"20.9429216","name":"Obozowa - Cio\u0142ka","spot":"1","number":"9432","bikes":"5","bike_racks":"13","free_racks":"9","terminal_type":"7inch","bike_numbers":"24931,27810,27468,26261,96273","bike_types":{"4":5},"place_type":"0","rack_locks":"1"},{"uid":"2585317","lat":"52.227621983552","lng":"20.956758856773","name":"al. Prymasa Tysi\u0105clecia - Kasprzaka","spot":"1","number":"9433","bikes":"28","bike_racks":"23","free_racks":"0","terminal_type":"7inch","bike_numbers":"24790,24742,24730,24659,24626,28726,28687,28464,28208,28133,28120,27312,26991,26980,26839,26773,26737,26705,26405,26308,25467,25070,29101,28971,96013,96467,96268,29199","bike_types":{"4":28},"place_type":"0","rack_locks":"1"},{"uid":"2585319","lat":"52.246037","lng":"20.962463","name":"Obozowa - Radziwie","spot":"1","number":"9434","bikes":"10","bike_racks":"13","free_racks":"5","terminal_type":"7inch","bike_numbers":"24813,27663,27638,27446,27076,26684,26644,25621,29104,96272","bike_types":{"4":10},"place_type":"0","rack_locks":"1"},{"uid":"2585321","lat":"52.2514708","lng":"20.9857053","name":"al. Jana Paw\u0142a II - Stawki","spot":"1","number":"9435","bikes":"11","bike_racks":"23","free_racks":"11","terminal_type":"7inch","bike_numbers":"24463,24017,28724,28390,28086,27769,27735,26214,26064,25824,25399","bike_types":{"51":1,"26":1,"4":9},"place_type":"0","rack_locks":"1"},{"uid":"2585323","lat":"52.2535305","lng":"20.9924922","name":"Stawki - Dubois","spot":"1","number":"9436","bikes":"6","bike_racks":"13","free_racks":"5","terminal_type":"7inch","bike_numbers":"24735,24508,28692,28453,26044,96342","bike_types":{"4":6},"place_type":"0","rack_locks":"1"},{"uid":"2585326","lat":"52.2541702","lng":"20.9980649","name":"Andersa - Muranowska","spot":"1","number":"9437","bikes":"27","bike_racks":"30","free_racks":"3","terminal_type":"7inch","bike_numbers":"28738,28441,28213,27924,27794,27664,27633,27315,27219,26960,26721,26450,26384,26262,26133,25684,25579,25474,25297,25267,29340,28878,28974,96023,29175,29257,24048","bike_types":{"4":26,"26":1},"place_type":"0","rack_locks":"1"},{"uid":"2585327","lat":"52.255877","lng":"21.0099819","name":"Sanguszki - Wybrze\u017ce Gda\u0144skie","spot":"1","number":"9438","bikes":"14","bike_racks":"28","free_racks":"13","terminal_type":"7inch","bike_numbers":"24874,24788,28296,28093,27858,27720,27425,26371,26247,25822,25186,28855,96575,96076","bike_types":{"4":14},"place_type":"0","rack_locks":"1"},{"uid":"2585328","lat":"52.252175","lng":"20.923692","name":"Wroc\u0142awska \u2013 Bailly","spot":"1","number":"9439","bikes":"22","bike_racks":"27","free_racks":"6","terminal_type":"7inch","bike_numbers":"24721,28638,27581,27295,26508,26380,96031,96007,96519,96488,96384,96343,96332,96290,96285,96256,96245,96217,96168,96160,96153,96108","bike_types":{"4":22},"place_type":"0","rack_locks":"1"},{"uid":"2585330","lat":"52.24418","lng":"20.97794","name":"Okopowa - Anielewicza","spot":"1","number":"9440","bikes":"8","bike_racks":"20","free_racks":"12","terminal_type":"7inch","bike_numbers":"28757,28671,28275,27079,25917,25804,96358,96104","bike_types":{"4":8},"place_type":"0","rack_locks":"1"},{"uid":"2585333","lat":"52.2486","lng":"20.98352","name":"Smocza - Mi\u0142a","spot":"1","number":"9441","bikes":"11","bike_racks":"15","free_racks":"7","terminal_type":"7inch","bike_numbers":"28897,28293,27655,27376,27272,26465,26291,26154,26101,25167,96159","bike_types":{"4":11},"place_type":"0","rack_locks":"1"},{"uid":"2585334","lat":"52.24616","lng":"20.98538","name":"Smocza - Anielewicza","spot":"1","number":"9442","bikes":"9","bike_racks":"17","free_racks":"8","terminal_type":"7inch","bike_numbers":"28821,28476,28292,26003,25934,25620,25398,29268,29250","bike_types":{"4":9},"place_type":"0","rack_locks":"1"},{"uid":"2585335","lat":"52.247226","lng":"20.9893155","name":"al. Jana Paw\u0142a II - Anielewicza","spot":"1","number":"9443","bikes":"6","bike_racks":"22","free_racks":"14","terminal_type":"7inch","bike_numbers":"27242,26974,26813,25654,25313,96434","bike_types":{"4":7},"place_type":"0","rack_locks":"1"},{"uid":"2585337","lat":"52.249052","lng":"20.9948923","name":"Anielewicza - Zamenhofa","spot":"1","number":"9444","bikes":"9","bike_racks":"15","free_racks":"4","terminal_type":"7inch","bike_numbers":"27733,26571,26381,26198,25485,25387,25324,25262,96491","bike_types":{"4":9},"place_type":"0","rack_locks":"1"},{"uid":"2585338","lat":"52.2492196","lng":"20.9971878","name":"Anielewicza - Andersa","spot":"1","number":"9445","bikes":"9","bike_racks":"18","free_racks":"9","terminal_type":"7inch","bike_numbers":"24929,28487,28149,27903,26770,26379,29011,28948,96412","bike_types":{"4":9},"place_type":"0","rack_locks":"1"},{"uid":"2585340","lat":"52.251549","lng":"21.002749","name":"Bonifraterska - Franciszka\u0144ska","spot":"1","number":"9446","bikes":"18","bike_racks":"16","free_racks":"0","terminal_type":"7inch","bike_numbers":"24615,28608,27606,27134,27080,26830,26643,26191,25695,25303,25227,25151,25020,29342,29200,96352,96323,29190","bike_types":{"4":18},"place_type":"0","rack_locks":"1"},{"uid":"2585342","lat":"52.2541119","lng":"21.0093342","name":"Ko\u015bcielna - Piesza","spot":"1","number":"9448","bikes":"17","bike_racks":"26","free_racks":"8","terminal_type":"7inch","bike_numbers":"24983,24639,28488,28357,28207,27994,27159,26451,26152,25757,25615,25547,25534,28951,28826,96029,96591","bike_types":{"4":17},"place_type":"0","rack_locks":"1"},{"uid":"2585344","lat":"52.2392622","lng":"20.8987641","name":"P\u0119tla Os. G\u00f3rczewska","spot":"1","number":"9449","bikes":"15","bike_racks":"15","free_racks":"0","terminal_type":"7inch","bike_numbers":"24502,28333,27804,27274,26950,26565,25904,25892,25848,25826,25533,25446,25259,28992,96015","bike_types":{"4":15},"place_type":"0","rack_locks":"1"},{"uid":"2585345","lat":"52.2389287","lng":"20.9139535","name":"Bemowo-Ratusz","spot":"1","number":"9450","bikes":"24","bike_racks":"20","free_racks":"0","terminal_type":"7inch","bike_numbers":"24682,24658,24643,28719,28392,28146,28083,28057,27842,27738,27514,27164,27002,26836,26365,25160,29339,28944,96545,96524,96337,96222,96182,96114","bike_types":{"4":24},"place_type":"0","rack_locks":"1"},{"uid":"2585346","lat":"52.2387861","lng":"20.9424946","name":"Okocimska - Olbrachta","spot":"1","number":"9451","bikes":"12","bike_racks":"18","free_racks":"6","terminal_type":"7inch","bike_numbers":"24524,28073,27942,27786,26671,26028,25721,25564,25340,96438,96301,96287","bike_types":{"4":12},"place_type":"0","rack_locks":"1"},{"uid":"2585349","lat":"52.2506241","lng":"21.0533611","name":"Dworzec Wschodni - Lubelska","spot":"1","number":"9452","bikes":"13","bike_racks":"15","free_racks":"2","terminal_type":"7inch","bike_numbers":"24548,28694,28603,28502,28368,27570,27297,27216,25799,25688,28910,96404,96313","bike_types":{"4":13},"place_type":"0","rack_locks":"1"},{"uid":"2585351","lat":"52.2369249","lng":"20.9723559","name":"Leszno - M\u0142ynarska","spot":"1","number":"9453","bikes":"11","bike_racks":"30","free_racks":"19","terminal_type":"7inch","bike_numbers":"24530,28579,28544,28108,27885,27473,26136,25211,25201,96459,96221","bike_types":{"4":11},"place_type":"0","rack_locks":"1"},{"uid":"2585352","lat":"52.2430451","lng":"20.9803864","name":"Dzielna - Bellottiego","spot":"1","number":"9454","bikes":"7","bike_racks":"13","free_racks":"4","terminal_type":"7inch","bike_numbers":"28193,28137,27318,25687,25562,25215,96184","bike_types":{"4":7},"place_type":"0","rack_locks":"1"},{"uid":"2585353","lat":"52.24108","lng":"20.98316","name":"Wolno\u015b\u0107 - Bellottiego","spot":"1","number":"9455","bikes":"9","bike_racks":"16","free_racks":"7","terminal_type":"7inch","bike_numbers":"24914,27946,27580,27460,26660,26523,26477,26033,96001","bike_types":{"4":9},"place_type":"0","rack_locks":"1"},{"uid":"2585354","lat":"52.2435448","lng":"20.9873507","name":"Smocza - Nowolipki","spot":"1","number":"9456","bikes":"2","bike_racks":"16","free_racks":"14","terminal_type":"7inch","bike_numbers":"27777,25754","bike_types":{"4":2},"place_type":"0","rack_locks":"1"},{"uid":"2585356","lat":"52.2445767","lng":"20.99177","name":"al. Jana Paw\u0142a II - Nowolipki","spot":"1","number":"9457","bikes":"1","bike_racks":"16","free_racks":"15","terminal_type":"7inch","bike_numbers":"96477","bike_types":{"4":1},"place_type":"0","rack_locks":"1"},{"uid":"2585358","lat":"52.22868","lng":"20.91509","name":"Powsta\u0144c\u00f3w \u015al\u0105skich - Cz\u0142uchowska","spot":"1","number":"9458","bikes":"7","bike_racks":"16","free_racks":"9","terminal_type":"7inch","bike_numbers":"27765,27417,27393,25694,25693,25184,29123","bike_types":{"4":6,"0":1},"place_type":"0","rack_locks":"1"},{"uid":"2585360","lat":"52.2342032","lng":"20.934689","name":"Jana Olbrachta - Antka Rozpylacza","spot":"1","number":"9459","bikes":"12","bike_racks":"13","free_racks":"4","terminal_type":"7inch","bike_numbers":"28620,27534,27371,26698,26483,25566,25320,25206,25036,96390,96077,29149","bike_types":{"4":12},"place_type":"0","rack_locks":"1"},{"uid":"2585364","lat":"52.2401623","lng":"20.9877277","name":"Wola-Ratusz","spot":"1","number":"9460","bikes":"10","bike_racks":"15","free_racks":"2","terminal_type":"7inch","bike_numbers":"24717,28499,28287,27631,26048,25746,29022,96005,96511,96506","bike_types":{"4":11},"place_type":"0","rack_locks":"1"},{"uid":"2585368","lat":"52.2445326","lng":"20.99998","name":"Plac Bankowy - Kino Muran\u00f3w","spot":"1","number":"9462","bikes":"5","bike_racks":"17","free_racks":"12","terminal_type":"7inch","bike_numbers":"24649,27566,27147,96281,24047","bike_types":{"4":4,"26":1},"place_type":"0","rack_locks":"1"},{"uid":"2585369","lat":"52.2449465","lng":"21.0012943","name":"Andersa - D\u0142uga","spot":"1","number":"9463","bikes":"13","bike_racks":"30","free_racks":"16","terminal_type":"7inch","bike_numbers":"24997,24602,28039,27525,27179,27009,26487,25838,25689,28970,96021,96020,96497","bike_types":{"4":13},"place_type":"0","rack_locks":"1"},{"uid":"2585370","lat":"52.2442666","lng":"21.0015893","name":"Marsza\u0142kowska - al. Solidarno\u015bci","spot":"1","number":"9464","bikes":"17","bike_racks":"30","free_racks":"13","terminal_type":"7inch","bike_numbers":"24903,24529,28360,27426,27141,27040,27039,26971,26395,26343,26079,25952,25659,25641,96496,29265,29231","bike_types":{"4":17},"place_type":"0","rack_locks":"1"},{"uid":"2585371","lat":"52.2431975","lng":"21.0016603","name":"Plac Bankowy - Ratusz","spot":"1","number":"9465","bikes":"18","bike_racks":"30","free_racks":"11","terminal_type":"7inch","bike_numbers":"24469,28035,27729,27679,27444,27370,27171,27160,26990,26328,26014,25437,25311,25203,96574,96448,96202,29165","bike_types":{"51":1,"4":17},"place_type":"0","rack_locks":"1"},{"uid":"2585373","lat":"52.2435719","lng":"21.0066801","name":"Senatorska - Biela\u0144ska","spot":"1","number":"9466","bikes":"10","bike_racks":"17","free_racks":"7","terminal_type":"7inch","bike_numbers":"24773,28454,27811,27801,27497,27327,27038,26842,25105,25030","bike_types":{"4":10},"place_type":"0","rack_locks":"1"},{"uid":"2585377","lat":"52.246314509834","lng":"21.0113042593","name":"Miodowa","spot":"1","number":"9467","bikes":"14","bike_racks":"24","free_racks":"9","terminal_type":"7inch","bike_numbers":"24795,24023,24011,27939,27802,27328,27199,26875,26622,25953,25606,25355,29102,96318","bike_types":{"4":12,"26":2},"place_type":"0","rack_locks":"1"},{"uid":"2585378","lat":"52.2435965","lng":"21.0140803","name":"Krakowskie Przedmie\u015bcie - Tr\u0119backa","spot":"1","number":"9468","bikes":"5","bike_racks":"14","free_racks":"5","terminal_type":"7inch","bike_numbers":"27849,25882,25753,96034,96284","bike_types":{"4":5},"place_type":"0","rack_locks":"1"},{"uid":"2585379","lat":"52.2465625","lng":"21.0174345","name":"Mariensztat","spot":"1","number":"9469","bikes":"10","bike_racks":"15","free_racks":"5","terminal_type":"7inch","bike_numbers":"24831,24482,24015,28507,28323,27397,27269,25945,25298,96048","bike_types":{"4":8,"51":1,"26":1},"place_type":"0","rack_locks":"1"},{"uid":"2585381","lat":"52.224934","lng":"20.945489","name":"Jana Kazimierza - Giz\u00f3w","spot":"1","number":"9471","bikes":"7","bike_racks":"13","free_racks":"5","terminal_type":"7inch","bike_numbers":"24834,28475,28397,27837,27226,26673,25156","bike_types":{"4":7},"place_type":"0","rack_locks":"1"},{"uid":"2585385","lat":"52.2299137","lng":"20.9508179","name":"Wolska - Elekcyjna","spot":"1","number":"9472","bikes":"17","bike_racks":"20","free_racks":"4","terminal_type":"7inch","bike_numbers":"24536,28286,27752,27504,27133,26545,26118,25972,25937,25691,25613,25425,25256,25088,25079,28808,96127","bike_types":{"4":17},"place_type":"0","rack_locks":"1"},{"uid":"2585387","lat":"52.237662392829","lng":"20.955492854118","name":"al. Prymasa Tysi\u0105clecia - G\u00f3rczewska","spot":"1","number":"9473","bikes":"13","bike_racks":"20","free_racks":"9","terminal_type":"7inch","bike_numbers":"24885,24466,28600,28320,27012,26796,26292,25873,25349,96016,96247,96131,96580","bike_types":{"4":12,"51":1},"place_type":"0","rack_locks":"1"},{"uid":"2585389","lat":"52.2333374","lng":"20.9652776","name":"Wolska - P\u0142ocka","spot":"1","number":"9474","bikes":"9","bike_racks":"15","free_racks":"6","terminal_type":"7inch","bike_numbers":"24953,24618,28561,27864,27057,26353,25571,25221,29447","bike_types":{"4":9},"place_type":"0","rack_locks":"1"},{"uid":"2585391","lat":"52.228522296173","lng":"20.969638824463","name":"Kasprzaka - Skierniewicka","spot":"1","number":"9475","bikes":"5","bike_racks":"21","free_racks":"15","terminal_type":"7inch","bike_numbers":"26755,26743,25023,29086,29451","bike_types":{"4":5},"place_type":"0","rack_locks":"1"},{"uid":"2585394","lat":"52.22898","lng":"20.97843","name":"Kasprzaka - Karolkowa","spot":"1","number":"9476","bikes":"10","bike_racks":"15","free_racks":"5","terminal_type":"7inch","bike_numbers":"24884,24638,24596,27973,26633,26006,96573,96270,96266,96253","bike_types":{"4":10},"place_type":"0","rack_locks":"1"},{"uid":"2585396","lat":"52.2328752","lng":"20.9805411","name":"Muzeum Powstania Warszawskiego","spot":"1","number":"9477","bikes":"1","bike_racks":"10","free_racks":"10","terminal_type":"7inch","bike_numbers":"24693","bike_types":{"4":1},"place_type":"0","rack_locks":"1"},{"uid":"2585398","lat":"52.22983","lng":"20.983123","name":"Metro Rondo Daszy\u0144skiego","spot":"1","number":"9478","bikes":"0","bike_racks":"26","free_racks":"25","terminal_type":"7inch","place_type":"0","rack_locks":"1","bike_numbers":null,"bike_types":[]},{"uid":"2585400","lat":"52.23145","lng":"20.98869","name":"Prosta - Wronia","spot":"1","number":"9479","bikes":"9","bike_racks":"15","free_racks":"6","terminal_type":"7inch","bike_numbers":"24987,28356,28325,27501,27463,27229,26412,26203,25619","bike_types":{"4":9},"place_type":"0","rack_locks":"1"},{"uid":"2585401","lat":"52.2373141","lng":"20.9888488","name":"\u017belazna - Ch\u0142odna","spot":"1","number":"9480","bikes":"0","bike_racks":"15","free_racks":"14","terminal_type":"7inch","place_type":"0","rack_locks":"1","bike_numbers":null,"bike_types":[]},{"uid":"2585402","lat":"52.2344946","lng":"20.9905117","name":"\u017belazna - Grzybowska","spot":"1","number":"9481","bikes":"8","bike_racks":"20","free_racks":"11","terminal_type":"7inch","bike_numbers":"24916,28459,27696,27441,26807,26695,96527,96316","bike_types":{"4":8},"place_type":"0","rack_locks":"1"},{"uid":"2585405","lat":"52.238666","lng":"20.9957314","name":"al. Jana Paw\u0142a II - Plac Mirowski","spot":"1","number":"9482","bikes":"9","bike_racks":"16","free_racks":"5","terminal_type":"7inch","bike_numbers":"27436,27420,26506,25897,25846,25726,29135,96022,63608","bike_types":{"4":8,"0":1},"place_type":"0","rack_locks":"1"},{"uid":"2585406","lat":"52.2357151","lng":"20.9966071","name":"al. Jana Paw\u0142a II - Grzybowska","spot":"1","number":"9483","bikes":"1","bike_racks":"23","free_racks":"21","terminal_type":"7inch","bike_numbers":"24867","bike_types":{"4":1},"place_type":"0","rack_locks":"1"},{"uid":"2585410","lat":"52.23958","lng":"21.00027","name":"Ptasia - Zimna","spot":"1","number":"9485","bikes":"11","bike_racks":"16","free_racks":"5","terminal_type":"7inch","bike_numbers":"24862,24036,27868,27264,27113,26512,26086,25462,96415,96166,29226","bike_types":{"4":10,"54":1},"place_type":"0","rack_locks":"1"},{"uid":"2585412","lat":"52.2336314","lng":"21.0028795","name":"Emilii Plater - \u015awi\u0119tokrzyska","spot":"1","number":"9486","bikes":"9","bike_racks":"26","free_racks":"17","terminal_type":"7inch","bike_numbers":"28715,28342,27266,26457,26127,26109,25204,96197,29177","bike_types":{"4":9},"place_type":"0","rack_locks":"1"},{"uid":"2585413","lat":"52.2358704","lng":"21.0037806","name":"Plac Grzybowski","spot":"1","number":"9487","bikes":"19","bike_racks":"26","free_racks":"6","terminal_type":"7inch","bike_numbers":"24996,24479,24476,28887,28581,28282,28153,28060,27600,26765,26225,26211,26058,25860,25432,25309,96439,96407,29164","bike_types":{"4":17,"51":2},"place_type":"0","rack_locks":"1"},{"uid":"2585416","lat":"52.2384853","lng":"21.0067552","name":"Marsza\u0142kowska - Kr\u00f3lewska","spot":"1","number":"9488","bikes":"4","bike_racks":"19","free_racks":"14","terminal_type":"7inch","bike_numbers":"24680,27016,25598,96169","bike_types":{"4":4},"place_type":"0","rack_locks":"1"},{"uid":"2585417","lat":"52.2364206","lng":"21.0072407","name":"Marsza\u0142kowska - Zielna","spot":"1","number":"9489","bikes":"22","bike_racks":"30","free_racks":"8","terminal_type":"7inch","bike_numbers":"24980,24570,24458,25009,28744,28702,27918,27776,27512,27405,27170,26843,26407,26103,26000,25998,25655,25344,25280,29649,96393,96115","bike_types":{"4":21,"51":1},"place_type":"0","rack_locks":"1"},{"uid":"2585420","lat":"52.2397008","lng":"21.0119292","name":"Plac Ma\u0142achowskiego","spot":"1","number":"9491","bikes":"13","bike_racks":"16","free_racks":"5","terminal_type":"7inch","bike_numbers":"24765,24564,28534,28303,27731,27231,26934,26772,26712,26526,26062,25830,96469","bike_types":{"4":13},"place_type":"0","rack_locks":"1"},{"uid":"2585422","lat":"52.2359114","lng":"21.0135654","name":"Plac Powsta\u0144c\u00f3w Warszawy","spot":"1","number":"9492","bikes":"6","bike_racks":"20","free_racks":"14","terminal_type":"7inch","bike_numbers":"27898,27045,25771,25543,96371,96156","bike_types":{"4":6},"place_type":"0","rack_locks":"1"},{"uid":"2585423","lat":"52.2393559","lng":"21.016603","name":"Krakowskie Przedmie\u015bcie - Traugutta","spot":"1","number":"9493","bikes":"19","bike_racks":"24","free_racks":"4","terminal_type":"7inch","bike_numbers":"25000,28379,28130,27857,27838,27745,27573,27158,27138,27017,26989,26790,26128,25477,25231,25191,25103,25012,96260","bike_types":{"4":19},"place_type":"0","rack_locks":"1"},{"uid":"2585429","lat":"52.238298","lng":"21.0184014","name":"Obo\u017ana - Kopernika","spot":"1","number":"9495","bikes":"14","bike_racks":"22","free_racks":"8","terminal_type":"7inch","bike_numbers":"24685,24545,28141,27386,27023,26886,26243,25764,25383,25155,25109,25063,96056,96041","bike_types":{"4":14},"place_type":"0","rack_locks":"1"},{"uid":"2585430","lat":"52.2418852","lng":"21.0241279","name":"Lipowa - Dobra","spot":"1","number":"9496","bikes":"16","bike_racks":"19","free_racks":"3","terminal_type":"7inch","bike_numbers":"24933,24745,28768,28405,28331,28259,27966,27390,26851,26125,29445,96423,96417,96155,29217,29216","bike_types":{"4":16},"place_type":"0","rack_locks":"1"},{"uid":"2585431","lat":"52.2413087","lng":"21.0281727","name":"Centrum Nauki Kopernik","spot":"1","number":"9497","bikes":"23","bike_racks":"30","free_racks":"7","terminal_type":"7inch","bike_numbers":"24965,24894,28391,28031,27665,27440,26947,26876,26691,26514,26219,26115,25948,25463,29027,28867,28883,29191,29172,29171,29162,29159,29157","bike_types":{"4":23},"place_type":"0","rack_locks":"1"},{"uid":"2585432","lat":"52.2264464","lng":"20.9837164","name":"Kolejowa","spot":"1","number":"9498","bikes":"11","bike_racks":"16","free_racks":"5","terminal_type":"7inch","bike_numbers":"27915,27829,27355,27277,26651,26435,25708,25539,25021,96443,96360","bike_types":{"4":11},"place_type":"0","rack_locks":"1"},{"uid":"2585433","lat":"52.22983","lng":"20.993996","name":"\u017belazna - Sienna","spot":"1","number":"9499","bikes":"21","bike_racks":"24","free_racks":"3","terminal_type":"7inch","bike_numbers":"24897,24844,24744,24684,24621,24616,28748,28384,28312,28103,27808,27785,27273,27130,26522,25871,25018,29126,28998,96398,29156","bike_types":{"4":20,"0":1},"place_type":"0","rack_locks":"1"},{"uid":"2585435","lat":"52.230201297582","lng":"20.999550819397","name":"al. Jana Paw\u0142a II - Z\u0142ota","spot":"1","number":"9500","bikes":"10","bike_racks":"16","free_racks":"9","terminal_type":"7inch","bike_numbers":"24736,24044,27749,27188,27186,25827,25730,25253,96484,29256","bike_types":{"4":9,"26":1},"place_type":"0","rack_locks":"1"},{"uid":"2585438","lat":"52.2309778","lng":"21.0036755","name":"Emilii Plater - Z\u0142ota","spot":"1","number":"9501","bikes":"26","bike_racks":"30","free_racks":"2","terminal_type":"7inch","bike_numbers":"24928,24751,24521,25003,28804,28646,28458,28341,28267,28025,27513,27437,27051,27004,26922,26889,26701,25960,25801,25643,25483,25242,96367,96248,96191,96134","bike_types":{"4":27},"place_type":"0","rack_locks":"1"},{"uid":"2585440","lat":"52.232816601853","lng":"21.006980538368","name":"Pa\u0142ac Kultury i Nauki","spot":"1","number":"9502","bikes":"9","bike_racks":"17","free_racks":"7","terminal_type":"7inch","bike_numbers":"24801,28602,28565,28096,27615,26205,25781,25681,96385","bike_types":{"4":9},"place_type":"0","rack_locks":"1"},{"uid":"2585442","lat":"52.232934","lng":"21.0101791","name":"Marsza\u0142kowska - Z\u0142ota","spot":"1","number":"9503","bikes":"7","bike_racks":"22","free_racks":"15","terminal_type":"7inch","bike_numbers":"24723,28006,27176,26518,25685,96456,96454","bike_types":{"4":7},"place_type":"0","rack_locks":"1"},{"uid":"2585445","lat":"52.231987","lng":"21.016092","name":"Bracka - Krucza","spot":"1","number":"9504","bikes":"19","bike_racks":"20","free_racks":"4","terminal_type":"7inch","bike_numbers":"24982,24949,24747,28769,28481,27584,26957,26688,26278,26252,26083,25782,25761,25676,29103,29455,96045,96466,96381","bike_types":{"4":19},"place_type":"0","rack_locks":"1"},{"uid":"2585446","lat":"52.2355713","lng":"21.0179642","name":"Nowy \u015awiat - Warecka","spot":"1","number":"9505","bikes":"22","bike_racks":"24","free_racks":"4","terminal_type":"7inch","bike_numbers":"24619,24506,28612,28457,28269,28152,27562,27404,26855,26144,25980,25949,25724,25671,25540,25524,25442,25367,29092,96058,29176,29203","bike_types":{"4":22},"place_type":"0","rack_locks":"1"},{"uid":"2585447","lat":"52.2337571","lng":"21.0202789","name":"Ga\u0142czy\u0144skiego - Foksal","spot":"1","number":"9506","bikes":"13","bike_racks":"24","free_racks":"10","terminal_type":"7inch","bike_numbers":"24905,24824,28154,27790,27413,26747,25464,25071,96432,29196,29195,29227,29218","bike_types":{"4":13},"place_type":"0","rack_locks":"1"},{"uid":"2585450","lat":"52.2375934","lng":"21.0256487","name":"Topiel - Tamka","spot":"1","number":"9507","bikes":"11","bike_racks":"20","free_racks":"9","terminal_type":"7inch","bike_numbers":"24940,27661,27365,26200,26002,25670,25456,29367,29121,96478,96475","bike_types":{"4":10,"0":1},"place_type":"0","rack_locks":"1"},{"uid":"2585452","lat":"52.2358752","lng":"21.0317323","name":"Solec - Jaracza","spot":"1","number":"9508","bikes":"19","bike_racks":"15","free_racks":"0","terminal_type":"7inch","bike_numbers":"24677,28655,28554,28460,28406,28265,28127,27634,27007,26872,26814,26363,26325,25935,25933,25913,25500,96528,96235","bike_types":{"4":19},"place_type":"0","rack_locks":"1"},{"uid":"2585453","lat":"52.2218874","lng":"20.9795301","name":"al. Jerozolimskie - Niemcewicza","spot":"1","number":"9509","bikes":"10","bike_racks":"19","free_racks":"9","terminal_type":"7inch","bike_numbers":"24883,28660,28311,28112,27711,27289,26495,26160,25778,96538","bike_types":{"4":10},"place_type":"0","rack_locks":"1"},{"uid":"2585455","lat":"52.2222155","lng":"20.9866293","name":"Ochota-Ratusz","spot":"1","number":"9510","bikes":"14","bike_racks":"23","free_racks":"8","terminal_type":"7inch","bike_numbers":"24880,24762,28731,27982,27778,27764,27549,26299,25031,29105,28963,96492,96279,96177","bike_types":{"4":14},"place_type":"0","rack_locks":"1"},{"uid":"2585457","lat":"52.2249718","lng":"20.9897661","name":"Plac Zawiszy","spot":"1","number":"9511","bikes":"14","bike_racks":"24","free_racks":"11","terminal_type":"7inch","bike_numbers":"28615,27949,27884,26917,26321,25723,25517,25449,25016,28912,29446,96550,96493,96588","bike_types":{"4":15},"place_type":"0","rack_locks":"1"},{"uid":"2585460","lat":"52.22626","lng":"20.9961309","name":"al. Jerozolimskie - Lindleya","spot":"1","number":"9512","bikes":"6","bike_racks":"15","free_racks":"8","terminal_type":"7inch","bike_numbers":"28404,25851,25468,25177,28838,96465","bike_types":{"4":6},"place_type":"0","rack_locks":"1"},{"uid":"2585462","lat":"52.2241455","lng":"20.9975244","name":"Lindleya - szpital","spot":"1","number":"9513","bikes":"25","bike_racks":"28","free_racks":"6","terminal_type":"7inch","bike_numbers":"28564,28563,28547,28493,28276,27796,27540,26916,26722,26662,26549,26356,26289,25978,25905,25800,25648,25419,29113,29456,28894,96024,96006,96100,96084","bike_types":{"4":25},"place_type":"0","rack_locks":"1"},{"uid":"2585464","lat":"52.227861","lng":"21.0008509","name":"Warszawa \u015ar\u00f3dmie\u015bcie WKD","spot":"1","number":"9514","bikes":"10","bike_racks":"18","free_racks":"8","terminal_type":"7inch","bike_numbers":"24927,24577,24543,28528,27521,26676,26402,25573,25315,29147","bike_types":{"4":10},"place_type":"0","rack_locks":"1"},{"uid":"2585466","lat":"52.2249555","lng":"21.0031664","name":"Oczki - WUM","spot":"1","number":"9515","bikes":"12","bike_racks":"19","free_racks":"7","terminal_type":"7inch","bike_numbers":"24720,24455,28089,27384,27213,27181,27071,26988,25226,96099,96095,29210","bike_types":{"4":11,"51":1},"place_type":"0","rack_locks":"1"},{"uid":"2585469","lat":"52.2290464","lng":"21.0054544","name":"Emilii Plater - Al. Jerozolimskie","spot":"1","number":"9517","bikes":"28","bike_racks":"30","free_racks":"4","terminal_type":"7inch","bike_numbers":"24489,28763,28734,28712,27905,27844,27592,27489,27480,27146,27066,26730,26564,26439,26023,25745,25657,25639,25126,29007,28936,29364,25624,28846,28841,96181,29158,96579","bike_types":{"51":1,"4":27},"place_type":"0","rack_locks":"1"},{"uid":"2585470","lat":"52.2259343","lng":"21.0067537","name":"Emilii Plater - Wsp\u00f3lna","spot":"1","number":"9518","bikes":"12","bike_racks":"15","free_racks":"4","terminal_type":"7inch","bike_numbers":"24510,28735,28380,28046,27142,26653,26135,25713,25568,25283,96046,29166","bike_types":{"4":12},"place_type":"0","rack_locks":"1"},{"uid":"2585472","lat":"52.23001","lng":"21.01088","name":"Metro Centrum","spot":"1","number":"9519","bikes":"23","bike_racks":"30","free_racks":"7","terminal_type":"7inch","bike_numbers":"24921,24876,24531,28747,28685,28681,28664,28624,28324,28155,27846,27296,27245,27090,26509,25966,25963,29345,96059,96540,96531,96449,96263","bike_types":{"4":23},"place_type":"0","rack_locks":"1"},{"uid":"2585473","lat":"52.229347019086","lng":"21.011314988136","name":"Marsza\u0142kowska - Al. Jerozolimskie","spot":"1","number":"9520","bikes":"18","bike_racks":"20","free_racks":"2","terminal_type":"7inch","bike_numbers":"24739,24622,24022,24005,28136,27921,27869,27767,26585,26174,25932,25717,25304,28865,96515,96507,96087,96082","bike_types":{"4":16,"26":2},"place_type":"0","rack_locks":"1"},{"uid":"2585476","lat":"52.230418150276","lng":"21.013610959053","name":"al. Jerozolimskie - rejon Rotundy","spot":"1","number":"9521","bikes":"17","bike_racks":"24","free_racks":"9","terminal_type":"7inch","bike_numbers":"24948,28148,27693,26704,26665,26658,26256,26085,25572,25310,29448,28857,28914,28918,96554,96534,96214","bike_types":{"4":17},"place_type":"0","rack_locks":"1"},{"uid":"2585477","lat":"52.2262882","lng":"21.0135705","name":"Marsza\u0142kowska - Ho\u017ca","spot":"1","number":"9522","bikes":"2","bike_racks":"15","free_racks":"13","terminal_type":"7inch","bike_numbers":"24706,27059","bike_types":{"4":2},"place_type":"0","rack_locks":"1"},{"uid":"2585492","lat":"52.2282923","lng":"21.0178542","name":"Krucza - Wsp\u00f3lna","spot":"1","number":"9523","bikes":"2","bike_racks":"28","free_racks":"27","terminal_type":"7inch","bike_numbers":"28307,25481","bike_types":{"4":2},"place_type":"0","rack_locks":"1"},{"uid":"2585684","lat":"52.23144","lng":"21.0213036","name":"Rondo de Gaulle'a","spot":"1","number":"9524","bikes":"8","bike_racks":"22","free_racks":"14","terminal_type":"7inch","bike_numbers":"24925,24714,24021,27453,26800,25035,96081,29174","bike_types":{"4":7,"26":1},"place_type":"0","rack_locks":"1"},{"uid":"2585694","lat":"52.2278487","lng":"21.0235084","name":"Plac Trzech Krzy\u017cy","spot":"1","number":"9525","bikes":"8","bike_racks":"23","free_racks":"15","maintenance":"1","terminal_type":"7inch","bike_numbers":"24716,28317,27387,27082,26329,26148,25327,29211","bike_types":{"4":8},"place_type":"0","rack_locks":"1"},{"uid":"2585695","lat":"52.23324","lng":"21.0261179","name":"Smolna - PKP Powi\u015ble","spot":"1","number":"9526","bikes":"5","bike_racks":"18","free_racks":"13","terminal_type":"7inch","bike_numbers":"28650,28052,27572,26603,25925","bike_types":{"4":5},"place_type":"0","rack_locks":"1"},{"uid":"2585699","lat":"52.2340191","lng":"21.0300328","name":"Herberta - PKP Powi\u015ble","spot":"1","number":"9527","bikes":"31","bike_racks":"26","free_racks":"5","terminal_type":"7inch","bike_numbers":"24973,24888,24875,24859,24683,24665,24459,28639,28616,28517,28257,28139,27757,27579,27486,27418,27209,26596,26573,25532,25299,25132,29106,29554,28888,96304,96193,96172,29168,29153,96589","bike_types":{"4":30,"51":1},"place_type":"0","rack_locks":"1"},{"uid":"2585704","lat":"52.2347879","lng":"21.0340991","name":"Solec - al. 3 Maja","spot":"1","number":"9528","bikes":"22","bike_racks":"24","free_racks":"2","terminal_type":"7inch","bike_numbers":"24827,24648,24497,28732,27968,27658,27228,26885,26320,26187,26183,26040,26007,25911,25798,25732,25618,25159,29080,28995,96137,96080","bike_types":{"4":21,"51":1},"place_type":"0","rack_locks":"1"},{"uid":"2585708","lat":"52.2301405","lng":"21.0303694","name":"Ksi\u0105\u017c\u0119ca - Rozbrat","spot":"1","number":"9529","bikes":"14","bike_racks":"15","free_racks":"1","terminal_type":"7inch","bike_numbers":"24991,24870,28750,27967,27695,26579,26516,26124,25525,25342,25188,29091,29063,29648","bike_types":{"4":14},"place_type":"0","rack_locks":"1"},{"uid":"2585711","lat":"52.2172177","lng":"20.9713608","name":"Szcz\u0119\u015bliwicka - APS","spot":"1","number":"9530","bikes":"23","bike_racks":"22","free_racks":"0","terminal_type":"7inch","bike_numbers":"24976,28446,28310,28253,28023,27642,27084,26923,26736,26092,26091,25895,25707,25697,25563,25254,25170,25082,96498,96178,96118,29225,29224","bike_types":{"4":23},"place_type":"0","rack_locks":"1"},{"uid":"2585712","lat":"52.2179474","lng":"20.9775567","name":"Kopi\u0144ska - Bia\u0142obrzeska","spot":"1","number":"9531","bikes":"11","bike_racks":"15","free_racks":"4","terminal_type":"7inch","bike_numbers":"24891,27645,27398,26786,26675,25733,25347,25094,29458,96354,29220","bike_types":{"4":11},"place_type":"0","rack_locks":"1"},{"uid":"2585714","lat":"52.2178554","lng":"20.9828138","name":"Plac Narutowicza","spot":"1","number":"9532","bikes":"28","bike_racks":"30","free_racks":"2","terminal_type":"7inch","bike_numbers":"24630,28449,28408,28279,27740,27669,27047,26846,26745,26674,26655,26552,26490,26385,26030,25969,25939,25634,29128,96026,96365,96319,96275,96167,96164,96121,96092,96083","bike_types":{"4":27,"0":1},"place_type":"0","rack_locks":"1"},{"uid":"2585716","lat":"52.216641","lng":"20.9879476","name":"Raszy\u0144ska - Wawelska","spot":"1","number":"9533","bikes":"3","bike_racks":"12","free_racks":"8","terminal_type":"7inch","bike_numbers":"27368,25559,25218","bike_types":{"4":4},"place_type":"0","rack_locks":"1"},{"uid":"2585717","lat":"52.2191029","lng":"20.9890149","name":"Raszy\u0144ska - Filtrowa","spot":"1","number":"9534","bikes":"21","bike_racks":"18","free_racks":"1","terminal_type":"7inch","bike_numbers":"24908,28632,28364,28330,27952,27774,27145,26874,26837,26583,26525,26039,25920,25854,25369,25300,29344,28778,96447,96437,96150","bike_types":{"4":21},"place_type":"0","rack_locks":"1"},{"uid":"2585720","lat":"52.220676","lng":"21.0045554","name":"al. Niepodleg\u0142o\u015bci - Nowowiejska","spot":"1","number":"9535","bikes":"14","bike_racks":"30","free_racks":"13","terminal_type":"7inch","bike_numbers":"24961,28700,28654,28417,27499,27156,27022,26586,26244,25302,25279,28949,96009,24055","bike_types":{"4":14,"26":1},"place_type":"0","rack_locks":"1"},{"uid":"2585721","lat":"52.2174693","lng":"21.0056537","name":"Kaczy\u0144skiego - al. Niepodleg\u0142o\u015bci","spot":"1","number":"9536","bikes":"8","bike_racks":"16","free_racks":"8","terminal_type":"7inch","bike_numbers":"28764,27165,26668,26531,26246,29110,96271,96204","bike_types":{"4":8},"place_type":"0","rack_locks":"1"},{"uid":"2585722","lat":"52.2226831","lng":"21.0081097","name":"Noakowskiego - Koszykowa","spot":"1","number":"9537","bikes":"14","bike_racks":"24","free_racks":"10","terminal_type":"7inch","bike_numbers":"24609,28695,28008,27881,27813,27734,27343,26920,25501,25372,25134,29431,96060,96408","bike_types":{"4":14},"place_type":"0","rack_locks":"1"},{"uid":"2585724","lat":"52.219916","lng":"21.0116824","name":"Plac Politechniki","spot":"1","number":"9538","bikes":"4","bike_racks":"27","free_racks":"23","terminal_type":"7inch","bike_numbers":"28365,26930,26733,25129","bike_types":{"4":4},"place_type":"0","rack_locks":"1"},{"uid":"2585727","lat":"52.223503","lng":"21.0128519","name":"Pozna\u0144ska - Zesp\u00f3\u0142 Szk\u00f3\u0142 Gastronomicznych","spot":"1","number":"9539","bikes":"13","bike_racks":"18","free_racks":"5","terminal_type":"7inch","bike_numbers":"28630,28537,28032,28027,27406,27036,26513,26481,25872,96520,29248,29244,96586","bike_types":{"4":13},"place_type":"0","rack_locks":"1"},{"uid":"2585728","lat":"52.2174857","lng":"21.0142949","name":"Rondo Jazdy Polskiej","spot":"1","number":"9540","bikes":"2","bike_racks":"24","free_racks":"22","terminal_type":"7inch","bike_numbers":"27317,26919","bike_types":{"4":2},"place_type":"0","rack_locks":"1"},{"uid":"2585729","lat":"52.2197435","lng":"21.0157353","name":"Metro Politechnika - Nowowiejska","spot":"1","number":"9541","bikes":"2","bike_racks":"18","free_racks":"17","terminal_type":"7inch","bike_numbers":"26725,25041","bike_types":{"4":1},"place_type":"0","rack_locks":"1"},{"uid":"2585731","lat":"52.2197681","lng":"21.0172775","name":"Plac Zbawiciela","spot":"1","number":"9542","bikes":"7","bike_racks":"12","free_racks":"5","terminal_type":"7inch","bike_numbers":"25004,25001,27408,27131,29073,29026,28997","bike_types":{"4":7},"place_type":"0","rack_locks":"1"},{"uid":"2585735","lat":"52.2229427","lng":"21.0158211","name":"Plac Konstytucji","spot":"1","number":"9543","bikes":"6","bike_racks":"30","free_racks":"23","terminal_type":"7inch","bike_numbers":"24913,28697,27594,26740,25476,96089","bike_types":{"4":6},"place_type":"0","rack_locks":"1"},{"uid":"2585737","lat":"52.2238152","lng":"21.0207859","name":"Mokotowska - Pi\u0119kna","spot":"1","number":"9544","bikes":"3","bike_racks":"20","free_racks":"18","terminal_type":"7inch","bike_numbers":"27795,27369,26640","bike_types":{"4":3},"place_type":"0","rack_locks":"1"},{"uid":"2585738","lat":"52.2200212","lng":"21.0256299","name":"Plac na Rozdro\u017cu","spot":"1","number":"9545","bikes":"17","bike_racks":"26","free_racks":"8","terminal_type":"7inch","bike_numbers":"24828,24518,24462,28723,28020,27809,27586,27557,26893,26865,26446,26216,25875,25438,25341,28813,96133","bike_types":{"4":16,"51":1},"place_type":"0","rack_locks":"1"},{"uid":"2585742","lat":"52.2249504","lng":"21.0268155","name":"Matejki - Wiejska","spot":"1","number":"9546","bikes":"9","bike_racks":"20","free_racks":"14","terminal_type":"7inch","bike_numbers":"24999,27561,26648,26563,26503,26172,25086,29347,96211","bike_types":{"4":9},"place_type":"0","rack_locks":"1"},{"uid":"2585747","lat":"52.2221129","lng":"21.0343873","name":"My\u015bliwiecka - Rozbrat","spot":"1","number":"9547","bikes":"31","bike_racks":"21","free_racks":"3","terminal_type":"7inch","bike_numbers":"24758,24722,24678,24501,28802,28656,28595,28004,27775,27637,27220,27087,27044,26994,26887,26850,26638,26493,26266,25788,25686,25668,25554,25441,25069,25043,29017,28805,96558,96386,96205","bike_types":{"4":31},"place_type":"0","rack_locks":"1"},{"uid":"2585748","lat":"52.2277124","lng":"21.0442955","name":"Port Czerniakowski","spot":"1","number":"9548","bikes":"17","bike_racks":"30","free_racks":"11","terminal_type":"7inch","bike_numbers":"24853,24766,28637,28116,27907,27515,26959,26888,26858,26645,26273,26096,25973,25595,25243,25051,29133","bike_types":{"4":16,"0":1},"place_type":"0","rack_locks":"1"},{"uid":"2585749","lat":"52.2109711","lng":"20.9759125","name":"Gr\u00f3jecka - Bitwy Warszawskiej 1920 roku","spot":"1","number":"9549","bikes":"8","bike_racks":"20","free_racks":"11","terminal_type":"7inch","bike_numbers":"24797,24485,27286,26099,25744,25183,29033,96158","bike_types":{"4":7,"51":1},"place_type":"0","rack_locks":"1"},{"uid":"2585750","lat":"52.2130296","lng":"20.9819985","name":"Pasteura - Winnicka - UW","spot":"1","number":"9550","bikes":"3","bike_racks":"24","free_racks":"21","terminal_type":"7inch","bike_numbers":"27771,26322,26210","bike_types":{"4":3},"place_type":"0","rack_locks":"1"},{"uid":"2585762","lat":"52.2107722","lng":"20.9847557","name":"Stefana Banacha - UW","spot":"1","number":"9551","bikes":"7","bike_racks":"29","free_racks":"20","terminal_type":"7inch","bike_numbers":"24584,28115,26184,26150,25273,60854,28849","bike_types":{"4":7},"place_type":"0","rack_locks":"1"},{"uid":"2585764","lat":"52.212671","lng":"21.003437","name":"Biblioteka Narodowa","spot":"1","number":"9552","bikes":"17","bike_racks":"24","free_racks":"6","terminal_type":"7inch","bike_numbers":"28355,27955,27853,27026,26826,26761,26742,26544,26294,25116,25046,29057,29552,96054,96414,96240,96576","bike_types":{"4":17},"place_type":"0","rack_locks":"1"},{"uid":"2585766","lat":"52.21691","lng":"21.01997","name":"Marsza\u0142kowska - Litewska","spot":"1","number":"9553","bikes":"7","bike_racks":"15","free_racks":"7","terminal_type":"7inch","bike_numbers":"24534,28080,27508,25929,25658,25346,96043","bike_types":{"4":7},"place_type":"0","rack_locks":"1"},{"uid":"2585770","lat":"52.2083858","lng":"20.9631103","name":"P\u0119tla Szcz\u0119\u015bliwice","spot":"1","number":"9554","bikes":"13","bike_racks":"19","free_racks":"5","terminal_type":"7inch","bike_numbers":"24771,24033,28473,28254,28192,28062,28040,27205,27064,25748,25173,96008,96003","bike_types":{"4":12,"26":1},"place_type":"0","rack_locks":"1"},{"uid":"2585771","lat":"52.206153650625","lng":"20.970287919044","name":"Dickensa - Geodet\u00f3w","spot":"1","number":"9555","bikes":"18","bike_racks":"16","free_racks":"0","terminal_type":"7inch","bike_numbers":"24924,24012,27477,27162,26766,26749,26696,26612,26561,26437,26026,25392,25168,29644,25626,96476,96112,29160","bike_types":{"4":17,"26":1},"place_type":"0","rack_locks":"1"},{"uid":"2585772","lat":"52.205361371875","lng":"20.984664559364","name":"\u017bwirki i Wigury - Ksi\u0119cia Trojdena","spot":"1","number":"9556","bikes":"14","bike_racks":"17","free_racks":"6","terminal_type":"7inch","bike_numbers":"28291,28190,28111,28034,27399,27008,26962,26756,25992,25084,28840,28895,96255,96105","bike_types":{"4":14},"place_type":"0","rack_locks":"1"},{"uid":"2585774","lat":"52.205801893754","lng":"20.998928546906","name":"Rakowiecka - \u015aw. A. Boboli","spot":"1","number":"9557","bikes":"7","bike_racks":"17","free_racks":"10","terminal_type":"7inch","bike_numbers":"24850,24620,28049,26560,26178,25516,96057","bike_types":{"4":7},"place_type":"0","rack_locks":"1"},{"uid":"2585776","lat":"52.209916","lng":"21.0067794","name":"al. Niepodleg\u0142o\u015bci - Batorego","spot":"1","number":"9558","bikes":"31","bike_racks":"26","free_racks":"0","terminal_type":"7inch","bike_numbers":"24951,24806,24599,24556,24542,24475,24020,28667,28540,28038,27129,27093,27011,26717,26618,26580,26497,25878,25863,25808,25714,25244,25145,28890,96394,96362,96328,96324,96243,96176,96148","bike_types":{"4":29,"51":1,"26":1},"place_type":"0","rack_locks":"1"},{"uid":"2585779","lat":"52.2132375","lng":"21.0210568","name":"Plac Unii Lubelskiej","spot":"1","number":"9559","bikes":"5","bike_racks":"24","free_racks":"16","terminal_type":"7inch","bike_numbers":"28332,27705,27288,26720,25493","bike_types":{"4":5},"place_type":"0","rack_locks":"1"},{"uid":"2585781","lat":"52.2027557","lng":"20.9508951","name":"W\u0142odarzewska - Maszynowa","spot":"1","number":"9560","bikes":"3","bike_racks":"18","free_racks":"14","terminal_type":"7inch","bike_numbers":"24780,27819,24050","bike_types":{"4":2,"26":1},"place_type":"0","rack_locks":"1"},{"uid":"2585782","lat":"52.2017647","lng":"20.9820897","name":"Sanocka - Pruszkowska","spot":"1","number":"9561","bikes":"17","bike_racks":"15","free_racks":"0","terminal_type":"7inch","bike_numbers":"28652,26995,26975,26895,26894,26793,26204,25806,25118,29134,28798,28830,96370,96262,96208,29207,29223","bike_types":{"4":17},"place_type":"0","rack_locks":"1"},{"uid":"2585785","lat":"52.1981365","lng":"20.9833717","name":"\u017bwirki i Wigury - Rac\u0142awicka","spot":"1","number":"9562","bikes":"8","bike_racks":"18","free_racks":"7","terminal_type":"7inch","bike_numbers":"24670,24563,26898,26890,25989,25359,29372,96468","bike_types":{"4":8},"place_type":"0","rack_locks":"1"},{"uid":"2585787","lat":"52.20177","lng":"20.99969","name":"Wo\u0142oska - Kulskiego","spot":"1","number":"9563","bikes":"2","bike_racks":"15","free_racks":"13","terminal_type":"7inch","bike_numbers":"25667,25412","bike_types":{"4":2},"place_type":"0","rack_locks":"1"},{"uid":"2585788","lat":"52.2042638","lng":"21.014428","name":"Madali\u0144skiego - Kazimierzowska","spot":"1","number":"9564","bikes":"12","bike_racks":"24","free_racks":"13","terminal_type":"7inch","bike_numbers":"24837,24664,28156,27597,27529,27329,26587,26072,25938,25682,25072,96485","bike_types":{"4":12},"place_type":"0","rack_locks":"1"},{"uid":"2585789","lat":"52.2055175","lng":"21.0231033","name":"Pu\u0142awska - Dworkowa","spot":"1","number":"9565","bikes":"21","bike_racks":"19","free_racks":"6","terminal_type":"7inch","bike_numbers":"24571,24526,24471,27926,27815,27447,27410,27374,27362,27189,27132,26999,26982,26284,26218,26077,25837,25720,29081,96523,96246","bike_types":{"4":20,"51":1},"place_type":"0","rack_locks":"1"},{"uid":"2585790","lat":"52.2071756","lng":"21.0312643","name":"Belwederska - Gagarina","spot":"1","number":"9566","bikes":"25","bike_racks":"30","free_racks":"5","terminal_type":"7inch","bike_numbers":"24911,28903,28713,28521,27878,27568,27555,27088,27000,26591,26145,26069,25990,25914,25864,25760,25664,25472,25258,25250,25032,25027,28924,28916,96387","bike_types":{"4":25},"place_type":"0","rack_locks":"1"},{"uid":"2585791","lat":"52.2074193","lng":"21.0479621","name":"Czerniakowska - Gagarina","spot":"1","number":"9567","bikes":"46","bike_racks":"25","free_racks":"0","terminal_type":"7inch","bike_numbers":"24974,24854,24811,24782,24767,24754,24655,24645,28546,28429,27932,27866,27826,27660,27641,27510,27483,27391,27302,26710,26690,26615,26232,26201,26167,26102,26042,25589,25523,25484,25454,25354,25212,25172,25026,29083,29362,28825,96033,63613,96452,96426,96303,96225,29192,29222","bike_types":{"4":46},"place_type":"0","rack_locks":"1"},{"uid":"2585794","lat":"52.1938131","lng":"20.9914431","name":"Etiudy Rewolucyjnej - Mi\u0105czy\u0144ska","spot":"1","number":"9568","bikes":"21","bike_racks":"18","free_racks":"3","terminal_type":"7inch","bike_numbers":"24775,24726,24569,28820,28707,27957,27536,27471,27125,26510,26382,25663,25660,25439,25418,25194,25178,25059,96254,96126,29186","bike_types":{"4":21},"place_type":"0","rack_locks":"1"},{"uid":"2585799","lat":"52.1994156","lng":"21.0121384","name":"Metro Rac\u0142awicka","spot":"1","number":"9570","bikes":"7","bike_racks":"30","free_racks":"22","terminal_type":"7inch","bike_numbers":"24956,28551,28409,27798,27225,26196,25015","bike_types":{"4":7},"place_type":"0","rack_locks":"1"},{"uid":"2585800","lat":"52.199505","lng":"21.0240975","name":"Pu\u0142awska - Dolna","spot":"1","number":"9571","bikes":"11","bike_racks":"18","free_racks":"6","terminal_type":"7inch","bike_numbers":"24627,24590,28752,28582,27772,27309,26378,25749,25408,25375,96472","bike_types":{"4":12},"place_type":"0","rack_locks":"1"},{"uid":"2585802","lat":"52.2014754","lng":"21.0360047","name":"Sobieskiego - Che\u0142mska","spot":"1","number":"9572","bikes":"33","bike_racks":"15","free_racks":"0","terminal_type":"7inch","bike_numbers":"24873,24868,24700,24696,24671,24043,24039,24006,28819,28722,28071,28068,28047,27959,27668,27605,27582,27395,27392,27319,26831,26264,26073,25986,25762,25701,25488,29454,29129,29137,28864,28988,96038","bike_types":{"4":28,"26":3,"0":2},"place_type":"0","rack_locks":"1"},{"uid":"2585804","lat":"52.1998446","lng":"21.05095","name":"Czerniakowska - ZUS","spot":"1","number":"9573","bikes":"11","bike_racks":"15","free_racks":"4","terminal_type":"7inch","bike_numbers":"24601,28728,28030,27496,26479,25067,25061,96457,96369,96344,96276","bike_types":{"4":11},"place_type":"0","rack_locks":"1"},{"uid":"2585807","lat":"52.1916776","lng":"20.8689688","name":"PKP Ursus-Nied\u017awiadek","spot":"1","number":"9574","bikes":"13","bike_racks":"15","free_racks":"2","terminal_type":"7inch","bike_numbers":"24737,28290,28209,28195,28054,27598,27237,26977,26290,26257,28921,29452,96139","bike_types":{"4":13},"place_type":"0","rack_locks":"1"},{"uid":"2585808","lat":"52.1960469","lng":"20.8849347","name":"PKP Ursus","spot":"1","number":"9575","bikes":"6","bike_racks":"16","free_racks":"9","terminal_type":"7inch","bike_numbers":"24839,24016,28122,27485,26805,28824","bike_types":{"4":5,"26":1},"place_type":"0","rack_locks":"1"},{"uid":"2585809","lat":"52.1869936","lng":"20.8906478","name":"Sosnkowskiego - OSiR Ursus","spot":"1","number":"9576","bikes":"13","bike_racks":"15","free_racks":"3","terminal_type":"7inch","bike_numbers":"24932,24576,28704,28336,28037,27247,27217,27139,27118,25786,28961,96280,96135","bike_types":{"4":13},"place_type":"0","rack_locks":"1"},{"uid":"2585811","lat":"52.2005548","lng":"20.8937538","name":"Ursus-Ratusz","spot":"1","number":"9577","bikes":"15","bike_racks":"15","free_racks":"0","terminal_type":"7inch","bike_numbers":"24866,24541,28905,28263,27509,27116,27006,26859,26852,26602,26089,25924,25165,28880,96116","bike_types":{"4":15},"place_type":"0","rack_locks":"1"},{"uid":"2585814","lat":"52.1906376","lng":"20.8999443","name":"Skoroszewska - Prystora","spot":"1","number":"9578","bikes":"12","bike_racks":"17","free_racks":"4","terminal_type":"7inch","bike_numbers":"28387,28258,28211,27825,27539,27348,25794,25189,25040,96410,96403,96309","bike_types":{"4":12},"place_type":"0","rack_locks":"1"},{"uid":"2585817","lat":"52.1882609","lng":"20.9603771","name":"G\u0142adka - OSiR W\u0142ochy","spot":"1","number":"9579","bikes":"4","bike_racks":"16","free_racks":"11","terminal_type":"7inch","bike_numbers":"28570,28110,26778,25542","bike_types":{"4":4},"place_type":"0","rack_locks":"1"},{"uid":"2585820","lat":"52.2056441","lng":"20.9159142","name":"PKP W\u0142ochy","spot":"1","number":"9580","bikes":"9","bike_racks":"17","free_racks":"8","terminal_type":"7inch","bike_numbers":"24935,24724,28591,28491,27377,27092,29067,96422,29173","bike_types":{"4":9},"place_type":"0","rack_locks":"1"},{"uid":"2585821","lat":"52.2012157","lng":"20.9353145","name":"al. Jerozolimskie - Popularna","spot":"1","number":"9581","bikes":"5","bike_racks":"17","free_racks":"10","terminal_type":"7inch","bike_numbers":"28135,27624,26715,25117,28848","bike_types":{"51":1,"4":5},"place_type":"0","rack_locks":"1"},{"uid":"2585824","lat":"52.1924709","lng":"20.9596664","name":"W\u0142ochy-Ratusz","spot":"1","number":"9582","bikes":"6","bike_racks":"14","free_racks":"7","terminal_type":"7inch","bike_numbers":"25962,25874,28879,96542,96152,29188","bike_types":{"4":6},"place_type":"0","rack_locks":"1"},{"uid":"2585825","lat":"52.1946888","lng":"20.9667823","name":"1 Sierpnia - DK W\u0142ochy","spot":"1","number":"9583","bikes":"13","bike_racks":"15","free_racks":"5","terminal_type":"7inch","bike_numbers":"24753,24666,24562,28708,28572,26498,26399,26164,26001,25859,25420,25373,96123","bike_types":{"4":13},"place_type":"0","rack_locks":"1"},{"uid":"2585827","lat":"52.1888962","lng":"21.0175887","name":"Metro Wierzbno","spot":"1","number":"9584","bikes":"12","bike_racks":"20","free_racks":"5","terminal_type":"7inch","bike_numbers":"24625,27593,27128,26728,26436,26333,26112,25844,25692,25199,25011,29204","bike_types":{"4":12},"place_type":"0","rack_locks":"1"},{"uid":"2585830","lat":"52.18648","lng":"21.02538","name":"Pu\u0142awska - Idzikowskiego","spot":"1","number":"9585","bikes":"4","bike_racks":"17","free_racks":"13","terminal_type":"7inch","bike_numbers":"24593,28123,27759,25102","bike_types":{"4":4},"place_type":"0","rack_locks":"1"},{"uid":"2585835","lat":"52.1882861","lng":"21.0498825","name":"Sobieskiego - Mangalia","spot":"1","number":"9586","bikes":"16","bike_racks":"15","free_racks":"7","terminal_type":"7inch","bike_numbers":"28759,27951,27891,27246,27244,27112,26983,26190,26146,25823,25410,25395,25213,28872,28975,96562","bike_types":{"4":16},"place_type":"0","rack_locks":"1"},{"uid":"2585837","lat":"52.178777","lng":"21.0016387","name":"Wo\u0142oska - Marynarska","spot":"1","number":"9588","bikes":"15","bike_racks":"26","free_racks":"11","terminal_type":"7inch","bike_numbers":"24719,28869,27964,27913,27909,27409,26864,26367,25814,25314,25233,25098,28981,28946,28868","bike_types":{"4":15},"place_type":"0","rack_locks":"1"},{"uid":"2585838","lat":"52.1800882","lng":"21.0207403","name":"al. Niepodleg\u0142o\u015bci - al. Wilanowska","spot":"1","number":"9589","bikes":"8","bike_racks":"22","free_racks":"14","terminal_type":"7inch","bike_numbers":"28520,27685,27382,27153,26311,25847,25331,29387","bike_types":{"4":8},"place_type":"0","rack_locks":"1"},{"uid":"2585839","lat":"52.1779163","lng":"21.049562","name":"P\u0119tla Stegny","spot":"1","number":"9590","bikes":"23","bike_racks":"23","free_racks":"2","terminal_type":"7inch","bike_numbers":"24887,24672,24652,28617,28477,28109,27545,27306,26711,26652,26555,26409,26137,25955,25594,25546,25498,25301,25251,29024,28940,96473,96215","bike_types":{"4":23},"place_type":"0","rack_locks":"1"},{"uid":"2585843","lat":"52.1818472","lng":"21.0562822","name":"Sobieskiego - \u015bw. Bonifacego","spot":"1","number":"9591","bikes":"21","bike_racks":"22","free_racks":"3","terminal_type":"7inch","bike_numbers":"24995,24702,28892,28622,28598,28018,27787,27674,26883,26871,26610,26422,26418,26309,25378,25296,25234,25232,25627,28900,96039","bike_types":{"4":21},"place_type":"0","rack_locks":"1"},{"uid":"2585844","lat":"52.1702836","lng":"20.9959132","name":"P\u0119tla Bokserska","spot":"1","number":"9592","bikes":"13","bike_racks":"15","free_racks":"2","terminal_type":"7inch","bike_numbers":"24954,24453,28666,28418,28400,28048,27346,26863,26714,26071,26019,25940,25491","bike_types":{"4":12,"51":1},"place_type":"0","rack_locks":"1"},{"uid":"2585846","lat":"52.1710498","lng":"21.0059144","name":"Gintrowskiego - Gotarda","spot":"1","number":"9593","bikes":"25","bike_racks":"15","free_racks":"3","terminal_type":"7inch","bike_numbers":"24985,24802,24718,28644,28510,28504,28443,28371,28354,28256,27855,27430,27143,26780,26454,26386,26306,26208,26113,26052,26046,25988,25508,29055,28933","bike_types":{"4":25},"place_type":"0","rack_locks":"1"},{"uid":"2585848","lat":"52.174435","lng":"21.0128814","name":"al. Lotnik\u00f3w - Kaczmarskiego","spot":"1","number":"9594","bikes":"16","bike_racks":"30","free_racks":"14","terminal_type":"7inch","bike_numbers":"24920,28621,28412,28076,27880,27656,27621,27461,26507,25833,25584,25334,25124,29096,29084,96383","bike_types":{"4":15},"place_type":"0","rack_locks":"1"},{"uid":"2585850","lat":"52.1733132","lng":"21.0257305","name":"Metro S\u0142u\u017cew","spot":"1","number":"9595","bikes":"14","bike_racks":"24","free_racks":"10","terminal_type":"7inch","bike_numbers":"24786,28377,28210,28088,28033,27718,26984,26434,26281,26051,26025,25758,25074,96486","bike_types":{"4":14},"place_type":"0","rack_locks":"1"},{"uid":"2585853","lat":"52.17343","lng":"21.03179","name":"Wa\u0142brzyska - Wr\u00f3bla","spot":"1","number":"9596","bikes":"21","bike_racks":"30","free_racks":"9","terminal_type":"7inch","bike_numbers":"24851,24546,24515,24038,28634,28580,28150,27706,27414,26914,26904,26639,26448,26280,25849,25576,25482,25460,29021,28906,96455","bike_types":{"4":20,"26":1},"place_type":"0","rack_locks":"1"},{"uid":"2585856","lat":"52.170135","lng":"21.0685748","name":"Jana III Sobieskiego - al. Wilanowska","spot":"1","number":"9597","bikes":"5","bike_racks":"15","free_racks":"12","terminal_type":"7inch","bike_numbers":"28159,25403,29646,96220,29170","bike_types":{"4":5},"place_type":"0","rack_locks":"1"},{"uid":"2585860","lat":"52.1655879","lng":"21.0839331","name":"al. Wilanowska - Przycz\u00f3\u0142kowa","spot":"1","number":"9598","bikes":"9","bike_racks":"16","free_racks":"8","terminal_type":"7inch","bike_numbers":"24778,28640,28345,28065,28059,27407,26687,26248,96289","bike_types":{"4":9},"place_type":"0","rack_locks":"1"},{"uid":"2585863","lat":"52.16479","lng":"21.10925","name":"Vogla - Syta","spot":"1","number":"9599","bikes":"9","bike_racks":"16","free_racks":"7","terminal_type":"7inch","bike_numbers":"24791,28497,27227,26389,26034,25790,25628,28810,28881","bike_types":{"4":9},"place_type":"0","rack_locks":"1"},{"uid":"2585868","lat":"52.1606257","lng":"21.0723245","name":"al. Rzeczypospolitej - Klimczaka","spot":"1","number":"9600","bikes":"25","bike_racks":"16","free_racks":"1","terminal_type":"7inch","bike_numbers":"24792,28901,28661,28513,28349,27923,27676,27095,26899,26857,26833,26708,26324,26230,25908,25898,25839,25795,25291,25024,25629,96004,96388,96175,96136","bike_types":{"4":25},"place_type":"0","rack_locks":"1"},{"uid":"2585871","lat":"52.1569168","lng":"21.0760903","name":"al. Rzeczypospolitej - Branickiego","spot":"1","number":"9601","bikes":"12","bike_racks":"16","free_racks":"4","terminal_type":"7inch","bike_numbers":"24970,28574,27945,27625,27618,26901,25885,25225,29060,29460,29131,96049","bike_types":{"4":11,"0":1},"place_type":"0","rack_locks":"1"},{"uid":"2585872","lat":"52.1593735","lng":"21.086449","name":"Przycz\u00f3\u0142kowa - Branickiego","spot":"1","number":"9602","bikes":"3","bike_racks":"16","free_racks":"12","terminal_type":"7inch","bike_numbers":"27241,25675,25494","bike_types":{"4":3},"place_type":"0","rack_locks":"1"},{"uid":"2585873","lat":"52.1618136","lng":"21.0277355","name":"Metro Ursyn\u00f3w II","spot":"1","number":"9603","bikes":"27","bike_racks":"30","free_racks":"3","terminal_type":"7inch","bike_numbers":"24697,24605,28803,28489,28433,28343,28338,28051,28010,27364,26873,26609,26532,26499,26403,26376,26304,26258,26180,26108,25556,25550,25489,25065,29035,28939,96251","bike_types":{"4":27},"place_type":"0","rack_locks":"1"},{"uid":"2585875","lat":"52.1622579","lng":"21.0280761","name":"Metro Ursyn\u00f3w I","spot":"1","number":"9604","bikes":"25","bike_racks":"30","free_racks":"12","terminal_type":"7inch","bike_numbers":"28645,28389,28376,27644,27613,27524,27495,27353,27276,27223,27192,27174,27104,27075,27027,26760,26707,25718,25649,25111,96053,96526,96282,96261,29184","bike_types":{"4":25},"place_type":"0","rack_locks":"1"},{"uid":"2585876","lat":"52.162401","lng":"21.0383811","name":"Jastrz\u0119bowskiego - SGGW","spot":"1","number":"9605","bikes":"18","bike_racks":"28","free_racks":"9","terminal_type":"7inch","bike_numbers":"24748,24709,28505,28361,28359,27927,27851,27741,27648,27352,26935,26845,26781,26713,26364,25796,25326,29346","bike_types":{"4":18},"place_type":"0","rack_locks":"1"},{"uid":"2585880","lat":"52.1557534","lng":"21.0232776","name":"Romera - Pieciolinii","spot":"1","number":"9606","bikes":"8","bike_racks":"16","free_racks":"9","terminal_type":"7inch","bike_numbers":"28214,27987,27806,27583,27055,28968,96552,96157","bike_types":{"4":8},"place_type":"0","rack_locks":"1"},{"uid":"2585883","lat":"52.1568674","lng":"21.0338401","name":"Metro Stok\u0142osy","spot":"1","number":"9607","bikes":"20","bike_racks":"27","free_racks":"7","terminal_type":"7inch","bike_numbers":"24981,24892,24554,28613,28468,28144,27761,27243,26176,25850,25789,25665,25610,25582,25235,29064,29028,28847,96010,96338","bike_types":{"4":20},"place_type":"0","rack_locks":"1"},{"uid":"2585885","lat":"52.1572887","lng":"21.0440084","name":"Roso\u0142a - Ciszewskiego - SGGW","spot":"1","number":"9608","bikes":"12","bike_racks":"30","free_racks":"18","terminal_type":"7inch","bike_numbers":"24708,24517,28696,28092,27739,26646,26466,26282,25319,29040,29450,28889","bike_types":{"4":12},"place_type":"0","rack_locks":"1"},{"uid":"2585888","lat":"52.1521429","lng":"21.0181224","name":"Pu\u0142awska - Pileckiego","spot":"1","number":"9609","bikes":"24","bike_racks":"22","free_racks":"2","terminal_type":"7inch","bike_numbers":"24690,24624,24613,24519,28445,28413,28216,28001,27896,27639,27635,27283,26664,26637,26626,26053,25817,25495,25107,29114,29078,28807,28994,96106","bike_types":{"4":24},"place_type":"0","rack_locks":"1"},{"uid":"2585893","lat":"52.1495064","lng":"21.0332527","name":"Ciszewskiego - Pileckiego","spot":"1","number":"9610","bikes":"12","bike_racks":"22","free_racks":"10","terminal_type":"7inch","bike_numbers":"28298,27961,27428,27389,27373,27068,26350,26038,25890,25867,25272,25174","bike_types":{"4":12},"place_type":"0","rack_locks":"1"},{"uid":"2585894","lat":"52.1549453","lng":"21.0492977","name":"Roso\u0142a - Gandhi","spot":"1","number":"9611","bikes":"14","bike_racks":"22","free_racks":"8","terminal_type":"7inch","bike_numbers":"24895,28663,28466,28385,27988,27694,27599,27111,26574,26285,28811,96435,96399,96231","bike_types":{"4":14},"place_type":"0","rack_locks":"1"},{"uid":"2585897","lat":"52.1493105","lng":"21.0453361","name":"Metro Imielin","spot":"1","number":"9612","bikes":"18","bike_racks":"22","free_racks":"3","terminal_type":"7inch","bike_numbers":"24550,28749,28592,27919,27640,27053,27043,27025,26996,26557,26502,25345,25285,25185,25143,63628,96312,29275","bike_types":{"4":18},"place_type":"0","rack_locks":"1"},{"uid":"2585899","lat":"52.1522333","lng":"21.0563922","name":"Roso\u0142a - Weso\u0142a","spot":"1","number":"9613","bikes":"7","bike_racks":"23","free_racks":"16","terminal_type":"7inch","bike_numbers":"24544,28817,28604,26004,25010,29435,28827","bike_types":{"4":7},"place_type":"0","rack_locks":"1"},{"uid":"2585901","lat":"52.1427201","lng":"21.0383624","name":"Pileckiego - Alternatywy","spot":"1","number":"9614","bikes":"25","bike_racks":"30","free_racks":"4","terminal_type":"7inch","bike_numbers":"24886,28375,28140,27992,27823,27758,27698,27692,27211,27154,26945,26819,26494,26361,26345,26126,26094,25829,25561,25502,25426,25148,25068,96340,96226","bike_types":{"4":26},"place_type":"0","rack_locks":"1"},{"uid":"2585902","lat":"52.142735","lng":"21.0448131","name":"Dereniowa - P\u0142askowickiej","spot":"1","number":"9615","bikes":"19","bike_racks":"22","free_racks":"3","terminal_type":"7inch","bike_numbers":"24803,24540,28683,28503,28388,28366,28131,28081,28015,28002,27831,27719,27591,27588,26341,26114,25557,25274,28982","bike_types":{"4":19},"place_type":"0","rack_locks":"1"},{"uid":"2585904","lat":"52.1376039","lng":"21.0505531","name":"Stryje\u0144skich - Belgradzka","spot":"1","number":"9616","bikes":"13","bike_racks":"15","free_racks":"1","terminal_type":"7inch","bike_numbers":"24984,24860,28898,28261,28107,28013,27781,27537,27344,27117,25901,25818,96559","bike_types":{"4":13},"place_type":"0","rack_locks":"1"},{"uid":"2585905","lat":"52.1403909","lng":"21.0568187","name":"Metro Natolin","spot":"1","number":"9617","bikes":"21","bike_racks":"30","free_racks":"9","terminal_type":"7inch","bike_numbers":"24741,24715,24698,28327,28251,27890,27770,27032,26993,26589,26492,26344,25228,25153,28919,28877,28893,28983,96364,96356,96119","bike_types":{"4":21},"place_type":"0","rack_locks":"1"},{"uid":"2585906","lat":"52.1420749","lng":"21.0659905","name":"Belgradzka - Roso\u0142a","spot":"1","number":"9618","bikes":"15","bike_racks":"23","free_racks":"8","terminal_type":"7inch","bike_numbers":"24975,24669,28706,28698,28436,27925,27897,27578,27375,27304,26669,26504,26421,25490,60867","bike_types":{"4":15},"place_type":"0","rack_locks":"1"},{"uid":"2585908","lat":"52.1314333","lng":"21.0561562","name":"Stryje\u0144skich - W\u0105wozowa","spot":"1","number":"9619","bikes":"28","bike_racks":"23","free_racks":"3","terminal_type":"7inch","bike_numbers":"24691,24565,28483,28372,28221,27981,27585,27060,26818,26427,26212,26074,26070,25964,25954,25735,25636,25535,25514,25424,25266,25246,25236,25224,25045,29427,29141,96040","bike_types":{"4":27,"0":1},"place_type":"0","rack_locks":"1"},{"uid":"2585911","lat":"52.3326052","lng":"20.9418404","name":"Ordon\u00f3wny - \u015awiatowida","spot":"1","number":"9620","bikes":"18","bike_racks":"22","free_racks":"4","terminal_type":"7inch","bike_numbers":"24833,24743,28653,28628,28523,28101,27415,27167,26954,26844,26802,26763,26623,26060,25603,29045,28989,96481","bike_types":{"4":18},"place_type":"0","rack_locks":"1"},{"uid":"2585913","lat":"52.1310925","lng":"21.0654795","name":"Metro Kabaty","spot":"1","number":"9621","bikes":"3","bike_racks":"22","free_racks":"19","terminal_type":"7inch","bike_numbers":"28689,27882,29348","bike_types":{"4":3},"place_type":"0","rack_locks":"1"},{"uid":"2585916","lat":"52.1332642","lng":"21.0747962","name":"W\u0105wozowa - Roso\u0142a","spot":"1","number":"9622","bikes":"5","bike_racks":"18","free_racks":"12","terminal_type":"7inch","bike_numbers":"24703,27507,25981,25877,25447","bike_types":{"4":5},"place_type":"0","rack_locks":"1"},{"uid":"2585917","lat":"52.324116","lng":"21.05663","name":"Skarbka z G\u00f3r - Berensona","spot":"1","number":"9623","bikes":"13","bike_racks":"26","free_racks":"14","terminal_type":"7inch","bike_numbers":"28657,28587,28440,28350,28277,28090,28067,27821,27680,26817,25587,25146,29246","bike_types":{"4":13},"place_type":"0","rack_locks":"1"},{"uid":"2585919","lat":"52.3485329","lng":"20.9418336","name":"Aluzyjna - Tr\u0105by","spot":"1","number":"9624","bikes":"1","bike_racks":"16","free_racks":"15","terminal_type":"7inch","bike_numbers":"26847","bike_types":{"4":1},"place_type":"0","rack_locks":"1"},{"uid":"2585920","lat":"52.3226982","lng":"20.9448107","name":"\u015awiatowida - Mehoffera","spot":"1","number":"9625","bikes":"11","bike_racks":"16","free_racks":"4","terminal_type":"7inch","bike_numbers":"24950,28314,27986,27732,27587,27056,26967,25646,25506,29071,96372","bike_types":{"4":11},"place_type":"0","rack_locks":"1"},{"uid":"2585921","lat":"52.3212548","lng":"20.9477347","name":"Bia\u0142o\u0142\u0119cki O\u015brodek Sportu","spot":"1","number":"9626","bikes":"19","bike_racks":"30","free_racks":"10","terminal_type":"7inch","bike_numbers":"24814,24597,28606,28478,28426,28029,27895,27721,27519,27464,27412,27152,26928,26752,26489,26461,29555,29139,96480","bike_types":{"4":18,"0":1},"place_type":"0","rack_locks":"1"},{"uid":"2585922","lat":"52.3211272","lng":"20.9712964","name":"Bia\u0142o\u0142\u0119ka-Ratusz","spot":"1","number":"9627","bikes":"15","bike_racks":"19","free_racks":"4","terminal_type":"7inch","bike_numbers":"24900,28771,27970,27908,27359,27357,27168,26835,26759,25305,96258,96257,96249,96138,29181","bike_types":{"4":15},"place_type":"0","rack_locks":"1"},{"uid":"2585924","lat":"52.3132981","lng":"20.9655324","name":"My\u015bliborska - al. Kukli\u0144skiego","spot":"1","number":"9628","bikes":"18","bike_racks":"22","free_racks":"4","terminal_type":"7inch","bike_numbers":"28562,28524,28308,27902,27784,27748,27518,27481,27465,26614,26515,26287,25577,25091,29025,28850,96379,96199","bike_types":{"4":18},"place_type":"0","rack_locks":"1"},{"uid":"2585925","lat":"52.3031984","lng":"20.9891666","name":"Modli\u0144ska - \u017bera\u0144ska","spot":"1","number":"9629","bikes":"15","bike_racks":"30","free_racks":"15","terminal_type":"7inch","bike_numbers":"24849,28651,28533,27854,27704,27632,27259,26968,26678,26188,25092,25076,29125,96129,29254","bike_types":{"4":14,"0":1},"place_type":"0","rack_locks":"1"},{"uid":"2585926","lat":"52.3150181","lng":"21.0610807","name":"Skarbka z G\u00f3r - Magiczna","spot":"1","number":"9630","bikes":"23","bike_racks":"30","free_racks":"7","terminal_type":"7inch","bike_numbers":"24705,24573,28699,28619,28607,28583,28526,28373,27990,27538,27360,27279,27166,27115,27089,26881,26827,26768,26163,25376,25356,29130,96030","bike_types":{"4":22,"0":1},"place_type":"0","rack_locks":"1"},{"uid":"2585928","lat":"52.3000268","lng":"21.0425266","name":"P\u0119tla Br\u00f3dno - Podgrodzie","spot":"1","number":"9631","bikes":"12","bike_racks":"16","free_racks":"5","terminal_type":"7inch","bike_numbers":"24979,28484,27954,27914,26824,26616,26396,25821,29273,29243,29233,29230","bike_types":{"4":12},"place_type":"0","rack_locks":"1"},{"uid":"2585929","lat":"52.2939957","lng":"21.0272258","name":"Rembieli\u0144ska - Kondratowicza","spot":"1","number":"9632","bikes":"27","bike_racks":"23","free_racks":"0","terminal_type":"7inch","bike_numbers":"24794,25002,28691,28629,28542,28395,28268,28066,27687,27654,27546,27454,27294,26896,26600,26362,26129,26027,25807,29075,29144,96461,96124,96103,29179,29209,29235","bike_types":{"4":26,"0":1},"place_type":"0","rack_locks":"1"},{"uid":"2585931","lat":"52.2917236","lng":"21.0481189","name":"Targ\u00f3wek-Ratusz","spot":"1","number":"9633","bikes":"9","bike_racks":"22","free_racks":"12","terminal_type":"7inch","bike_numbers":"24676,28774,27341,27260,27086,26335,25815,25552,96146","bike_types":{"4":9},"place_type":"0","rack_locks":"1"},{"uid":"2585932","lat":"52.292208","lng":"21.0419554","name":"Kondratowicza - Chodecka","spot":"1","number":"9634","bikes":"20","bike_racks":"23","free_racks":"3","terminal_type":"7inch","bike_numbers":"24662,28151,27872,27835,27650,27487,27439,27249,26527,26459,26404,26221,25609,29046,96250,96218,29178,29245,29241,96577","bike_types":{"4":20},"place_type":"0","rack_locks":"1"},{"uid":"2585934","lat":"52.2925145","lng":"21.0573949","name":"Kondratowicza - Przy Grodzisku","spot":"1","number":"9635","bikes":"19","bike_racks":"18","free_racks":"0","terminal_type":"7inch","bike_numbers":"28766,28737,28688,28402,28278,28264,27717,27575,27206,27184,27106,26943,26430,25590,25381,28979,28990,29148,29229","bike_types":{"4":19},"place_type":"0","rack_locks":"1"},{"uid":"2585936","lat":"52.2878069","lng":"21.0213829","name":"Wysockiego - Poborza\u0144ska","spot":"1","number":"9636","bikes":"22","bike_racks":"23","free_racks":"5","terminal_type":"7inch","bike_numbers":"24600,28758,28095,28064,28016,27978,27574,27455,27300,27127,27122,26879,26758,26305,25928,25738,25601,25551,29112,29108,29043,29132","bike_types":{"4":21,"0":1},"place_type":"0","rack_locks":"1"},{"uid":"2585937","lat":"52.2885915","lng":"21.0310087","name":"Rembieli\u0144ska - Wyszogrodzka","spot":"1","number":"9637","bikes":"22","bike_racks":"30","free_racks":"7","terminal_type":"7inch","bike_numbers":"24552,28885,28873,28420,28394,28072,27929,27814,27742,27576,27498,27342,26122,25727,25101,28987,96396,96294,29281,29280,29253,29240","bike_types":{"4":22},"place_type":"0","rack_locks":"1"},{"uid":"2585938","lat":"52.2864841","lng":"21.0401998","name":"Chodecka - \u017buromi\u0144ska","spot":"1","number":"9638","bikes":"12","bike_racks":"15","free_racks":"3","terminal_type":"7inch","bike_numbers":"24606,28075,27800,27290,26854,26485,25567,29019,29003,96539,96430,29239","bike_types":{"4":12},"place_type":"0","rack_locks":"1"},{"uid":"2585939","lat":"52.281231017533","lng":"21.025852560997","name":"Wysockiego - Matki Teresy z Kalkuty","spot":"1","number":"9639","bikes":"12","bike_racks":"17","free_racks":"6","terminal_type":"7inch","bike_numbers":"24787,24761,28529,28352,27805,27511,26940,26567,26173,25997,25902,24498","bike_types":{"4":11,"51":1},"place_type":"0","rack_locks":"1"},{"uid":"2585941","lat":"52.2835693","lng":"21.0720858","name":"Blokowa - DK Zacisze","spot":"1","number":"9640","bikes":"20","bike_racks":"18","free_racks":"0","terminal_type":"7inch","bike_numbers":"24516,28658,28543,28280,27941,27862,27792,27788,27672,27443,27275,27024,26973,26956,26581,26484,25862,25161,29641,96132","bike_types":{"4":20},"place_type":"0","rack_locks":"1"},{"uid":"2585942","lat":"52.276259","lng":"21.0530748","name":"P\u0119tla Targ\u00f3wek","spot":"1","number":"9641","bikes":"13","bike_racks":"22","free_racks":"12","terminal_type":"7inch","bike_numbers":"28801,28568,28474,28321,27709,27493,26352,26181,25968,25404,96516,96325,29271","bike_types":{"4":13},"place_type":"0","rack_locks":"1"},{"uid":"2585943","lat":"52.27139","lng":"21.01566","name":"Jagiello\u0144ska - ALK","spot":"1","number":"9642","bikes":"18","bike_racks":"16","free_racks":"0","terminal_type":"7inch","bike_numbers":"24604,24523,28584,28569,28485,28218,28118,28074,27010,26143,25741,25700,25333,28917,96428,96298,29180,96583","bike_types":{"4":18},"place_type":"0","rack_locks":"1"},{"uid":"2585947","lat":"52.2694683","lng":"21.0499817","name":"Ossowskiego","spot":"1","number":"9644","bikes":"11","bike_racks":"17","free_racks":"7","terminal_type":"7inch","bike_numbers":"24695,27956,27367,26801,26767,26530,25351,25096,29030,28952,96203","bike_types":{"4":11},"place_type":"0","rack_locks":"1"},{"uid":"2585951","lat":"52.272602123161","lng":"21.063210368156","name":"Radzymi\u0144ska -Trocka","spot":"1","number":"9645","bikes":"15","bike_racks":"20","free_racks":"5","terminal_type":"7inch","bike_numbers":"24030,28138,27556,27284,27187,26936,26237,26032,25513,25507,29434,29120,96453,96329,29274","bike_types":{"26":1,"4":13,"0":1},"place_type":"0","rack_locks":"1"},{"uid":"2585953","lat":"52.27347","lng":"21.07698","name":"Bukowiecka - Zamkowa","spot":"1","number":"9646","bikes":"10","bike_racks":"15","free_racks":"7","terminal_type":"7inch","bike_numbers":"24487,28585,28000,27725,27137,26808,25985,25527,25269,25154","bike_types":{"51":1,"4":9},"place_type":"0","rack_locks":"1"},{"uid":"2585954","lat":"52.2668885","lng":"21.0585675","name":"Radzymi\u0144ska - Piotra Skargi","spot":"1","number":"9647","bikes":"18","bike_racks":"20","free_racks":"2","terminal_type":"7inch","bike_numbers":"24842,24490,28886,28318,27962,27550,27530,27119,26853,26719,26649,26368,26139,25469,25459,29343,29107,96578","bike_types":{"4":17,"51":1},"place_type":"0","rack_locks":"1"},{"uid":"2585955","lat":"52.2614369","lng":"21.0155744","name":"Wybrze\u017ce Helskie - ZOO","spot":"1","number":"9648","bikes":"10","bike_racks":"22","free_racks":"12","terminal_type":"7inch","bike_numbers":"24855,24729,28593,28085,27590,26981,26862,25104,29136,96291","bike_types":{"4":9,"0":1},"place_type":"0","rack_locks":"1"},{"uid":"2585956","lat":"52.2632492","lng":"21.0212231","name":"Rondo Starzy\u0144skiego","spot":"1","number":"9649","bikes":"19","bike_racks":"24","free_racks":"5","terminal_type":"7inch","bike_numbers":"24856,24769,24504,28431,28305,28145,27470,27381,27333,27203,27033,27018,27015,26588,26480,26469,26420,25825,25238","bike_types":{"4":19},"place_type":"0","rack_locks":"1"},{"uid":"2585958","lat":"52.26421","lng":"21.02618","name":"Darwina - Nusbauma-Hilarowicza","spot":"1","number":"9650","bikes":"12","bike_racks":"21","free_racks":"10","terminal_type":"7inch","bike_numbers":"24938,27892,26777,26751,26706,26584,26500,25471,25466,25402,25362,25099","bike_types":{"4":12},"place_type":"0","rack_locks":"1"},{"uid":"2585960","lat":"52.26554","lng":"21.03122","name":"Namys\u0142owska - Darwina","spot":"1","number":"9651","bikes":"5","bike_racks":"15","free_racks":"10","terminal_type":"7inch","bike_numbers":"28423,26958,26151,26055,25756","bike_types":{"4":5},"place_type":"0","rack_locks":"1"},{"uid":"2585961","lat":"52.2690405","lng":"21.0379493","name":"Rondo \u017baba","spot":"1","number":"9652","bikes":"15","bike_racks":"22","free_racks":"5","terminal_type":"7inch","bike_numbers":"24483,28729,28531,28461,28302,28009,27520,27462,26816,26440,26275,25368,28836,96564,29276","bike_types":{"51":1,"4":15},"place_type":"0","rack_locks":"1"},{"uid":"2585963","lat":"52.2591682","lng":"21.0262224","name":"Jagiello\u0144ska - Plac Hallera","spot":"1","number":"9653","bikes":"12","bike_racks":"20","free_racks":"9","terminal_type":"7inch","bike_numbers":"24901,24681,27833,27050,25674,25435,25393,28954,29365,96483,96401,29282","bike_types":{"4":12},"place_type":"0","rack_locks":"1"},{"uid":"2585964","lat":"52.2613811","lng":"21.0305437","name":"Plac Hallera - Sawinkowa","spot":"1","number":"9654","bikes":"14","bike_racks":"28","free_racks":"14","terminal_type":"7inch","bike_numbers":"24505,28647,28370,28362,28026,27601,27363,27049,26897,26478,26327,26016,29146,29258","bike_types":{"4":13,"0":1},"place_type":"0","rack_locks":"1"},{"uid":"2585967","lat":"52.263","lng":"21.03418","name":"Namys\u0142owska - Szymanowskiego","spot":"1","number":"9655","bikes":"14","bike_racks":"16","free_racks":"4","terminal_type":"7inch","bike_numbers":"24871,25006,28432,28028,28024,27331,26771,26617,26302,26061,25596,25370,25352,96330","bike_types":{"4":14},"place_type":"0","rack_locks":"1"},{"uid":"2585968","lat":"52.2538188","lng":"21.0231542","name":"Ratuszowa - ZOO","spot":"1","number":"9656","bikes":"19","bike_racks":"23","free_racks":"3","terminal_type":"7inch","bike_numbers":"28556,28552,28358,28270,27723,27523,27267,27262,26927,26694,26686,26505,26375,25357,25169,25120,28816,96028,29247","bike_types":{"4":19},"place_type":"0","rack_locks":"1"},{"uid":"2585971","lat":"52.256355","lng":"21.029538","name":"Jagiello\u0144ska - Ratuszowa","spot":"1","number":"9657","bikes":"11","bike_racks":"16","free_racks":"4","terminal_type":"7inch","bike_numbers":"24675,28590,28462,28262,27763,27678,26529,25197,25075,96463,29260","bike_types":{"4":11},"place_type":"0","rack_locks":"1"},{"uid":"2585972","lat":"52.261449","lng":"21.037614","name":"11 Listopada - Ratuszowa","spot":"1","number":"9658","bikes":"15","bike_racks":"30","free_racks":"15","terminal_type":"7inch","bike_numbers":"24558,28553,28511,28329,27753,27503,26949,26556,26043,25810,25652,25150,29374,96350,96584","bike_types":{"4":15},"place_type":"0","rack_locks":"1"},{"uid":"2585974","lat":"52.263109","lng":"21.0381895","name":"11 listopada - \u015arodkowa","spot":"1","number":"9659","bikes":"10","bike_racks":"18","free_racks":"8","terminal_type":"7inch","bike_numbers":"24838,28114,28087,27920,27840,26423,26194,26005,29097,29264","bike_types":{"4":10,"16":1},"place_type":"0","rack_locks":"1"},{"uid":"2585975","lat":"52.25839","lng":"21.03537","name":"Stalowa - 11 Listopada","spot":"1","number":"9660","bikes":"17","bike_racks":"24","free_racks":"7","terminal_type":"7inch","bike_numbers":"24644,28427,27936,27560,27175,26970,26590,26342,26242,26229,26206,28871,96213,29194,29208,29278,29249","bike_types":{"4":17},"place_type":"0","rack_locks":"1"},{"uid":"2585978","lat":"52.234791","lng":"21.07905","name":"al. Stan\u00f3w Zjednoczonych - Ostrobramska","spot":"1","number":"9661","bikes":"10","bike_racks":"20","free_racks":"9","terminal_type":"7inch","bike_numbers":"24946,28496,28471,27828,27350,27252,26795,25785,25421,29082","bike_types":{"4":10},"place_type":"0","rack_locks":"1"},{"uid":"2585981","lat":"52.2524758","lng":"21.0303479","name":"Floria\u0144ska - Park Praski","spot":"1","number":"9662","bikes":"17","bike_racks":"23","free_racks":"7","terminal_type":"7inch","bike_numbers":"25008,28061,27856,27533,27482,26601,26428,25747,25430,25252,29031,28956,29122,28812,28844,96239,96161","bike_types":{"4":16,"0":1},"place_type":"0","rack_locks":"1"},{"uid":"2585982","lat":"52.2549757","lng":"21.0339005","name":"Plac Wile\u0144ski","spot":"1","number":"9663","bikes":"33","bike_racks":"30","free_racks":"7","terminal_type":"7inch","bike_numbers":"24998,24845,24514,28447,28421,28158,28012,27824,27651,27630,27616,27337,27107,26738,26463,26360,26354,26331,26315,26220,25780,25607,29090,29461,25961,28964,28962,28996,96503,96501,96395,29183,29238","bike_types":{"4":33},"place_type":"0","rack_locks":"1"},{"uid":"2585983","lat":"52.2579576","lng":"21.0399804","name":"Wile\u0144ska - Rzeszotarskiej","spot":"1","number":"9664","bikes":"15","bike_racks":"16","free_racks":"1","terminal_type":"7inch","bike_numbers":"27667,27109,26840,26789,26654,26472,26295,25942,25926,25570,25053,29012,28969,96561,96587","bike_types":{"4":15},"place_type":"0","rack_locks":"1"},{"uid":"2585984","lat":"52.2475848","lng":"20.9568001","name":"al. Prymasa Tysi\u0105clecia - Obozowa","spot":"1","number":"9665","bikes":"6","bike_racks":"13","free_racks":"7","terminal_type":"7inch","bike_numbers":"27065,26716,26401,26296,28965,96505","bike_types":{"4":6},"place_type":"0","rack_locks":"1"},{"uid":"2585985","lat":"52.248607","lng":"21.029647","name":"Okrzei - Panie\u0144ska","spot":"1","number":"9666","bikes":"15","bike_racks":"16","free_racks":"2","terminal_type":"7inch","bike_numbers":"24968,24481,28498,28435,26634,26627,26540,25835,25565,29023,29388,29441,28991,96274,29252","bike_types":{"4":14,"51":1},"place_type":"0","rack_locks":"1"},{"uid":"2585987","lat":"52.2506334","lng":"21.0311174","name":"Sierakowskiego - K\u0142opotowskiego","spot":"1","number":"9667","bikes":"16","bike_racks":"25","free_racks":"12","terminal_type":"7inch","bike_numbers":"24701,28313,28301,27977,27690,27629,27298,26392,25918,25881,25805,25787,25661,25470,25130,24049","bike_types":{"4":15,"26":1},"place_type":"0","rack_locks":"1"},{"uid":"2585990","lat":"52.2520876","lng":"21.0381368","name":"Targowa - Z\u0105bkowska","spot":"1","number":"9668","bikes":"14","bike_racks":"18","free_racks":"4","terminal_type":"7inch","bike_numbers":"24725,24478,28299,27253,27194,26572,26536,26486,26456,26110,25813,25337,29368,96292","bike_types":{"4":13,"51":1},"place_type":"0","rack_locks":"1"},{"uid":"2585992","lat":"52.2544855","lng":"21.0433458","name":"Fabryka W\u00f3dek Koneser","spot":"1","number":"9669","bikes":"22","bike_racks":"25","free_racks":"3","terminal_type":"7inch","bike_numbers":"24964,24947,24881,24551,28627,28295,28084,27712,27531,27401,27261,27014,26976,26907,25709,25050,29004,29143,96052,96322,29283,96592","bike_types":{"4":21,"0":1},"place_type":"0","rack_locks":"1"},{"uid":"2585994","lat":"52.2559027","lng":"21.0495613","name":"Radzymi\u0144ska - Wiosenna","spot":"1","number":"9670","bikes":"21","bike_racks":"26","free_racks":"5","terminal_type":"7inch","bike_numbers":"24738,24657,24632,24585,28678,28522,28348,27372,27212,26823,26276,25888,25876,25284,25100,29116,29115,28799,96011,96397,29269","bike_types":{"4":21},"place_type":"0","rack_locks":"1"},{"uid":"2585995","lat":"52.25965","lng":"21.0529","name":"Radzymi\u0144ska - \u0141om\u017cy\u0144ska","spot":"1","number":"9671","bikes":"23","bike_racks":"24","free_racks":"4","terminal_type":"7inch","bike_numbers":"24608,28567,28353,28322,28003,27980,27419,27366,27316,27190,26987,26985,26672,26426,26013,25666,25593,25473,25122,29056,28858,29261,24046","bike_types":{"4":22,"26":1},"place_type":"0","rack_locks":"1"},{"uid":"2585996","lat":"52.2583512","lng":"21.0585337","name":"P\u0119tla Kaw\u0119czy\u0144ska-Bazylika","spot":"1","number":"9672","bikes":"21","bike_racks":"26","free_racks":"5","terminal_type":"7inch","bike_numbers":"24507,28558,27703,27301,26966,26944,26682,26455,26226,26037,25811,25751,25642,25182,25142,96051,96510,96286,96229,96078,29219","bike_types":{"4":21},"place_type":"0","rack_locks":"1"},{"uid":"2585997","lat":"52.249864871462","lng":"21.042911410332","name":"Targowa - Kijowska","spot":"1","number":"9673","bikes":"12","bike_racks":"18","free_racks":"6","terminal_type":"7inch","bike_numbers":"24642,24486,27385,27029,26336,26142,26022,25321,25125,28861,96018,29215","bike_types":{"4":11,"51":1},"place_type":"0","rack_locks":"1"},{"uid":"2586000","lat":"52.252745","lng":"21.0510331","name":"Dworzec Wschodni - Kijowska","spot":"1","number":"9674","bikes":"22","bike_racks":"27","free_racks":"5","terminal_type":"7inch","bike_numbers":"24857,24712,24575,28369,28036,28011,27983,27551,27303,27215,26961,26528,26445,26259,25836,25803,25739,25121,29352,29433,96302,96264","bike_types":{"4":22},"place_type":"0","rack_locks":"1"},{"uid":"2586001","lat":"52.247314","lng":"21.042731","name":"Metro Stadion Narodowy","spot":"1","number":"9675","bikes":"16","bike_racks":"15","free_racks":"0","terminal_type":"7inch","bike_numbers":"24830,27611,27291,26848,26764,26685,26265,26075,25865,25339,25290,25255,28853,96055,96464,96165","bike_types":{"4":16},"place_type":"0","rack_locks":"1"},{"uid":"2586003","lat":"52.2472308","lng":"21.0476456","name":"al. Zieleniecka - Teatr Powszechny","spot":"1","number":"9676","bikes":"4","bike_racks":"14","free_racks":"12","terminal_type":"7inch","bike_numbers":"24636,27169,25095,96440","bike_types":{"4":4},"place_type":"0","rack_locks":"1"},{"uid":"2586005","lat":"52.247346","lng":"21.055947","name":"Grochowska - Mi\u0144ska","spot":"1","number":"9677","bikes":"15","bike_racks":"22","free_racks":"7","terminal_type":"7inch","bike_numbers":"24909,24793,24687,28765,28515,28294,28274,27817,27388,27180,26542,26068,25325,25217,96163","bike_types":{"4":15},"place_type":"0","rack_locks":"1"},{"uid":"2586009","lat":"52.2464","lng":"21.06868","name":"Praga-Po\u0142udnie-Ratusz","spot":"1","number":"9678","bikes":"14","bike_racks":"15","free_racks":"1","terminal_type":"7inch","bike_numbers":"24952,24822,24467,28614,28611,28134,27886,27699,27589,27554,26972,26263,26029,25270","bike_types":{"4":13,"51":1},"place_type":"0","rack_locks":"1"},{"uid":"2586011","lat":"52.2501129","lng":"21.0772011","name":"Dwernickiego - Siennicka","spot":"1","number":"9679","bikes":"21","bike_racks":"25","free_racks":"4","terminal_type":"7inch","bike_numbers":"24617,24456,28755,28597,28509,28272,27730,27101,27031,26629,26383,25996,25957,25941,25716,25651,25611,25245,28943,96509,96346","bike_types":{"4":20,"51":1},"place_type":"0","rack_locks":"1"},{"uid":"2586012","lat":"52.260428882956","lng":"21.041538119316","name":"Stalowa - Czynszowa","spot":"1","number":"9680","bikes":"14","bike_racks":"15","free_racks":"5","terminal_type":"7inch","bike_numbers":"24611,24010,28745,28439,28220,27865,27622,26921,26157,25530,25371,96470,96433,29155","bike_types":{"4":13,"26":1},"place_type":"0","rack_locks":"1"},{"uid":"2586014","lat":"52.2372419","lng":"21.0437644","name":"Wybrze\u017ce Szczeci\u0144skie - Stadion Narodowy","spot":"1","number":"9681","bikes":"27","bike_racks":"23","free_racks":"0","terminal_type":"7inch","bike_numbers":"24960,24958,24848,28741,28705,28452,28077,27971,27716,27466,27256,27178,27173,27110,27081,27061,26635,26338,25853,25779,25195,29005,29422,28823,96500,96424,96277","bike_types":{"4":27},"place_type":"0","rack_locks":"1"},{"uid":"2586018","lat":"52.2387103","lng":"21.0507515","name":"Rondo Waszyngtona - Stadion Narodowy","spot":"1","number":"9682","bikes":"15","bike_racks":"27","free_racks":"12","terminal_type":"7inch","bike_numbers":"24809,24770,24688,24591,28438,27755,27235,26942,26878,26861,26570,26240,25374,25260,28834","bike_types":{"4":15},"place_type":"0","rack_locks":"1"},{"uid":"2586019","lat":"52.242281006874","lng":"21.071160435677","name":"Waszyngtona - Kinowa","spot":"1","number":"9683","bikes":"14","bike_racks":"15","free_racks":"3","terminal_type":"7inch","bike_numbers":"24969,28642,27659,27096,26998,26293,25360,25294,25223,25127,29357,96154,96151,29272","bike_types":{"4":14},"place_type":"0","rack_locks":"1"},{"uid":"2586021","lat":"52.2445639","lng":"21.0838057","name":"Rondo Wiatraczna","spot":"1","number":"9684","bikes":"23","bike_racks":"30","free_racks":"8","terminal_type":"7inch","bike_numbers":"24847,24820,24512,24457,28761,28128,27875,27652,27476,27210,26677,26473,26359,26063,25916,25548,25405,25363,25158,29077,96341,96210,29263","bike_types":{"4":22,"51":1},"place_type":"0","rack_locks":"1"},{"uid":"2586022","lat":"52.2347451","lng":"21.053651","name":"Francuska - Walecznych","spot":"1","number":"9685","bikes":"6","bike_racks":"15","free_racks":"9","terminal_type":"7inch","bike_numbers":"26953,26323,26047,25049,29041,29124","bike_types":{"4":5,"0":1},"place_type":"0","rack_locks":"1"},{"uid":"2586024","lat":"52.236598","lng":"21.064774","name":"Mi\u0119dzynarodowa - Walecznych","spot":"1","number":"9686","bikes":"22","bike_racks":"15","free_racks":"0","terminal_type":"7inch","bike_numbers":"28672,28479,27727,27608,27394,27135,26880,26821,26744,26267,25899,25397,25056,29051,29459,28809,96391,29198,29182,29201,29270,29255","bike_types":{"4":23},"place_type":"0","rack_locks":"1"},{"uid":"2586026","lat":"52.243020071904","lng":"21.102375984192","name":"Plac Szembeka","spot":"1","number":"9687","bikes":"18","bike_racks":"15","free_racks":"0","terminal_type":"7inch","bike_numbers":"24779,24040,28636,28271,27686,27548,27542,27172,26929,26582,26415,26301,26283,25982,25907,25731,25608,25429","bike_types":{"4":17,"26":1},"place_type":"0","rack_locks":"1"},{"uid":"2586028","lat":"52.237559","lng":"21.120087","name":"P\u0119tla Goc\u0142awek","spot":"1","number":"9688","bikes":"9","bike_racks":"16","free_racks":"7","terminal_type":"7inch","bike_numbers":"28367,27953,27324,27140,26138,25538,25389,96224,96149","bike_types":{"4":9},"place_type":"0","rack_locks":"1"},{"uid":"2586030","lat":"52.2258359","lng":"21.0600907","name":"Brukselska - PROM","spot":"1","number":"9689","bikes":"17","bike_racks":"15","free_racks":"1","terminal_type":"7inch","bike_numbers":"24699,28773,28675,28586,28411,27874,27780,27747,26741,26726,26116,25936,25586,25113,29436,96019,96441","bike_types":{"4":17},"place_type":"0","rack_locks":"1"},{"uid":"2586031","lat":"52.260205610017","lng":"21.046854257584","name":"al. Solidarno\u015bci - Szwedzka","spot":"1","number":"9690","bikes":"6","bike_racks":"18","free_racks":"13","terminal_type":"7inch","bike_numbers":"28760,28058,28045,26348,25910,29266","bike_types":{"4":6},"place_type":"0","rack_locks":"1"},{"uid":"2586032","lat":"52.230088","lng":"21.067948","name":"al. Stan\u00f3w Zjednoczonych - Mi\u0119dzynarodowa","spot":"1","number":"9691","bikes":"13","bike_racks":"26","free_racks":"11","terminal_type":"7inch","bike_numbers":"24907,27998,27612,26162,25855,25736,25445,25175,25139,25028,28837,96548,29152","bike_types":{"4":13},"place_type":"0","rack_locks":"1"},{"uid":"2586034","lat":"52.23483","lng":"21.09975","name":"Ostrobramska - Zamieniecka","spot":"1","number":"9692","bikes":"16","bike_racks":"23","free_racks":"7","terminal_type":"7inch","bike_numbers":"24939,24631,28577,28019,26918,26750,26547,25943,25214,25149,25110,25060,28828,96050,29151,29214","bike_types":{"4":16},"place_type":"0","rack_locks":"1"},{"uid":"2586037","lat":"52.2251969","lng":"21.0712892","name":"Afryka\u0144ska - Egipska","spot":"1","number":"9693","bikes":"11","bike_racks":"16","free_racks":"5","terminal_type":"7inch","bike_numbers":"24008,28309,27527,27361,27208,26059,25411,25386,25380,25364,96339","bike_types":{"26":1,"4":10},"place_type":"0","rack_locks":"1"},{"uid":"2586039","lat":"52.22837","lng":"21.08581","name":"Abrahama - Kapelan\u00f3w AK","spot":"1","number":"9694","bikes":"10","bike_racks":"15","free_racks":"5","terminal_type":"7inch","bike_numbers":"24656,24586,28017,26734,26406,26132,26009,25947,25144,29187","bike_types":{"4":10},"place_type":"0","rack_locks":"1"},{"uid":"2586042","lat":"52.2296088","lng":"21.0945572","name":"Fieldorfa - Bukowskiego","spot":"1","number":"9695","bikes":"15","bike_racks":"20","free_racks":"5","terminal_type":"7inch","bike_numbers":"24800,24650,24610,24509,24465,28091,27433,27193,26979,26753,26597,26400,26241,26031,25816","bike_types":{"4":14,"51":1},"place_type":"0","rack_locks":"1"},{"uid":"2586044","lat":"52.22974","lng":"21.10624","name":"Rechniewskiego - Nowaka-Jeziora\u0144skiego","spot":"1","number":"9696","bikes":"28","bike_racks":"30","free_racks":"2","terminal_type":"7inch","bike_numbers":"24893,24796,24495,28753,28686,28682,28626,28623,28589,28363,27974,27697,27526,27411,27270,27268,27108,26822,26657,26641,26605,26425,25198,29360,29127,28884,96093,29259","bike_types":{"4":26,"51":1,"0":1},"place_type":"0","rack_locks":"1"},