[{"region_info":{"lat":"52.2345","lng":"21.0024","zoom":"11","name":"VETURILO Poland","hotline":"+4819115","domain":"vp","country":"PL","country_name":"Poland","terms":"http:\/\/www.veturilo.waw.pl\/terms\/?v=201701","policy":"","website":"http:\/\/www.veturilo.waw.pl\/","show_free_racks":"1","booked_bikes":"0","set_point_bikes":"5277","available_bikes":"4522"},"places_summary":{"lngMin":20.8689688,"lngMax":21.120087,"latMin":52.117285,"latMax":52.3485329,"lngAvg":21.00781180628,"latAvg":52.230676799541},"places":[{"uid":"2585259","lat":"52.296298","lng":"20.9583575","name":"Dewajtis - UKSW","spot":"1","number":"9402","bikes":"11","bike_racks":"30","free_racks":"17","terminal_type":"7inch","bike_numbers":"24931,28442,27097,26968,26786,26774,25472,25407,25077,28958,96249","bike_types":{"4":11},"place_type":"0","rack_locks":"1"},{"uid":"2585263","lat":"52.2909738","lng":"20.9295559","name":"Metro M\u0142ociny","spot":"1","number":"9403","bikes":"26","bike_racks":"30","free_racks":"3","terminal_type":"7inch","bike_numbers":"24714,24680,28707,28682,27952,27844,27784,27756,27752,27098,27038,27007,26696,26477,26330,25931,25914,25607,25592,25322,29072,29061,28981,25961,28878,96524","bike_types":{"4":26},"place_type":"0","rack_locks":"1"},{"uid":"2585265","lat":"52.2901732","lng":"20.9503698","name":"Marymoncka - Dewajtis","spot":"1","number":"9404","bikes":"25","bike_racks":"30","free_racks":"5","terminal_type":"7inch","bike_numbers":"24846,24608,28768,28620,28370,27631,27540,26991,26860,26338,26294,25956,25461,25433,25394,25044,29343,29010,29428,28913,96379,96136,96112,96101,29188","bike_types":{"4":25},"place_type":"0","rack_locks":"1"},{"uid":"2585267","lat":"52.285914","lng":"20.940561","name":"Metro Wawrzyszew","spot":"1","number":"9405","bikes":"18","bike_racks":"20","free_racks":"7","terminal_type":"7inch","bike_numbers":"24847,24574,24004,28353,28280,28071,28032,26632,26555,26386,26286,25612,25544,29025,29011,96376,96367,96245","bike_types":{"4":17,"26":1},"place_type":"0","rack_locks":"1"},{"uid":"2585269","lat":"52.2336142","lng":"21.0146353","name":"G\u00f3rskiego - Szpitalna","spot":"1","number":"9406","bikes":"8","bike_racks":"16","free_racks":"7","terminal_type":"7inch","bike_numbers":"24671,28031,27463,27211,26016,25848,96156,96579","bike_types":{"4":8},"place_type":"0","rack_locks":"1"},{"uid":"2585271","lat":"52.2816265","lng":"20.9498871","name":"Metro Stare Bielany","spot":"1","number":"9407","bikes":"17","bike_racks":"30","free_racks":"13","terminal_type":"7inch","bike_numbers":"24952,28526,28487,27955,27887,27534,27254,27192,26363,26290,26242,26127,25949,25463,25235,28959,29364","bike_types":{"4":17},"place_type":"0","rack_locks":"1"},{"uid":"2585272","lat":"52.2361217","lng":"21.0219096","name":"Ordynacka - Uniwersytet Muzyczny","spot":"1","number":"9408","bikes":"11","bike_racks":"20","free_racks":"7","terminal_type":"7inch","bike_numbers":"24834,24813,28483,27936,27760,27667,26898,26712,26531,25862,96551","bike_types":{"4":11},"place_type":"0","rack_locks":"1"},{"uid":"2585273","lat":"52.2768774","lng":"20.9481302","name":"Bielany-Ratusz","spot":"1","number":"9409","bikes":"8","bike_racks":"28","free_racks":"20","terminal_type":"7inch","bike_numbers":"27481,26961,26539,26100,29036,29444,96483,96170","bike_types":{"4":8},"place_type":"0","rack_locks":"1"},{"uid":"2585275","lat":"52.2761569","lng":"20.9616673","name":"Metro S\u0142odowiec","spot":"1","number":"9410","bikes":"10","bike_racks":"30","free_racks":"18","terminal_type":"7inch","bike_numbers":"24731,28822,28743,28633,27782,26798,26442,26278,25972,96248","bike_types":{"4":10},"place_type":"0","rack_locks":"1"},{"uid":"2585278","lat":"52.2777751","lng":"20.9856999","name":"Potocka - OSiR \u017boliborz","spot":"1","number":"9411","bikes":"23","bike_racks":"15","free_racks":"0","terminal_type":"7inch","bike_numbers":"24891,24523,24491,24006,28801,28478,27980,27143,27072,26888,26841,26834,26608,26432,26343,26192,26083,25988,25796,29012,29360,96546,96137","bike_types":{"4":21,"51":1,"26":1},"place_type":"0","rack_locks":"1"},{"uid":"2585280","lat":"52.273527782989","lng":"20.994186401367","name":"Gwia\u017adzista - Promyka","spot":"1","number":"9412","bikes":"16","bike_racks":"16","free_racks":"1","terminal_type":"7inch","bike_numbers":"24746,28774,27678,27573,27359,27078,26972,26562,26197,25916,25887,25683,25012,29088,29649,96154","bike_types":{"4":16},"place_type":"0","rack_locks":"1"},{"uid":"2585281","lat":"52.270941","lng":"20.9326269","name":"al. Reymonta - Conrada","spot":"1","number":"9413","bikes":"36","bike_racks":"30","free_racks":"0","terminal_type":"7inch","bike_numbers":"24930,24926,24695,28764,28601,28268,27966,27849,27686,27683,27677,27338,27273,26829,26651,26508,26506,26395,26388,26361,26241,26181,26090,25937,25869,25830,25252,25201,25052,29060,28997,96518,96335,96320,96305,96183","bike_types":{"4":36},"place_type":"0","rack_locks":"1"},{"uid":"2585283","lat":"52.2706441","lng":"20.9504181","name":"Broniewskiego - Perzy\u0144skiego","spot":"1","number":"9414","bikes":"41","bike_racks":"16","free_racks":"0","terminal_type":"7inch","bike_numbers":"24966,24911,24843,24730,28696,28503,27912,27824,27480,27250,27191,26963,26953,26923,26913,26780,26611,26564,26464,26135,25970,25939,25734,25677,25676,25358,25237,25090,29087,29017,29007,28936,29647,28831,96511,96484,96439,96408,96390,96332,96093","bike_types":{"4":41},"place_type":"0","rack_locks":"1"},{"uid":"2585284","lat":"52.2714203","lng":"20.9727099","name":"Metro Marymont","spot":"1","number":"9415","bikes":"22","bike_racks":"30","free_racks":"9","terminal_type":"7inch","bike_numbers":"24643,24628,24538,28600,28401,27908,27789,27768,27656,26620,26200,25726,25586,29117,29101,29090,29066,96032,96418,96393,96164,29179","bike_types":{"4":22},"place_type":"0","rack_locks":"1"},{"uid":"2585285","lat":"52.2694081","lng":"20.9833664","name":"Metro Plac Wilsona","spot":"1","number":"9416","bikes":"10","bike_racks":"21","free_racks":"11","terminal_type":"7inch","bike_numbers":"28270,28217,27160,26971,26223,25178,25080,29081,29028,96172","bike_types":{"4":10},"place_type":"0","rack_locks":"1"},{"uid":"2585286","lat":"52.2668623","lng":"20.9637032","name":"Broniewskiego - W\u0142o\u015bcia\u0144ska","spot":"1","number":"9417","bikes":"27","bike_racks":"19","free_racks":"0","terminal_type":"7inch","bike_numbers":"24668,24557,28821,28444,28210,28138,27843,27550,27502,27104,27073,27037,26887,26717,26606,26590,26462,25520,25311,25142,29345,96004,96514,96488,96252,96160,29173","bike_types":{"4":27},"place_type":"0","rack_locks":"1"},{"uid":"2585288","lat":"52.2643984","lng":"20.9723179","name":"Broniewskiego - Krasi\u0144skiego","spot":"1","number":"9418","bikes":"6","bike_racks":"16","free_racks":"9","maintenance":"1","terminal_type":"7inch","bike_numbers":"24740,24558,28539,28477,26132,96505","bike_types":{"4":6},"place_type":"0","rack_locks":"1"},{"uid":"2585289","lat":"52.267875","lng":"21.0020667","name":"Wybrze\u017ce Gdy\u0144skie - KS Sp\u00f3jnia","spot":"1","number":"9419","bikes":"11","bike_racks":"15","free_racks":"1","terminal_type":"7inch","bike_numbers":"24839,24835,28533,28318,27867,26846,26801,26346,25230,25036,96356","bike_types":{"4":11},"place_type":"0","rack_locks":"1"},{"uid":"2585291","lat":"52.2624054","lng":"20.9802551","name":"Plac Grunwaldzki","spot":"1","number":"9420","bikes":"32","bike_racks":"30","free_racks":"0","terminal_type":"7inch","bike_numbers":"24826,24621,28775,28718,28715,28584,28408,28342,28054,27949,27893,27509,27380,26946,26563,26451,26291,25642,25499,25217,25176,25102,25081,29352,28919,28910,29128,96244,96227,96200,96131,96591","bike_types":{"4":31,"0":1},"place_type":"0","rack_locks":"1"},{"uid":"2585296","lat":"52.2612575","lng":"20.9863191","name":"Zaj\u0105czka - Bitwy Pod Rokitn\u0105","spot":"1","number":"9421","bikes":"12","bike_racks":"15","free_racks":"2","terminal_type":"7inch","bike_numbers":"24758,24687,28021,26922,26796,25762,96497,96275,96264,96225,96196,29151","bike_types":{"4":12},"place_type":"0","rack_locks":"1"},{"uid":"2585297","lat":"52.2645018","lng":"20.9895998","name":"Plac Inwalid\u00f3w","spot":"1","number":"9422","bikes":"2","bike_racks":"15","free_racks":"13","terminal_type":"7inch","bike_numbers":"25610,96475","bike_types":{"4":2},"place_type":"0","rack_locks":"1"},{"uid":"2585299","lat":"52.258245356688","lng":"20.898613929749","name":"P\u0119tla Stare Bemowo","spot":"1","number":"9423","bikes":"6","bike_racks":"21","free_racks":"14","terminal_type":"7inch","bike_numbers":"24764,26380,25724,25138,96269,29171","bike_types":{"4":6},"place_type":"0","rack_locks":"1"},{"uid":"2585301","lat":"52.260895125763","lng":"20.923923254013","name":"P\u0119tla Nowe Bemowo","spot":"1","number":"9424","bikes":"19","bike_racks":"25","free_racks":"6","terminal_type":"7inch","bike_numbers":"24790,24559,28514,27771,26773,26292,26076,25633,25220,25114,25629,96375,96374,96321,96314,96285,96279,96233,96206","bike_types":{"4":19},"place_type":"0","rack_locks":"1"},{"uid":"2585304","lat":"52.2575903","lng":"20.9323374","name":"Obro\u0144c\u00f3w Tobruku - Pieni\u0105\u017cka","spot":"1","number":"9425","bikes":"24","bike_racks":"12","free_racks":"0","terminal_type":"7inch","bike_numbers":"24906,24666,24582,28694,28596,28316,28049,28047,27905,27825,27744,27702,27581,27056,26614,26394,26317,26222,25128,29659,28824,96297,96266,29178","bike_types":{"4":24},"place_type":"0","rack_locks":"1"},{"uid":"2585305","lat":"52.2593225","lng":"20.9605511","name":"Pow\u0105zkowska - Krasi\u0144skiego","spot":"1","number":"9426","bikes":"16","bike_racks":"23","free_racks":"9","terminal_type":"7inch","bike_numbers":"24898,24798,28409,27459,26699,26653,26377,26279,26098,25866,25302,25137,29039,29654,28844,24050","bike_types":{"4":15,"26":1},"place_type":"0","rack_locks":"1"},{"uid":"2585306","lat":"52.2563145","lng":"20.9682307","name":"Pow\u0105zkowska - Plac Niemena","spot":"1","number":"9427","bikes":"23","bike_racks":"16","free_racks":"0","terminal_type":"7inch","bike_numbers":"24857,24681,24662,24513,28885,28598,28438,28066,27898,27860,27797,27252,27050,27031,26739,26532,26406,25684,25390,25209,28966,96001,96530","bike_types":{"4":23},"place_type":"0","rack_locks":"1"},{"uid":"2585307","lat":"52.258524460024","lng":"20.970931649208","name":"Przasnyska - Rydygiera","spot":"1","number":"9428","bikes":"14","bike_racks":"15","free_racks":"2","terminal_type":"7inch","bike_numbers":"24924,24684,24530,24015,27995,27842,26497,26140,25864,25413,25280,25097,25073,29191","bike_types":{"4":13,"26":1},"place_type":"0","rack_locks":"1"},{"uid":"2585308","lat":"52.253594","lng":"20.9798744","name":"Pow\u0105zkowska - Burakowska","spot":"1","number":"9429","bikes":"0","bike_racks":"20","free_racks":"20","terminal_type":"7inch","place_type":"0","rack_locks":"1","bike_numbers":null,"bike_types":[]},{"uid":"2585311","lat":"52.2576018","lng":"20.9944975","name":"Metro Dworzec Gda\u0144ski","spot":"1","number":"9430","bikes":"2","bike_racks":"30","free_racks":"28","terminal_type":"7inch","bike_numbers":"29054,96499","bike_types":{"4":2},"place_type":"0","rack_locks":"1"},{"uid":"2585315","lat":"52.2465952","lng":"20.9429216","name":"Obozowa - Cio\u0142ka","spot":"1","number":"9432","bikes":"2","bike_racks":"13","free_racks":"11","terminal_type":"7inch","bike_numbers":"25397,28948","bike_types":{"4":2},"place_type":"0","rack_locks":"1"},{"uid":"2585317","lat":"52.227621983552","lng":"20.956758856773","name":"al. Prymasa Tysi\u0105clecia - Kasprzaka","spot":"1","number":"9433","bikes":"17","bike_racks":"23","free_racks":"5","terminal_type":"7inch","bike_numbers":"24024,28013,27870,27798,27099,26938,26865,26682,26453,26393,25660,25480,25022,28949,29144,29207,96592","bike_types":{"26":1,"4":15,"0":1},"place_type":"0","rack_locks":"1"},{"uid":"2585319","lat":"52.246037","lng":"20.962463","name":"Obozowa - Radziwie","spot":"1","number":"9434","bikes":"14","bike_racks":"13","free_racks":"0","terminal_type":"7inch","bike_numbers":"24927,24599,24010,28697,28152,28018,27531,27236,27219,26705,25890,25697,28806,29204","bike_types":{"4":13,"26":1},"place_type":"0","rack_locks":"1"},{"uid":"2585321","lat":"52.2514708","lng":"20.9857053","name":"al. Jana Paw\u0142a II - Stawki","spot":"1","number":"9435","bikes":"19","bike_racks":"23","free_racks":"4","terminal_type":"7inch","bike_numbers":"24946,24774,24636,28574,28572,28271,27988,27604,27416,27351,26446,26408,26062,25471,25453,25018,28877,28989,96411","bike_types":{"4":19},"place_type":"0","rack_locks":"1"},{"uid":"2585323","lat":"52.2535305","lng":"20.9924922","name":"Stawki - Dubois","spot":"1","number":"9436","bikes":"9","bike_racks":"13","free_racks":"4","terminal_type":"7inch","bike_numbers":"28734,26932,26718,26329,26256,26047,25782,96519,96135","bike_types":{"4":9},"place_type":"0","rack_locks":"1"},{"uid":"2585326","lat":"52.2541702","lng":"20.9980649","name":"Andersa - Muranowska","spot":"1","number":"9437","bikes":"1","bike_racks":"30","free_racks":"28","terminal_type":"7inch","bike_numbers":"28529","bike_types":{"4":1},"place_type":"0","rack_locks":"1"},{"uid":"2585327","lat":"52.255877","lng":"21.0099819","name":"Sanguszki - Wybrze\u017ce Gda\u0144skie","spot":"1","number":"9438","bikes":"17","bike_racks":"28","free_racks":"11","terminal_type":"7inch","bike_numbers":"24944,24848,24039,28532,28055,27965,27827,27425,27087,26686,26526,26011,25993,29449,28973,96543,29154","bike_types":{"4":16,"26":1},"place_type":"0","rack_locks":"1"},{"uid":"2585328","lat":"52.252175","lng":"20.923692","name":"Wroc\u0142awska \u2013 Bailly","spot":"1","number":"9439","bikes":"13","bike_racks":"27","free_racks":"13","terminal_type":"7inch","bike_numbers":"24652,28638,28317,27926,27638,27046,26217,26123,29111,28965,96031,96007,96153","bike_types":{"4":13},"place_type":"0","rack_locks":"1"},{"uid":"2585330","lat":"52.24418","lng":"20.97794","name":"Okopowa - Anielewicza","spot":"1","number":"9440","bikes":"3","bike_racks":"20","free_racks":"17","terminal_type":"7inch","bike_numbers":"28738,27625,26533","bike_types":{"4":3},"place_type":"0","rack_locks":"1"},{"uid":"2585333","lat":"52.2486","lng":"20.98352","name":"Smocza - Mi\u0142a","spot":"1","number":"9441","bikes":"17","bike_racks":"15","free_racks":"0","terminal_type":"7inch","bike_numbers":"24978,24471,28453,28294,27838,27619,27119,26854,26040,26013,25930,25860,25688,25474,25316,96344,96157","bike_types":{"4":16,"51":1},"place_type":"0","rack_locks":"1"},{"uid":"2585334","lat":"52.24616","lng":"20.98538","name":"Smocza - Anielewicza","spot":"1","number":"9442","bikes":"17","bike_racks":"17","free_racks":"2","terminal_type":"7inch","bike_numbers":"24683,24659,28516,28479,27018,26372,26319,26113,26002,25320,25295,25238,25193,29553,96239,29159,29231","bike_types":{"4":17},"place_type":"0","rack_locks":"1"},{"uid":"2585335","lat":"52.247226","lng":"20.9893155","name":"al. Jana Paw\u0142a II - Anielewicza","spot":"1","number":"9443","bikes":"0","bike_racks":"22","free_racks":"21","terminal_type":"7inch","place_type":"0","rack_locks":"1","bike_numbers":null,"bike_types":[]},{"uid":"2585337","lat":"52.249052","lng":"20.9948923","name":"Anielewicza - Zamenhofa","spot":"1","number":"9444","bikes":"11","bike_racks":"15","free_racks":"4","terminal_type":"7inch","bike_numbers":"24920,24739,28710,27970,27083,26920,25977,25444,29339,96412,96395","bike_types":{"4":11},"place_type":"0","rack_locks":"1"},{"uid":"2585338","lat":"52.2492196","lng":"20.9971878","name":"Anielewicza - Andersa","spot":"1","number":"9445","bikes":"7","bike_racks":"18","free_racks":"10","terminal_type":"7inch","bike_numbers":"27977,27282,26476,26271,25462,25432,25105","bike_types":{"4":7},"place_type":"0","rack_locks":"1"},{"uid":"2585340","lat":"52.251549","lng":"21.002749","name":"Bonifraterska - Franciszka\u0144ska","spot":"1","number":"9446","bikes":"15","bike_racks":"16","free_racks":"2","terminal_type":"7inch","bike_numbers":"28150,28116,27617,27564,26701,26403,26313,25723,25572,25309,25253,29361,28961,29158,29149","bike_types":{"4":15},"place_type":"0","rack_locks":"1"},{"uid":"2585342","lat":"52.2541119","lng":"21.0093342","name":"Ko\u015bcielna - Piesza","spot":"1","number":"9448","bikes":"22","bike_racks":"26","free_racks":"1","terminal_type":"7inch","bike_numbers":"24633,25000,28648,28556,28028,27796,27504,27165,27034,27029,26974,26863,26745,26658,26354,26153,26137,26052,25447,25207,25631,96428","bike_types":{"4":22},"place_type":"0","rack_locks":"1"},{"uid":"2585344","lat":"52.2392622","lng":"20.8987641","name":"P\u0119tla Os. G\u00f3rczewska","spot":"1","number":"9449","bikes":"19","bike_racks":"15","free_racks":"0","terminal_type":"7inch","bike_numbers":"24619,28717,28559,28192,27710,27497,27417,27226,26955,26553,25889,25831,25661,25566,25485,25216,28992,29648,96384","bike_types":{"4":19},"place_type":"0","rack_locks":"1"},{"uid":"2585345","lat":"52.2389287","lng":"20.9139535","name":"Bemowo-Ratusz","spot":"1","number":"9450","bikes":"20","bike_racks":"20","free_racks":"0","terminal_type":"7inch","bike_numbers":"24682,24567,25005,28447,28360,27808,27028,27020,26778,26496,26449,25728,25197,25189,25049,29107,29138,96460,96102,29180","bike_types":{"4":19,"0":1},"place_type":"0","rack_locks":"1"},{"uid":"2585346","lat":"52.2387861","lng":"20.9424946","name":"Okocimska - Olbrachta","spot":"1","number":"9451","bikes":"12","bike_racks":"18","free_racks":"6","terminal_type":"7inch","bike_numbers":"24631,24507,25004,28903,28568,27892,27806,27658,27284,25156,96422,29211","bike_types":{"4":12},"place_type":"0","rack_locks":"1"},{"uid":"2585349","lat":"52.2506241","lng":"21.0533611","name":"Dworzec Wschodni - Lubelska","spot":"1","number":"9452","bikes":"16","bike_racks":"15","free_racks":"0","terminal_type":"7inch","bike_numbers":"24998,24870,24796,24531,28603,28100,27769,27440,26511,26441,26276,26066,25749,25160,96571,96155","bike_types":{"4":16},"place_type":"0","rack_locks":"1"},{"uid":"2585351","lat":"52.2369249","lng":"20.9723559","name":"Leszno - M\u0142ynarska","spot":"1","number":"9453","bikes":"30","bike_racks":"30","free_racks":"0","terminal_type":"7inch","bike_numbers":"24970,24824,24670,24043,24023,28772,28510,28147,27963,27696,27431,27194,26840,26605,26603,26423,26136,26055,25761,25725,25714,25621,25522,25493,25332,25158,25104,25094,96550,96114","bike_types":{"4":28,"26":2},"place_type":"0","rack_locks":"1"},{"uid":"2585352","lat":"52.2430451","lng":"20.9803864","name":"Dzielna - Bellottiego","spot":"1","number":"9454","bikes":"1","bike_racks":"13","free_racks":"12","terminal_type":"7inch","bike_numbers":"29103","bike_types":{"4":1},"place_type":"0","rack_locks":"1"},{"uid":"2585353","lat":"52.24108","lng":"20.98316","name":"Wolno\u015b\u0107 - Bellottiego","spot":"1","number":"9455","bikes":"13","bike_racks":"16","free_racks":"2","terminal_type":"7inch","bike_numbers":"24506,27969,27720,27375,27055,27023,26791,25790,25605,29455,29127,96415,29166","bike_types":{"4":12,"0":1},"place_type":"0","rack_locks":"1"},{"uid":"2585354","lat":"52.2435448","lng":"20.9873507","name":"Smocza - Nowolipki","spot":"1","number":"9456","bikes":"7","bike_racks":"16","free_racks":"8","terminal_type":"7inch","bike_numbers":"28364,27065,26178,25998,29027,96544,29187","bike_types":{"4":7},"place_type":"0","rack_locks":"1"},{"uid":"2585356","lat":"52.2445767","lng":"20.99177","name":"al. Jana Paw\u0142a II - Nowolipki","spot":"1","number":"9457","bikes":"0","bike_racks":"16","free_racks":"14","terminal_type":"7inch","place_type":"0","rack_locks":"1","bike_numbers":null,"bike_types":[]},{"uid":"2585358","lat":"52.22868","lng":"20.91509","name":"Powsta\u0144c\u00f3w \u015al\u0105skich - Cz\u0142uchowska","spot":"1","number":"9458","bikes":"17","bike_racks":"16","free_racks":"4","terminal_type":"7inch","bike_numbers":"24747,24742,24707,24540,28664,27333,26997,25387,25113,29657,24555,28832,96238,96235,96192,96171,29185","bike_types":{"4":17},"place_type":"0","rack_locks":"1"},{"uid":"2585360","lat":"52.2342032","lng":"20.934689","name":"Jana Olbrachta - Antka Rozpylacza","spot":"1","number":"9459","bikes":"28","bike_racks":"13","free_racks":"1","terminal_type":"7inch","bike_numbers":"24945,24639,24509,28769,28677,28272,27802,27738,27423,27309,27069,26930,26733,26633,26401,26318,26117,25976,25854,25671,25590,25362,25336,25223,25115,96403,96228,96212","bike_types":{"4":28},"place_type":"0","rack_locks":"1"},{"uid":"2585364","lat":"52.2401623","lng":"20.9877277","name":"Wola-Ratusz","spot":"1","number":"9460","bikes":"8","bike_racks":"15","free_racks":"3","terminal_type":"7inch","bike_numbers":"24755,28108,27861,26878,26095,25548,25023,96224","bike_types":{"4":8},"place_type":"0","rack_locks":"1"},{"uid":"2585368","lat":"52.2445326","lng":"20.99998","name":"Plac Bankowy - Kino Muran\u00f3w","spot":"1","number":"9462","bikes":"13","bike_racks":"17","free_racks":"6","terminal_type":"7inch","bike_numbers":"24820,27566,26868,26735,26198,26187,26133,26112,25488,25476,29092,28825,29250","bike_types":{"4":13},"place_type":"0","rack_locks":"1"},{"uid":"2585369","lat":"52.2449465","lng":"21.0012943","name":"Andersa - D\u0142uga","spot":"1","number":"9463","bikes":"14","bike_racks":"30","free_racks":"16","terminal_type":"7inch","bike_numbers":"24951,24932,24805,28659,28365,28330,27603,26399,26063,25704,25279,28809,96357,96168","bike_types":{"4":14},"place_type":"0","rack_locks":"1"},{"uid":"2585370","lat":"52.2442666","lng":"21.0015893","name":"Marsza\u0142kowska - al. Solidarno\u015bci","spot":"1","number":"9464","bikes":"16","bike_racks":"30","free_racks":"14","terminal_type":"7inch","bike_numbers":"28459,28285,27975,27967,27514,27086,26880,26688,26081,26031,25984,25434,25262,25084,25064,29079","bike_types":{"4":16},"place_type":"0","rack_locks":"1"},{"uid":"2585371","lat":"52.2431975","lng":"21.0016603","name":"Plac Bankowy - Ratusz","spot":"1","number":"9465","bikes":"3","bike_racks":"30","free_racks":"27","terminal_type":"7inch","bike_numbers":"27729,27393,27214","bike_types":{"4":3},"place_type":"0","rack_locks":"1"},{"uid":"2585373","lat":"52.2435719","lng":"21.0066801","name":"Senatorska - Biela\u0144ska","spot":"1","number":"9466","bikes":"4","bike_racks":"17","free_racks":"12","terminal_type":"7inch","bike_numbers":"27062,26842,25449,25378","bike_types":{"4":4},"place_type":"0","rack_locks":"1"},{"uid":"2585377","lat":"52.246314509834","lng":"21.0113042593","name":"Miodowa","spot":"1","number":"9467","bikes":"23","bike_racks":"24","free_racks":"8","terminal_type":"7inch","bike_numbers":"24867,24615,28654,28517,28481,27700,26809,26743,26592,26549,26470,26407,26184,26177,25960,25732,25264,25183,28846,96547,96416,96310,96165","bike_types":{"4":23},"place_type":"0","rack_locks":"1"},{"uid":"2585378","lat":"52.2435965","lng":"21.0140803","name":"Krakowskie Przedmie\u015bcie - Tr\u0119backa","spot":"1","number":"9468","bikes":"12","bike_racks":"14","free_racks":"7","terminal_type":"7inch","bike_numbers":"24543,24462,28488,28414,28275,28194,27737,27367,26500,26037,25799,25580","bike_types":{"4":11,"51":1},"place_type":"0","rack_locks":"1"},{"uid":"2585379","lat":"52.2465625","lng":"21.0174345","name":"Mariensztat","spot":"1","number":"9469","bikes":"29","bike_racks":"15","free_racks":"1","terminal_type":"7inch","bike_numbers":"24750,24648,24497,28886,28708,28688,27637,27542,27539,27365,27253,27195,26895,26704,26642,26630,26540,26239,25986,25784,25330,29080,28998,96019,96535,96454,96274,29276,29224","bike_types":{"4":28,"51":1},"place_type":"0","rack_locks":"1"},{"uid":"2585381","lat":"52.224934","lng":"20.945489","name":"Jana Kazimierza - Giz\u00f3w","spot":"1","number":"9471","bikes":"19","bike_racks":"13","free_racks":"0","terminal_type":"7inch","bike_numbers":"24591,24562,28522,27826,27406,27015,26906,26679,26638,26527,25847,25604,25581,25428,25041,28850,96208,96113,29161","bike_types":{"4":19},"place_type":"0","rack_locks":"1"},{"uid":"2585385","lat":"52.2299137","lng":"20.9508179","name":"Wolska - Elekcyjna","spot":"1","number":"9472","bikes":"7","bike_racks":"20","free_racks":"13","terminal_type":"7inch","bike_numbers":"24956,24625,28084,26988,26443,25250,29227","bike_types":{"4":7},"place_type":"0","rack_locks":"1"},{"uid":"2585387","lat":"52.237662392829","lng":"20.955492854118","name":"al. Prymasa Tysi\u0105clecia - G\u00f3rczewska","spot":"1","number":"9473","bikes":"8","bike_racks":"20","free_racks":"14","terminal_type":"7inch","bike_numbers":"28320,26970,26144,26046,25317,29067,96016,29239","bike_types":{"4":8},"place_type":"0","rack_locks":"1"},{"uid":"2585389","lat":"52.2333374","lng":"20.9652776","name":"Wolska - P\u0142ocka","spot":"1","number":"9474","bikes":"25","bike_racks":"15","free_racks":"1","terminal_type":"7inch","bike_numbers":"24782,24570,28531,28393,28312,28073,28033,27957,27930,27883,27455,27303,27220,27032,27027,26466,26428,26348,26261,25717,25510,25487,25409,25106,96090","bike_types":{"4":25,"16":1},"place_type":"0","rack_locks":"1"},{"uid":"2585391","lat":"52.228522296173","lng":"20.969638824463","name":"Kasprzaka - Skierniewicka","spot":"1","number":"9475","bikes":"12","bike_racks":"21","free_racks":"9","terminal_type":"7inch","bike_numbers":"28819,28468,28437,28257,27875,27526,27322,26171,25504,29387,28829,96024","bike_types":{"4":12},"place_type":"0","rack_locks":"1"},{"uid":"2585394","lat":"52.22898","lng":"20.97843","name":"Kasprzaka - Karolkowa","spot":"1","number":"9476","bikes":"0","bike_racks":"15","free_racks":"15","terminal_type":"7inch","place_type":"0","rack_locks":"1","bike_numbers":null,"bike_types":[]},{"uid":"2585396","lat":"52.2328752","lng":"20.9805411","name":"Muzeum Powstania Warszawskiego","spot":"1","number":"9477","bikes":"3","bike_racks":"10","free_racks":"8","terminal_type":"7inch","bike_numbers":"28212,27296,25399","bike_types":{"4":3},"place_type":"0","rack_locks":"1"},{"uid":"2585398","lat":"52.22983","lng":"20.983123","name":"Metro Rondo Daszy\u0144skiego","spot":"1","number":"9478","bikes":"2","bike_racks":"26","free_racks":"23","terminal_type":"7inch","bike_numbers":"27811,26339","bike_types":{"4":2},"place_type":"0","rack_locks":"1"},{"uid":"2585400","lat":"52.23145","lng":"20.98869","name":"Prosta - Wronia","spot":"1","number":"9479","bikes":"1","bike_racks":"15","free_racks":"13","terminal_type":"7inch","bike_numbers":"25355","bike_types":{"4":1},"place_type":"0","rack_locks":"1"},{"uid":"2585401","lat":"52.2373141","lng":"20.9888488","name":"\u017belazna - Ch\u0142odna","spot":"1","number":"9480","bikes":"2","bike_racks":"15","free_racks":"11","terminal_type":"7inch","bike_numbers":"28978,96406","bike_types":{"4":2},"place_type":"0","rack_locks":"1"},{"uid":"2585402","lat":"52.2344946","lng":"20.9905117","name":"\u017belazna - Grzybowska","spot":"1","number":"9481","bikes":"5","bike_racks":"20","free_racks":"15","terminal_type":"7inch","bike_numbers":"24907,24646,25568,25088,29086","bike_types":{"4":5},"place_type":"0","rack_locks":"1"},{"uid":"2585405","lat":"52.238666","lng":"20.9957314","name":"al. Jana Paw\u0142a II - Plac Mirowski","spot":"1","number":"9482","bikes":"1","bike_racks":"16","free_racks":"16","terminal_type":"7inch","bike_numbers":"27885","bike_types":{"4":1},"place_type":"0","rack_locks":"1"},{"uid":"2585406","lat":"52.2357151","lng":"20.9966071","name":"al. Jana Paw\u0142a II - Grzybowska","spot":"1","number":"9483","bikes":"0","bike_racks":"23","free_racks":"21","terminal_type":"7inch","place_type":"0","rack_locks":"1","bike_numbers":null,"bike_types":[]},{"uid":"2585410","lat":"52.23958","lng":"21.00027","name":"Ptasia - Zimna","spot":"1","number":"9485","bikes":"1","bike_racks":"16","free_racks":"16","terminal_type":"7inch","bike_numbers":"25788","bike_types":{"4":1},"place_type":"0","rack_locks":"1"},{"uid":"2585412","lat":"52.2336314","lng":"21.0028795","name":"Emilii Plater - \u015awi\u0119tokrzyska","spot":"1","number":"9486","bikes":"4","bike_racks":"26","free_racks":"22","terminal_type":"7inch","bike_numbers":"24874,28595,25540,25278","bike_types":{"4":4},"place_type":"0","rack_locks":"1"},{"uid":"2585413","lat":"52.2358704","lng":"21.0037806","name":"Plac Grzybowski","spot":"1","number":"9487","bikes":"1","bike_racks":"26","free_racks":"23","terminal_type":"7inch","bike_numbers":"28934","bike_types":{"4":1},"place_type":"0","rack_locks":"1"},{"uid":"2585416","lat":"52.2384853","lng":"21.0067552","name":"Marsza\u0142kowska - Kr\u00f3lewska","spot":"1","number":"9488","bikes":"2","bike_racks":"19","free_racks":"19","terminal_type":"7inch","bike_numbers":"28060,27235","bike_types":{"4":2},"place_type":"0","rack_locks":"1"},{"uid":"2585417","lat":"52.2364206","lng":"21.0072407","name":"Marsza\u0142kowska - Zielna","spot":"1","number":"9489","bikes":"3","bike_racks":"30","free_racks":"27","terminal_type":"7inch","bike_numbers":"24501,26751,25425","bike_types":{"4":3},"place_type":"0","rack_locks":"1"},{"uid":"2585420","lat":"52.2397008","lng":"21.0119292","name":"Plac Ma\u0142achowskiego","spot":"1","number":"9491","bikes":"4","bike_racks":"16","free_racks":"13","terminal_type":"7inch","bike_numbers":"24914,26901,25524,29026","bike_types":{"4":4},"place_type":"0","rack_locks":"1"},{"uid":"2585422","lat":"52.2359114","lng":"21.0135654","name":"Plac Powsta\u0144c\u00f3w Warszawy","spot":"1","number":"9492","bikes":"2","bike_racks":"20","free_racks":"18","terminal_type":"7inch","bike_numbers":"25843,96109","bike_types":{"4":2},"place_type":"0","rack_locks":"1"},{"uid":"2585423","lat":"52.2393559","lng":"21.016603","name":"Krakowskie Przedmie\u015bcie - Traugutta","spot":"1","number":"9493","bikes":"18","bike_racks":"24","free_racks":"5","terminal_type":"7inch","bike_numbers":"24580,28504,27565,27395,27346,27129,27066,26962,26738,26472,26128,25554,25551,25347,29002,28814,28985,29186","bike_types":{"4":18},"place_type":"0","rack_locks":"1"},{"uid":"2585429","lat":"52.238298","lng":"21.0184014","name":"Obo\u017ana - Kopernika","spot":"1","number":"9495","bikes":"7","bike_racks":"22","free_racks":"15","terminal_type":"7inch","bike_numbers":"24545,28080,27182,25923,25803,96023,96573","bike_types":{"4":7},"place_type":"0","rack_locks":"1"},{"uid":"2585430","lat":"52.24190654256","lng":"21.024259328842","name":"Lipowa - Dobra","spot":"1","number":"9496","bikes":"14","bike_racks":"19","free_racks":"4","terminal_type":"7inch","bike_numbers":"24664,27880,27699,27687,27600,27371,26788,26556,26252,26170,28826,96564,29190,29219","bike_types":{"4":14},"place_type":"0","rack_locks":"1"},{"uid":"2585431","lat":"52.2413087","lng":"21.0281727","name":"Centrum Nauki Kopernik","spot":"1","number":"9497","bikes":"35","bike_racks":"30","free_racks":"2","terminal_type":"7inch","bike_numbers":"24933,24864,25006,28720,28636,28405,28310,28042,28020,27910,27693,27419,27293,27096,26951,26933,26910,26713,26522,26219,26158,25837,25826,25369,29646,28776,28977,28962,96442,96315,96260,96255,96202,29244,29217","bike_types":{"4":35},"place_type":"0","rack_locks":"1"},{"uid":"2585432","lat":"52.2264464","lng":"20.9837164","name":"Kolejowa","spot":"1","number":"9498","bikes":"13","bike_racks":"16","free_racks":"2","terminal_type":"7inch","bike_numbers":"24885,24611,27269,27190,27049,26183,26118,25967,25863,25465,25145,28840,96419","bike_types":{"4":13},"place_type":"0","rack_locks":"1"},{"uid":"2585433","lat":"52.22983","lng":"20.993996","name":"\u017belazna - Sienna","spot":"1","number":"9499","bikes":"4","bike_racks":"24","free_racks":"19","terminal_type":"7inch","bike_numbers":"24955,26273,26240,26179","bike_types":{"4":4},"place_type":"0","rack_locks":"1"},{"uid":"2585435","lat":"52.230201297582","lng":"20.999550819397","name":"al. Jana Paw\u0142a II - Z\u0142ota","spot":"1","number":"9500","bikes":"9","bike_racks":"16","free_racks":"7","terminal_type":"7inch","bike_numbers":"24745,28761,28276,28220,27064,26617,26203,25340,25333","bike_types":{"4":9},"place_type":"0","rack_locks":"1"},{"uid":"2585438","lat":"52.2309778","lng":"21.0036755","name":"Emilii Plater - Z\u0142ota","spot":"1","number":"9501","bikes":"5","bike_racks":"30","free_racks":"24","terminal_type":"7inch","bike_numbers":"24854,26270,25496,25151,96282","bike_types":{"4":5},"place_type":"0","rack_locks":"1"},{"uid":"2585440","lat":"52.232816601853","lng":"21.006980538368","name":"Pa\u0142ac Kultury i Nauki","spot":"1","number":"9502","bikes":"4","bike_racks":"17","free_racks":"13","terminal_type":"7inch","bike_numbers":"24801,25932,28894,96169","bike_types":{"4":4},"place_type":"0","rack_locks":"1"},{"uid":"2585442","lat":"52.232934","lng":"21.0101791","name":"Marsza\u0142kowska - Z\u0142ota","spot":"1","number":"9503","bikes":"4","bike_racks":"22","free_racks":"19","terminal_type":"7inch","bike_numbers":"24718,27661,25822,96521","bike_types":{"4":4},"place_type":"0","rack_locks":"1"},{"uid":"2585445","lat":"52.231987","lng":"21.016092","name":"Bracka - Krucza","spot":"1","number":"9504","bikes":"9","bike_racks":"20","free_racks":"10","terminal_type":"7inch","bike_numbers":"27743,27470,27374,26079,25708,25681,25384,25310,96060","bike_types":{"4":9},"place_type":"0","rack_locks":"1"},{"uid":"2585446","lat":"52.2355713","lng":"21.0179642","name":"Nowy \u015awiat - Warecka","spot":"1","number":"9505","bikes":"14","bike_racks":"24","free_racks":"11","terminal_type":"7inch","bike_numbers":"28269,27876,27814,27810,27202,27179,26420,26412,25913,25058,29076,29445,28988,96339","bike_types":{"4":14},"place_type":"0","rack_locks":"1"},{"uid":"2585447","lat":"52.2337571","lng":"21.0202789","name":"Ga\u0142czy\u0144skiego - Foksal","spot":"1","number":"9506","bikes":"10","bike_racks":"24","free_racks":"16","terminal_type":"7inch","bike_numbers":"24492,28703,28332,28154,27889,27593,27574,26613,96178,96121","bike_types":{"51":1,"4":9},"place_type":"0","rack_locks":"1"},{"uid":"2585450","lat":"52.2375934","lng":"21.0256487","name":"Topiel - Tamka","spot":"1","number":"9507","bikes":"12","bike_racks":"20","free_racks":"6","terminal_type":"7inch","bike_numbers":"24895,24602,24524,28155,28098,27510,26958,25649,25013,29456,96014,96280","bike_types":{"4":12},"place_type":"0","rack_locks":"1"},{"uid":"2585452","lat":"52.2358752","lng":"21.0317323","name":"Solec - Jaracza","spot":"1","number":"9508","bikes":"18","bike_racks":"15","free_racks":"0","terminal_type":"7inch","bike_numbers":"28602,28593,28460,27675,27315,27088,27030,27010,26942,26482,26463,26371,26289,26147,25744,28842,28835,96528","bike_types":{"4":18},"place_type":"0","rack_locks":"1"},{"uid":"2585453","lat":"52.2218874","lng":"20.9795301","name":"al. Jerozolimskie - Niemcewicza","spot":"1","number":"9509","bikes":"2","bike_racks":"19","free_racks":"16","terminal_type":"7inch","bike_numbers":"24673,25228","bike_types":{"4":2},"place_type":"0","rack_locks":"1"},{"uid":"2585455","lat":"52.2222155","lng":"20.9866293","name":"Ochota-Ratusz","spot":"1","number":"9510","bikes":"1","bike_racks":"23","free_racks":"22","terminal_type":"7inch","bike_numbers":"25801","bike_types":{"4":1},"place_type":"0","rack_locks":"1"},{"uid":"2585457","lat":"52.2249718","lng":"20.9897661","name":"Plac Zawiszy","spot":"1","number":"9511","bikes":"3","bike_racks":"24","free_racks":"21","terminal_type":"7inch","bike_numbers":"26917,26069,25016","bike_types":{"4":3},"place_type":"0","rack_locks":"1"},{"uid":"2585460","lat":"52.22626","lng":"20.9961309","name":"al. Jerozolimskie - Lindleya","spot":"1","number":"9512","bikes":"3","bike_racks":"15","free_racks":"12","terminal_type":"7inch","bike_numbers":"24967,24040,28474","bike_types":{"4":2,"26":1},"place_type":"0","rack_locks":"1"},{"uid":"2585462","lat":"52.2241455","lng":"20.9975244","name":"Lindleya - szpital","spot":"1","number":"9513","bikes":"26","bike_racks":"28","free_racks":"2","terminal_type":"7inch","bike_numbers":"24992,24795,24520,28563,28547,28485,27477,27403,26916,26885,26772,26662,26518,26484,26396,26315,26142,25298,25095,29344,29113,29365,96241,96099,96095,96586","bike_types":{"4":26},"place_type":"0","rack_locks":"1"},{"uid":"2585464","lat":"52.227861","lng":"21.0008509","name":"Warszawa \u015ar\u00f3dmie\u015bcie WKD","spot":"1","number":"9514","bikes":"7","bike_racks":"18","free_racks":"11","terminal_type":"7inch","bike_numbers":"28704,27823,27787,26711,26552,96461,96290","bike_types":{"4":7},"place_type":"0","rack_locks":"1"},{"uid":"2585466","lat":"52.2249555","lng":"21.0031664","name":"Oczki - WUM","spot":"1","number":"9515","bikes":"9","bike_racks":"19","free_racks":"10","terminal_type":"7inch","bike_numbers":"24877,24732,28142,27174,27008,26323,26141,26124,28857","bike_types":{"4":9},"place_type":"0","rack_locks":"1"},{"uid":"2585469","lat":"52.2290464","lng":"21.0054544","name":"Emilii Plater - Al. Jerozolimskie","spot":"1","number":"9517","bikes":"12","bike_racks":"30","free_racks":"17","terminal_type":"7inch","bike_numbers":"24995,24737,28608,28079,27962,26785,26767,26209,25654,25478,25353,28964","bike_types":{"4":12},"place_type":"0","rack_locks":"1"},{"uid":"2585470","lat":"52.2259343","lng":"21.0067537","name":"Emilii Plater - Wsp\u00f3lna","spot":"1","number":"9518","bikes":"1","bike_racks":"15","free_racks":"14","terminal_type":"7inch","bike_numbers":"25729","bike_types":{"4":1},"place_type":"0","rack_locks":"1"},{"uid":"2585472","lat":"52.23001","lng":"21.01088","name":"Metro Centrum","spot":"1","number":"9519","bikes":"11","bike_racks":"30","free_racks":"19","terminal_type":"7inch","bike_numbers":"24753,24455,28678,27610,26740,26445,25748,25214,96431,96373,96585","bike_types":{"4":10,"51":1},"place_type":"0","rack_locks":"1"},{"uid":"2585473","lat":"52.229347019086","lng":"21.011314988136","name":"Marsza\u0142kowska - Al. Jerozolimskie","spot":"1","number":"9520","bikes":"2","bike_racks":"20","free_racks":"17","terminal_type":"7inch","bike_numbers":"96427,29168","bike_types":{"4":2},"place_type":"0","rack_locks":"1"},{"uid":"2585476","lat":"52.230418150276","lng":"21.013610959053","name":"al. Jerozolimskie - rejon Rotundy","spot":"1","number":"9521","bikes":"7","bike_racks":"24","free_racks":"17","terminal_type":"7inch","bike_numbers":"24908,24589,27231,25547,25074,96214,29172","bike_types":{"4":7},"place_type":"0","rack_locks":"1"},{"uid":"2585477","lat":"52.2262882","lng":"21.0135705","name":"Marsza\u0142kowska - Ho\u017ca","spot":"1","number":"9522","bikes":"4","bike_racks":"15","free_racks":"9","terminal_type":"7inch","bike_numbers":"27012,26989,26814,96516","bike_types":{"4":4},"place_type":"0","rack_locks":"1"},{"uid":"2585492","lat":"52.2282923","lng":"21.0178542","name":"Krucza - Wsp\u00f3lna","spot":"1","number":"9523","bikes":"0","bike_racks":"28","free_racks":"27","terminal_type":"7inch","place_type":"0","rack_locks":"1","bike_numbers":null,"bike_types":[]},{"uid":"2585684","lat":"52.23144","lng":"21.0213036","name":"Rondo de Gaulle'a","spot":"1","number":"9524","bikes":"3","bike_racks":"22","free_racks":"19","terminal_type":"7inch","bike_numbers":"27819,96081,29280","bike_types":{"4":3},"place_type":"0","rack_locks":"1"},{"uid":"2585694","lat":"52.2278487","lng":"21.0235084","name":"Plac Trzech Krzy\u017cy","spot":"1","number":"9525","bikes":"5","bike_racks":"23","free_racks":"18","maintenance":"1","terminal_type":"7inch","bike_numbers":"24734,26996,26981,26266,29084","bike_types":{"4":5},"place_type":"0","rack_locks":"1"},{"uid":"2585695","lat":"52.23324","lng":"21.0261179","name":"Smolna - PKP Powi\u015ble","spot":"1","number":"9526","bikes":"7","bike_racks":"18","free_racks":"11","terminal_type":"7inch","bike_numbers":"24565,27079,26057,29021,96142,29216,24052","bike_types":{"4":6,"26":1},"place_type":"0","rack_locks":"1"},{"uid":"2585699","lat":"52.2340191","lng":"21.0300328","name":"Herberta - PKP Powi\u015ble","spot":"1","number":"9527","bikes":"25","bike_racks":"26","free_racks":"5","terminal_type":"7inch","bike_numbers":"24875,24859,24459,28457,28441,28121,27809,27757,27615,27433,26912,26800,26208,26071,25643,25132,29419,29448,29554,28867,28888,28918,96381,96304,29183","bike_types":{"4":24,"51":1},"place_type":"0","rack_locks":"1"},{"uid":"2585704","lat":"52.2347879","lng":"21.0340991","name":"Solec - al. 3 Maja","spot":"1","number":"9528","bikes":"29","bike_racks":"24","free_racks":"0","terminal_type":"7inch","bike_numbers":"24735,24553,28685,28663,28486,28472,28458,28102,27633,27606,27517,27181,27126,27108,27045,27006,26601,26259,26201,25911,25842,25721,25668,25010,96359,96262,96186,29192,96576","bike_types":{"4":29},"place_type":"0","rack_locks":"1"},{"uid":"2585708","lat":"52.2301405","lng":"21.0303694","name":"Ksi\u0105\u017c\u0119ca - Rozbrat","spot":"1","number":"9529","bikes":"17","bike_racks":"15","free_racks":"1","terminal_type":"7inch","bike_numbers":"24881,28749,28565,28429,28406,28157,28019,27803,27779,27685,27420,27186,26543,25460,25342,96478,96467","bike_types":{"4":17},"place_type":"0","rack_locks":"1"},{"uid":"2585711","lat":"52.2172177","lng":"20.9713608","name":"Szcz\u0119\u015bliwicka - APS","spot":"1","number":"9530","bikes":"13","bike_racks":"22","free_racks":"9","terminal_type":"7inch","bike_numbers":"24773,24033,27979,27486,27344,25947,25391,25363,25120,29458,96377,96246,29252","bike_types":{"4":12,"26":1},"place_type":"0","rack_locks":"1"},{"uid":"2585712","lat":"52.2179474","lng":"20.9775567","name":"Kopi\u0144ska - Bia\u0142obrzeska","spot":"1","number":"9531","bikes":"6","bike_racks":"15","free_racks":"8","terminal_type":"7inch","bike_numbers":"28580,26833,26559,26156,25778,96500","bike_types":{"4":6},"place_type":"0","rack_locks":"1"},{"uid":"2585714","lat":"52.2178554","lng":"20.9828138","name":"Plac Narutowicza","spot":"1","number":"9532","bikes":"6","bike_racks":"30","free_racks":"21","terminal_type":"7inch","bike_numbers":"24853,24622,24478,27384,29022,96410","bike_types":{"4":5,"51":1},"place_type":"0","rack_locks":"1"},{"uid":"2585716","lat":"52.216641","lng":"20.9879476","name":"Raszy\u0144ska - Wawelska","spot":"1","number":"9533","bikes":"1","bike_racks":"12","free_racks":"9","terminal_type":"7inch","bike_numbers":"27946","bike_types":{"4":1},"place_type":"0","rack_locks":"1"},{"uid":"2585717","lat":"52.2191029","lng":"20.9890149","name":"Raszy\u0144ska - Filtrowa","spot":"1","number":"9534","bikes":"1","bike_racks":"18","free_racks":"15","terminal_type":"7inch","bike_numbers":"26342","bike_types":{"4":1},"place_type":"0","rack_locks":"1"},{"uid":"2585720","lat":"52.220676","lng":"21.0045554","name":"al. Niepodleg\u0142o\u015bci - Nowowiejska","spot":"1","number":"9535","bikes":"1","bike_racks":"30","free_racks":"29","terminal_type":"7inch","bike_numbers":"96243","bike_types":{"4":1},"place_type":"0","rack_locks":"1"},{"uid":"2585721","lat":"52.2174693","lng":"21.0056537","name":"Kaczy\u0144skiego - al. Niepodleg\u0142o\u015bci","spot":"1","number":"9536","bikes":"10","bike_racks":"16","free_racks":"5","terminal_type":"7inch","bike_numbers":"24987,24657,28759,27890,26471,25880,25648,25239,28996,96527","bike_types":{"4":10},"place_type":"0","rack_locks":"1"},{"uid":"2585722","lat":"52.2226831","lng":"21.0081097","name":"Noakowskiego - Koszykowa","spot":"1","number":"9537","bikes":"3","bike_racks":"24","free_racks":"21","terminal_type":"7inch","bike_numbers":"27546,26750,25927","bike_types":{"4":3},"place_type":"0","rack_locks":"1"},{"uid":"2585724","lat":"52.219916","lng":"21.0116824","name":"Plac Politechniki","spot":"1","number":"9538","bikes":"2","bike_racks":"27","free_racks":"25","terminal_type":"7inch","bike_numbers":"25038,96407","bike_types":{"4":2},"place_type":"0","rack_locks":"1"},{"uid":"2585727","lat":"52.223503","lng":"21.0128519","name":"Pozna\u0144ska - Zesp\u00f3\u0142 Szk\u00f3\u0142 Gastronomicznych","spot":"1","number":"9539","bikes":"0","bike_racks":"18","free_racks":"18","terminal_type":"7inch","place_type":"0","rack_locks":"1","bike_numbers":null,"bike_types":[]},{"uid":"2585728","lat":"52.2174857","lng":"21.0142949","name":"Rondo Jazdy Polskiej","spot":"1","number":"9540","bikes":"0","bike_racks":"24","free_racks":"24","terminal_type":"7inch","place_type":"0","rack_locks":"1","bike_numbers":null,"bike_types":[]},{"uid":"2585729","lat":"52.2197435","lng":"21.0157353","name":"Metro Politechnika - Nowowiejska","spot":"1","number":"9541","bikes":"3","bike_racks":"18","free_racks":"14","terminal_type":"7inch","bike_numbers":"27692,29050,96363","bike_types":{"4":3},"place_type":"0","rack_locks":"1"},{"uid":"2585731","lat":"52.2197681","lng":"21.0172775","name":"Plac Zbawiciela","spot":"1","number":"9542","bikes":"0","bike_racks":"12","free_racks":"10","terminal_type":"7inch","place_type":"0","rack_locks":"1","bike_numbers":null,"bike_types":[]},{"uid":"2585735","lat":"52.2229427","lng":"21.0158211","name":"Plac Konstytucji","spot":"1","number":"9543","bikes":"0","bike_racks":"30","free_racks":"30","terminal_type":"7inch","place_type":"0","rack_locks":"1","bike_numbers":null,"bike_types":[]},{"uid":"2585737","lat":"52.2238152","lng":"21.0207859","name":"Mokotowska - Pi\u0119kna","spot":"1","number":"9544","bikes":"16","bike_racks":"20","free_racks":"7","terminal_type":"7inch","bike_numbers":"24965,24693,28747,28193,27888,27586,27369,27264,26660,26103,26007,25756,25686,25576,28833,96558","bike_types":{"4":16},"place_type":"0","rack_locks":"1"},{"uid":"2585738","lat":"52.2200212","lng":"21.0256299","name":"Plac na Rozdro\u017cu","spot":"1","number":"9545","bikes":"5","bike_racks":"26","free_racks":"18","terminal_type":"7inch","bike_numbers":"24716,27897,27444,25344,25258","bike_types":{"4":5},"place_type":"0","rack_locks":"1"},{"uid":"2585742","lat":"52.2249504","lng":"21.0268155","name":"Matejki - Wiejska","spot":"1","number":"9546","bikes":"25","bike_racks":"20","free_racks":"3","terminal_type":"7inch","bike_numbers":"24823,24476,24465,28766,28558,28011,27884,27882,27582,26771,26481,26101,26061,25824,25792,25393,25337,25173,25020,29347,25627,96568,96503,96309,96211","bike_types":{"4":23,"51":2},"place_type":"0","rack_locks":"1"},{"uid":"2585747","lat":"52.2221129","lng":"21.0343873","name":"My\u015bliwiecka - Rozbrat","spot":"1","number":"9547","bikes":"27","bike_racks":"21","free_racks":"0","terminal_type":"7inch","bike_numbers":"28567,28283,28153,28120,27960,27775,27711,27312,27210,27156,26965,26944,26926,26830,26248,26211,26164,26028,25859,29073,29357,28805,96492,96477,96466,96231,96188","bike_types":{"4":27},"place_type":"0","rack_locks":"1"},{"uid":"2585748","lat":"52.2277124","lng":"21.0442955","name":"Port Czerniakowski","spot":"1","number":"9548","bikes":"35","bike_racks":"30","free_racks":"4","terminal_type":"7inch","bike_numbers":"24973,24865,24861,24802,24502,28802,28604,28579,28573,28495,28375,28355,27836,27701,27640,27218,27171,27125,26571,26490,26478,25773,25299,25243,29083,29044,29459,25622,28972,28970,96026,96565,96520,96313,24048","bike_types":{"4":34,"26":1},"place_type":"0","rack_locks":"1"},{"uid":"2585749","lat":"52.2109711","lng":"20.9759125","name":"Gr\u00f3jecka - Bitwy Warszawskiej 1920 roku","spot":"1","number":"9549","bikes":"3","bike_racks":"20","free_racks":"13","terminal_type":"7inch","bike_numbers":"28570,27707,96353","bike_types":{"4":3},"place_type":"0","rack_locks":"1"},{"uid":"2585750","lat":"52.2130296","lng":"20.9819985","name":"Pasteura - Winnicka - UW","spot":"1","number":"9550","bikes":"0","bike_racks":"24","free_racks":"20","terminal_type":"7inch","place_type":"0","rack_locks":"1","bike_numbers":null,"bike_types":[]},{"uid":"2585762","lat":"52.2107722","lng":"20.9847557","name":"Stefana Banacha - UW","spot":"1","number":"9551","bikes":"8","bike_racks":"29","free_racks":"14","terminal_type":"7inch","bike_numbers":"27259,27016,26766,26422,25741,25259,29098,60854","bike_types":{"4":8},"place_type":"0","rack_locks":"1"},{"uid":"2585764","lat":"52.212671","lng":"21.003437","name":"Biblioteka Narodowa","spot":"1","number":"9552","bikes":"2","bike_racks":"24","free_racks":"20","terminal_type":"7inch","bike_numbers":"25308,25116","bike_types":{"4":2},"place_type":"0","rack_locks":"1"},{"uid":"2585766","lat":"52.21691","lng":"21.01997","name":"Marsza\u0142kowska - Litewska","spot":"1","number":"9553","bikes":"7","bike_racks":"15","free_racks":"8","terminal_type":"7inch","bike_numbers":"27132,26760,26438,25431,25027,96556,29156","bike_types":{"4":7},"place_type":"0","rack_locks":"1"},{"uid":"2585770","lat":"52.2083858","lng":"20.9631103","name":"P\u0119tla Szcz\u0119\u015bliwice","spot":"1","number":"9554","bikes":"19","bike_racks":"19","free_racks":"4","terminal_type":"7inch","bike_numbers":"24858,24777,24482,28804,28112,28034,27848,27485,27421,27289,26742,26725,26426,25844,25062,25024,96006,96125,29169","bike_types":{"4":18,"51":1},"place_type":"0","rack_locks":"1"},{"uid":"2585771","lat":"52.206153650625","lng":"20.970287919044","name":"Dickensa - Geodet\u00f3w","spot":"1","number":"9555","bikes":"7","bike_racks":"16","free_racks":"7","terminal_type":"7inch","bike_numbers":"28476,28325,27355,27141,25644,25583,25167","bike_types":{"4":7},"place_type":"0","rack_locks":"1"},{"uid":"2585772","lat":"52.205361371875","lng":"20.984664559364","name":"\u017bwirki i Wigury - Ksi\u0119cia Trojdena","spot":"1","number":"9556","bikes":"5","bike_racks":"17","free_racks":"12","terminal_type":"7inch","bike_numbers":"28286,28216,28190,25858,96082","bike_types":{"4":5},"place_type":"0","rack_locks":"1"},{"uid":"2585774","lat":"52.205801893754","lng":"20.998928546906","name":"Rakowiecka - \u015aw. A. Boboli","spot":"1","number":"9557","bikes":"5","bike_racks":"17","free_racks":"13","terminal_type":"7inch","bike_numbers":"24850,24717,28335,26649,26378","bike_types":{"4":5},"place_type":"0","rack_locks":"1"},{"uid":"2585776","lat":"52.209916","lng":"21.0067794","name":"al. Niepodleg\u0142o\u015bci - Batorego","spot":"1","number":"9558","bikes":"23","bike_racks":"26","free_racks":"4","terminal_type":"7inch","bike_numbers":"28722,28473,28358,28253,28149,28038,27082,26871,26741,26358,26232,26068,25800,25452,25427,25373,25218,25177,29656,96474,96473,96270,96254","bike_types":{"4":23},"place_type":"0","rack_locks":"1"},{"uid":"2585779","lat":"52.2132375","lng":"21.0210568","name":"Plac Unii Lubelskiej","spot":"1","number":"9559","bikes":"2","bike_racks":"24","free_racks":"22","terminal_type":"7inch","bike_numbers":"27390,25175","bike_types":{"4":2},"place_type":"0","rack_locks":"1"},{"uid":"2585781","lat":"52.2027557","lng":"20.9508951","name":"W\u0142odarzewska - Maszynowa","spot":"1","number":"9560","bikes":"9","bike_racks":"18","free_racks":"7","terminal_type":"7inch","bike_numbers":"24642,27684,27074,26436,25978,25430,96469,96253,96108","bike_types":{"4":9},"place_type":"0","rack_locks":"1"},{"uid":"2585782","lat":"52.2017647","lng":"20.9820897","name":"Sanocka - Pruszkowska","spot":"1","number":"9561","bikes":"9","bike_racks":"15","free_racks":"6","terminal_type":"7inch","bike_numbers":"27148,27133,26145,25640,29143,28777,96402,96295,29282","bike_types":{"4":8,"0":1},"place_type":"0","rack_locks":"1"},{"uid":"2585785","lat":"52.1981365","lng":"20.9833717","name":"\u017bwirki i Wigury - Rac\u0142awicka","spot":"1","number":"9562","bikes":"1","bike_racks":"18","free_racks":"12","terminal_type":"7inch","bike_numbers":"27660","bike_types":{"4":1},"place_type":"0","rack_locks":"1"},{"uid":"2585787","lat":"52.20177","lng":"20.99969","name":"Wo\u0142oska - Kulskiego","spot":"1","number":"9563","bikes":"0","bike_racks":"15","free_racks":"15","terminal_type":"7inch","place_type":"0","rack_locks":"1","bike_numbers":null,"bike_types":[]},{"uid":"2585788","lat":"52.2042638","lng":"21.014428","name":"Madali\u0144skiego - Kazimierzowska","spot":"1","number":"9564","bikes":"20","bike_racks":"24","free_racks":"4","terminal_type":"7inch","bike_numbers":"24991,24483,28561,28446,28106,27568,27508,27188,26919,26579,26039,25706,25525,25511,29338,29089,28808,96480,96152,96151","bike_types":{"4":19,"51":1},"place_type":"0","rack_locks":"1"},{"uid":"2585789","lat":"52.2055175","lng":"21.0231033","name":"Pu\u0142awska - Dworkowa","spot":"1","number":"9565","bikes":"15","bike_racks":"19","free_racks":"4","terminal_type":"7inch","bike_numbers":"24550,24539,28555,27362,26867,26585,26581,26288,25655,25241,25069,29104,29641,96167,29257","bike_types":{"4":15},"place_type":"0","rack_locks":"1"},{"uid":"2585790","lat":"52.2071756","lng":"21.0312643","name":"Belwederska - Gagarina","spot":"1","number":"9566","bikes":"43","bike_racks":"30","free_racks":"0","terminal_type":"7inch","bike_numbers":"24916,24781,24656,24654,24612,24569,24469,28674,28644,28494,28482,28062,28041,27705,27409,27262,27100,26983,26694,26580,26516,26369,26073,26003,25938,25871,25851,25722,25518,25489,25454,25408,25338,29078,28938,29359,28830,28969,96048,96545,96479,96414,96083","bike_types":{"4":42,"51":1},"place_type":"0","rack_locks":"1"},{"uid":"2585791","lat":"52.2074193","lng":"21.0479621","name":"Czerniakowska - Gagarina","spot":"1","number":"9567","bikes":"48","bike_racks":"25","free_racks":"6","terminal_type":"7inch","bike_numbers":"24831,24816,24645,24607,24584,24534,28737,28723,28683,28626,28586,28341,28136,27956,27927,27652,27488,27401,27343,27266,27017,26964,26927,26850,26821,26591,26309,26285,26115,26042,26006,25992,25990,25589,25533,25118,25098,25086,25046,29077,28935,96485,96447,96426,96421,96193,29165,29206","bike_types":{"4":48},"place_type":"0","rack_locks":"1"},{"uid":"2585794","lat":"52.1938131","lng":"20.9914431","name":"Etiudy Rewolucyjnej - Mi\u0105czy\u0144ska","spot":"1","number":"9568","bikes":"18","bike_racks":"18","free_racks":"0","terminal_type":"7inch","bike_numbers":"24866,24596,28537,28338,27626,27247,27244,27004,26596,26172,25875,25849,25636,28950,29123,96033,96444,29218","bike_types":{"4":17,"0":1},"place_type":"0","rack_locks":"1"},{"uid":"2585799","lat":"52.1994156","lng":"21.0121384","name":"Metro Rac\u0142awicka","spot":"1","number":"9570","bikes":"24","bike_racks":"30","free_racks":"1","terminal_type":"7inch","bike_numbers":"24844,24832,24655,28755,28735,28538,28321,28117,27881,27866,27611,27368,27283,27051,26282,26054,26024,26009,25651,25420,96028,96450,96323,29148","bike_types":{"4":24},"place_type":"0","rack_locks":"1"},{"uid":"2585800","lat":"52.199505","lng":"21.0240975","name":"Pu\u0142awska - Dolna","spot":"1","number":"9571","bikes":"13","bike_racks":"18","free_racks":"4","terminal_type":"7inch","bike_numbers":"24536,28196,27541,27392,27063,27036,26586,25974,25945,25388,25186,96342,96089","bike_types":{"4":13},"place_type":"0","rack_locks":"1"},{"uid":"2585802","lat":"52.2014754","lng":"21.0360047","name":"Sobieskiego - Che\u0142mska","spot":"1","number":"9572","bikes":"21","bike_racks":"15","free_racks":"6","terminal_type":"7inch","bike_numbers":"24873,24771,28576,28546,28469,27831,27790,27670,27391,27095,27047,26945,26889,26561,26010,25341,25249,25109,28909,96010,96268","bike_types":{"4":21},"place_type":"0","rack_locks":"1"},{"uid":"2585804","lat":"52.1998446","lng":"21.05095","name":"Czerniakowska - ZUS","spot":"1","number":"9573","bikes":"21","bike_racks":"15","free_racks":"1","terminal_type":"7inch","bike_numbers":"24929,24905,28698,28502,28331,28315,28040,28025,27741,27139,26839,26384,26308,26065,25255,29134,96490,96417,96184,29259,29251","bike_types":{"4":21},"place_type":"0","rack_locks":"1"},{"uid":"2585807","lat":"52.1916776","lng":"20.8689688","name":"PKP Ursus-Nied\u017awiadek","spot":"1","number":"9574","bikes":"1","bike_racks":"15","free_racks":"13","terminal_type":"7inch","bike_numbers":"27598","bike_types":{"4":1},"place_type":"0","rack_locks":"1"},{"uid":"2585808","lat":"52.1960469","lng":"20.8849347","name":"PKP Ursus","spot":"1","number":"9575","bikes":"8","bike_racks":"16","free_racks":"7","terminal_type":"7inch","bike_numbers":"24968,27464,26328,26324,25888,25667,25221,29639","bike_types":{"4":8},"place_type":"0","rack_locks":"1"},{"uid":"2585809","lat":"52.1869936","lng":"20.8906478","name":"Sosnkowskiego - OSiR Ursus","spot":"1","number":"9576","bikes":"9","bike_racks":"15","free_racks":"6","terminal_type":"7inch","bike_numbers":"24576,28336,28122,27569,26350,25897,25786,25256,96091","bike_types":{"4":9},"place_type":"0","rack_locks":"1"},{"uid":"2585811","lat":"52.2005548","lng":"20.8937538","name":"Ursus-Ratusz","spot":"1","number":"9577","bikes":"7","bike_racks":"15","free_racks":"8","terminal_type":"7inch","bike_numbers":"28905,28135,26708,26602,26397,25733,29452","bike_types":{"4":7},"place_type":"0","rack_locks":"1"},{"uid":"2585814","lat":"52.1906376","lng":"20.8999443","name":"Skoroszewska - Prystora","spot":"1","number":"9578","bikes":"17","bike_racks":"17","free_racks":"0","terminal_type":"7inch","bike_numbers":"24958,24016,28668,28591,28424,28287,27942,27735,27131,26457,25469,25436,25304,25194,28921,96525,96301","bike_types":{"4":16,"26":1},"place_type":"0","rack_locks":"1"},{"uid":"2585817","lat":"52.1882609","lng":"20.9603771","name":"G\u0142adka - OSiR W\u0142ochy","spot":"1","number":"9579","bikes":"4","bike_racks":"16","free_racks":"10","terminal_type":"7inch","bike_numbers":"27272,26715,25494,28890","bike_types":{"4":4},"place_type":"0","rack_locks":"1"},{"uid":"2585820","lat":"52.2056441","lng":"20.9159142","name":"PKP W\u0142ochy","spot":"1","number":"9580","bikes":"4","bike_racks":"17","free_racks":"12","terminal_type":"7inch","bike_numbers":"27918,27466,96400,96217","bike_types":{"4":4},"place_type":"0","rack_locks":"1"},{"uid":"2585821","lat":"52.2012157","lng":"20.9353145","name":"al. Jerozolimskie - Popularna","spot":"1","number":"9581","bikes":"3","bike_racks":"17","free_racks":"13","terminal_type":"7inch","bike_numbers":"27379,26431,26001","bike_types":{"4":3},"place_type":"0","rack_locks":"1"},{"uid":"2585824","lat":"52.1924709","lng":"20.9596664","name":"W\u0142ochy-Ratusz","spot":"1","number":"9582","bikes":"2","bike_racks":"14","free_racks":"11","terminal_type":"7inch","bike_numbers":"24519,25422","bike_types":{"4":2},"place_type":"0","rack_locks":"1"},{"uid":"2585825","lat":"52.1946888","lng":"20.9667823","name":"1 Sierpnia - DK W\u0142ochy","spot":"1","number":"9583","bikes":"11","bike_racks":"15","free_racks":"0","terminal_type":"7inch","bike_numbers":"24577,28624,28133,27324,27256,29124,96491,96462,96423,96366","bike_types":{"4":9,"0":1},"place_type":"0","rack_locks":"1"},{"uid":"2585827","lat":"52.1888962","lng":"21.0175887","name":"Metro Wierzbno","spot":"1","number":"9584","bikes":"5","bike_racks":"20","free_racks":"12","terminal_type":"7inch","bike_numbers":"24748,28410,26914,29200,96493","bike_types":{"4":5},"place_type":"0","rack_locks":"1"},{"uid":"2585830","lat":"52.18648","lng":"21.02538","name":"Pu\u0142awska - Idzikowskiego","spot":"1","number":"9585","bikes":"7","bike_racks":"17","free_racks":"9","terminal_type":"7inch","bike_numbers":"26019,25541,25346,25168,25157,28778,96394","bike_types":{"4":7},"place_type":"0","rack_locks":"1"},{"uid":"2585835","lat":"52.1882861","lng":"21.0498825","name":"Sobieskiego - Mangalia","spot":"1","number":"9586","bikes":"26","bike_racks":"15","free_racks":"1","terminal_type":"7inch","bike_numbers":"24697,28282,27951,27846,27641,27563,27453,27149,26966,26939,26727,26668,26465,26146,25823,25412,25323,25015,28944,28837,28975,96037,96562,96455,96124,29203","bike_types":{"4":26},"place_type":"0","rack_locks":"1"},{"uid":"2585837","lat":"52.178777","lng":"21.0016387","name":"Wo\u0142oska - Marynarska","spot":"1","number":"9588","bikes":"8","bike_racks":"26","free_racks":"17","terminal_type":"7inch","bike_numbers":"28391,28072,27919,25500,28940,29136,96355,29214","bike_types":{"4":7,"0":1},"place_type":"0","rack_locks":"1"},{"uid":"2585838","lat":"52.1800882","lng":"21.0207403","name":"al. Niepodleg\u0142o\u015bci - al. Wilanowska","spot":"1","number":"9589","bikes":"3","bike_racks":"22","free_racks":"17","terminal_type":"7inch","bike_numbers":"27445,26326,26119","bike_types":{"4":3},"place_type":"0","rack_locks":"1"},{"uid":"2585839","lat":"52.1779163","lng":"21.049562","name":"P\u0119tla Stegny","spot":"1","number":"9590","bikes":"38","bike_racks":"23","free_racks":"1","terminal_type":"7inch","bike_numbers":"24934,24862,24827,24723,24614,24484,24475,28701,28689,28599,27695,27216,26695,26646,26364,26357,26210,26189,26072,26038,25820,25561,25448,25380,25236,25111,28951,29372,28845,28828,28827,28906,96036,96515,96459,96433,96210,96159","bike_types":{"4":36,"51":2},"place_type":"0","rack_locks":"1"},{"uid":"2585843","lat":"52.1818472","lng":"21.0562822","name":"Sobieskiego - \u015bw. Bonifacego","spot":"1","number":"9591","bikes":"40","bike_racks":"22","free_racks":"0","terminal_type":"7inch","bike_numbers":"28898,28645,28528,28368,28334,27835,27671,27659,27570,27519,27402,27070,26746,26729,26185,26161,26087,26070,26030,25846,25818,25730,25720,25678,25635,25594,25542,25360,25232,28941,28912,28815,28855,96057,96022,96563,96325,96134,96119,29153","bike_types":{"4":40},"place_type":"0","rack_locks":"1"},{"uid":"2585844","lat":"52.1702836","lng":"20.9959132","name":"P\u0119tla Bokserska","spot":"1","number":"9592","bikes":"17","bike_racks":"15","free_racks":"0","terminal_type":"7inch","bike_numbers":"24974,24954,24674,28666,28048,28029,27500,27430,27319,27297,27268,26728,26507,25925,25375,29055,96049","bike_types":{"4":17},"place_type":"0","rack_locks":"1"},{"uid":"2585846","lat":"52.1710498","lng":"21.0059144","name":"Gintrowskiego - Gotarda","spot":"1","number":"9593","bikes":"16","bike_racks":"15","free_racks":"0","terminal_type":"7inch","bike_numbers":"24698,24595,28869,28714,27896,27511,27452,26819,26467,26108,25839,25491,25326,28813,96364,96079","bike_types":{"4":16},"place_type":"0","rack_locks":"1"},{"uid":"2585848","lat":"52.174435","lng":"21.0128814","name":"al. Lotnik\u00f3w - Kaczmarskiego","spot":"1","number":"9594","bikes":"9","bike_racks":"30","free_racks":"19","terminal_type":"7inch","bike_numbers":"28159,26724,25464,25451,25327,96552,96523,29201,29226","bike_types":{"4":9},"place_type":"0","rack_locks":"1"},{"uid":"2585850","lat":"52.1733132","lng":"21.0257305","name":"Metro S\u0142u\u017cew","spot":"1","number":"9595","bikes":"2","bike_racks":"24","free_racks":"22","terminal_type":"7inch","bike_numbers":"24022,29435","bike_types":{"26":1,"4":1},"place_type":"0","rack_locks":"1"},{"uid":"2585853","lat":"52.17343","lng":"21.03179","name":"Wa\u0142brzyska - Wr\u00f3bla","spot":"1","number":"9596","bikes":"11","bike_racks":"30","free_racks":"18","terminal_type":"7inch","bike_numbers":"28015,27495,27248,26900,26411,26280,26053,25495,25148,96458,29210","bike_types":{"4":11},"place_type":"0","rack_locks":"1"},{"uid":"2585856","lat":"52.170135","lng":"21.0685748","name":"Jana III Sobieskiego - al. Wilanowska","spot":"1","number":"9597","bikes":"19","bike_racks":"15","free_racks":"0","terminal_type":"7inch","bike_numbers":"24851,24786,24590,28729,28413,28361,27348,27039,26882,26734,26458,26402,26180,25814,25508,25442,25031,96050,96251","bike_types":{"4":19},"place_type":"0","rack_locks":"1"},{"uid":"2585860","lat":"52.1655879","lng":"21.0839331","name":"al. Wilanowska - Przycz\u00f3\u0142kowa","spot":"1","number":"9598","bikes":"8","bike_racks":"16","free_racks":"8","terminal_type":"7inch","bike_numbers":"24971,24922,28051,26663,26389,25628,96343,96173","bike_types":{"4":8},"place_type":"0","rack_locks":"1"},{"uid":"2585863","lat":"52.16479","lng":"21.10925","name":"Vogla - Syta","spot":"1","number":"9599","bikes":"11","bike_racks":"16","free_racks":"5","terminal_type":"7inch","bike_numbers":"24489,24012,27834,27767,27474,26994,26434,25459,25059,29349,29095","bike_types":{"51":1,"26":1,"4":9},"place_type":"0","rack_locks":"1"},{"uid":"2585868","lat":"52.1606257","lng":"21.0723245","name":"al. Rzeczypospolitej - Klimczaka","spot":"1","number":"9600","bikes":"14","bike_racks":"16","free_racks":"2","terminal_type":"7inch","bike_numbers":"27992,27461,27434,27318,26671,26512,26230,26114,25776,25639,25352,28848,96566,96437","bike_types":{"4":14},"place_type":"0","rack_locks":"1"},{"uid":"2585871","lat":"52.1569168","lng":"21.0760903","name":"al. Rzeczypospolitej - Branickiego","spot":"1","number":"9601","bikes":"26","bike_racks":"16","free_racks":"0","terminal_type":"7inch","bike_numbers":"24925,24791,24709,24632,28104,28065,27941,27923,26904,26664,26612,26474,26448,25870,25735,25703,25658,25343,25234,25161,25040,28870,96570,96405,29170,29237","bike_types":{"4":26},"place_type":"0","rack_locks":"1"},{"uid":"2585872","lat":"52.1593735","lng":"21.086449","name":"Przycz\u00f3\u0142kowa - Branickiego","spot":"1","number":"9602","bikes":"15","bike_racks":"16","free_racks":"3","terminal_type":"7inch","bike_numbers":"28615,28520,28513,28497,28092,27961,27241,26598,25829,25808,25501,25439,25185,28881,96561","bike_types":{"4":15},"place_type":"0","rack_locks":"1"},{"uid":"2585873","lat":"52.1618136","lng":"21.0277355","name":"Metro Ursyn\u00f3w II","spot":"1","number":"9603","bikes":"26","bike_racks":"30","free_racks":"5","terminal_type":"7inch","bike_numbers":"24953,28803,28661,28640,28433,28326,28144,27851,27599,27308,27111,27075,26609,26245,26193,26148,25894,25737,25556,25550,25271,25153,29040,96040,96029,96517","bike_types":{"4":26},"place_type":"0","rack_locks":"1"},{"uid":"2585875","lat":"52.1622579","lng":"21.0280761","name":"Metro Ursyn\u00f3w I","spot":"1","number":"9604","bikes":"18","bike_racks":"30","free_racks":"11","terminal_type":"7inch","bike_numbers":"28630,28366,28118,28057,28035,27976,27829,27525,27352,27234,26883,26776,25274,25065,29346,96025,63621,96148","bike_types":{"4":18},"place_type":"0","rack_locks":"1"},{"uid":"2585876","lat":"52.162401","lng":"21.0383811","name":"Jastrz\u0119bowskiego - SGGW","spot":"1","number":"9605","bikes":"7","bike_racks":"28","free_racks":"21","terminal_type":"7inch","bike_numbers":"24708,24601,24021,28818,25877,25426,25068","bike_types":{"4":6,"26":1},"place_type":"0","rack_locks":"1"},{"uid":"2585880","lat":"52.1557534","lng":"21.0232776","name":"Romera - Pieciolinii","spot":"1","number":"9606","bikes":"13","bike_racks":"16","free_racks":"2","terminal_type":"7inch","bike_numbers":"24975,24822,24011,28731,28111,27583,26523,26195,26155,26149,25283,25210,28994","bike_types":{"4":12,"26":1},"place_type":"0","rack_locks":"1"},{"uid":"2585883","lat":"52.1568674","lng":"21.0338401","name":"Metro Stok\u0142osy","spot":"1","number":"9607","bikes":"18","bike_racks":"27","free_racks":"9","terminal_type":"7inch","bike_numbers":"28551,28383,28356,27732,27091,27053,26873,26781,26624,26557,26427,25886,25789,29032,28952,29427,96039,96230","bike_types":{"4":18},"place_type":"0","rack_locks":"1"},{"uid":"2585885","lat":"52.1572887","lng":"21.0440084","name":"Roso\u0142a - Ciszewskiego - SGGW","spot":"1","number":"9608","bikes":"7","bike_racks":"30","free_racks":"23","terminal_type":"7inch","bike_numbers":"24868,28327,28001,27304,27198,27117,29141","bike_types":{"4":6,"0":1},"place_type":"0","rack_locks":"1"},{"uid":"2585888","lat":"52.1521429","lng":"21.0181224","name":"Pu\u0142awska - Pileckiego","spot":"1","number":"9609","bikes":"19","bike_racks":"22","free_racks":"7","terminal_type":"7inch","bike_numbers":"24624,28631,28445,28416,28377,27938,27793,27327,27093,26707,26637,26589,26094,25812,25584,25392,25045,29114,63605","bike_types":{"4":19},"place_type":"0","rack_locks":"1"},{"uid":"2585893","lat":"52.1495064","lng":"21.0332527","name":"Ciszewskiego - Pileckiego","spot":"1","number":"9610","bikes":"11","bike_racks":"22","free_racks":"11","terminal_type":"7inch","bike_numbers":"24554,28056,27159,26244,25514,29348,29053,28943,28979,63629,96338","bike_types":{"4":11},"place_type":"0","rack_locks":"1"},{"uid":"2585894","lat":"52.1549453","lng":"21.0492977","name":"Roso\u0142a - Gandhi","spot":"1","number":"9611","bikes":"1","bike_racks":"22","free_racks":"21","terminal_type":"7inch","bike_numbers":"25701","bike_types":{"4":1},"place_type":"0","rack_locks":"1"},{"uid":"2585897","lat":"52.1493105","lng":"21.0453361","name":"Metro Imielin","spot":"1","number":"9612","bikes":"3","bike_racks":"22","free_racks":"17","terminal_type":"7inch","bike_numbers":"24651,27223,96399","bike_types":{"4":3},"place_type":"0","rack_locks":"1"},{"uid":"2585899","lat":"52.1522333","lng":"21.0563922","name":"Roso\u0142a - Weso\u0142a","spot":"1","number":"9613","bikes":"3","bike_racks":"23","free_racks":"20","terminal_type":"7inch","bike_numbers":"24860,27713,28839","bike_types":{"4":3},"place_type":"0","rack_locks":"1"},{"uid":"2585901","lat":"52.1427201","lng":"21.0383624","name":"Pileckiego - Alternatywy","spot":"1","number":"9614","bikes":"19","bike_racks":"30","free_racks":"11","terminal_type":"7inch","bike_numbers":"24894,24886,24715,28343,28002,27694,26993,26574,26333,25867,25718,25555,25507,25285,25273,25026,29096,29660,29268","bike_types":{"4":19},"place_type":"0","rack_locks":"1"},{"uid":"2585902","lat":"52.142735","lng":"21.0448131","name":"Dereniowa - P\u0142askowickiej","spot":"1","number":"9615","bikes":"18","bike_racks":"22","free_racks":"4","terminal_type":"7inch","bike_numbers":"28622,28448,28345,27772,27620,27529,26409,25665,25246,25135,25117,29421,29137,63613,96465,96277,96182,96084","bike_types":{"4":17,"0":1},"place_type":"0","rack_locks":"1"},{"uid":"2585904","lat":"52.1376039","lng":"21.0505531","name":"Stryje\u0144skich - Belgradzka","spot":"1","number":"9616","bikes":"17","bike_racks":"15","free_racks":"1","terminal_type":"7inch","bike_numbers":"28748,28339,28059,28024,28010,27228,26818,25874,25424,25224,25067,28811,28982,96053,96052,96085,29177","bike_types":{"4":17},"place_type":"0","rack_locks":"1"},{"uid":"2585905","lat":"52.1403909","lng":"21.0568187","name":"Metro Natolin","spot":"1","number":"9617","bikes":"22","bike_racks":"30","free_racks":"7","terminal_type":"7inch","bike_numbers":"24544,28505,28403,28298,27878,27820,27556,26487,26341,26191,26186,25964,25559,25557,25377,25319,28945,60855,28974,63628,96487,96388","bike_types":{"4":22},"place_type":"0","rack_locks":"1"},{"uid":"2585906","lat":"52.1420749","lng":"21.0659905","name":"Belgradzka - Roso\u0142a","spot":"1","number":"9618","bikes":"37","bike_racks":"23","free_racks":"0","terminal_type":"7inch","bike_numbers":"24984,24712,24702,24640,28466,27859,27855,27812,27781,27507,27426,27373,27288,27071,26845,26748,26722,26615,26504,26494,26345,26304,26056,25991,25981,25850,25675,25673,25536,25331,25286,25251,25129,29064,60831,60867,29184","bike_types":{"4":37},"place_type":"0","rack_locks":"1"},{"uid":"2585908","lat":"52.1314333","lng":"21.0561562","name":"Stryje\u0144skich - W\u0105wozowa","spot":"1","number":"9619","bikes":"15","bike_racks":"23","free_racks":"6","terminal_type":"7inch","bike_numbers":"28372,28221,28099,28068,27724,27585,26212,25966,25898,25535,25490,25225,29035,60863,96198","bike_types":{"4":15},"place_type":"0","rack_locks":"1"},{"uid":"2585911","lat":"52.3326052","lng":"20.9418404","name":"Ordon\u00f3wny - \u015awiatowida","spot":"1","number":"9620","bikes":"28","bike_racks":"22","free_racks":"0","terminal_type":"7inch","bike_numbers":"24993,24950,24743,24677,28671,28652,28314,27664,27450,27447,27335,27057,26915,26489,26000,25936,25736,25577,25030,29045,28995,96042,96481,96448,96441,96337,29181,29272","bike_types":{"4":28},"place_type":"0","rack_locks":"1"},{"uid":"2585913","lat":"52.1310925","lng":"21.0654795","name":"Metro Kabaty","spot":"1","number":"9621","bikes":"31","bike_racks":"22","free_racks":"0","terminal_type":"7inch","bike_numbers":"24942,24887,24817,24691,24638,28349,28311,27987,27830,27635,27618,27613,27595,27549,27547,27471,26984,26753,26726,26652,26421,26126,26105,25934,25828,25582,25291,25267,28854,63615,96175","bike_types":{"4":31},"place_type":"0","rack_locks":"1"},{"uid":"2585916","lat":"52.1332642","lng":"21.0747962","name":"W\u0105wozowa - Roso\u0142a","spot":"1","number":"9622","bikes":"13","bike_racks":"18","free_racks":"4","terminal_type":"7inch","bike_numbers":"28419,27894,27770,27251,27189,27043,26669,26515,25908,25437,28800,28968,96504","bike_types":{"4":13},"place_type":"0","rack_locks":"1"},{"uid":"2585917","lat":"52.324116","lng":"21.05663","name":"Skarbka z G\u00f3r - Berensona","spot":"1","number":"9623","bikes":"13","bike_racks":"26","free_racks":"13","terminal_type":"7inch","bike_numbers":"28657,28277,28090,27821,27680,27427,26881,26768,26152,25587,28812,96430,29246","bike_types":{"4":13},"place_type":"0","rack_locks":"1"},{"uid":"2585919","lat":"52.3485329","lng":"20.9418336","name":"Aluzyjna - Tr\u0105by","spot":"1","number":"9624","bikes":"21","bike_racks":"16","free_racks":"0","terminal_type":"7inch","bike_numbers":"24833,24504,25003,28653,28431,27986,27167,26759,26752,26636,26623,25841,25506,25305,25300,29071,29555,96327,96265,96199,96190","bike_types":{"4":21},"place_type":"0","rack_locks":"1"},{"uid":"2585920","lat":"52.3226982","lng":"20.9448107","name":"\u015awiatowida - Mehoffera","spot":"1","number":"9625","bikes":"13","bike_racks":"16","free_racks":"3","terminal_type":"7inch","bike_numbers":"24818,28562,27902,27721,27587,27415,27170,27152,26461,26018,25646,29373,29197","bike_types":{"4":13},"place_type":"0","rack_locks":"1"},{"uid":"2585921","lat":"52.3212548","lng":"20.9477347","name":"Bia\u0142o\u0142\u0119cki O\u015brodek Sportu","spot":"1","number":"9626","bikes":"6","bike_racks":"30","free_racks":"24","terminal_type":"7inch","bike_numbers":"28628,28426,26954,26575,96257,96078","bike_types":{"4":6},"place_type":"0","rack_locks":"1"},{"uid":"2585922","lat":"52.3211272","lng":"20.9712964","name":"Bia\u0142o\u0142\u0119ka-Ratusz","spot":"1","number":"9627","bikes":"7","bike_racks":"19","free_racks":"14","terminal_type":"7inch","bike_numbers":"24900,28771,27794,27733,26551,25603,96396","bike_types":{"4":7},"place_type":"0","rack_locks":"1"},{"uid":"2585924","lat":"52.3132981","lng":"20.9655324","name":"My\u015bliborska - al. Kukli\u0144skiego","spot":"1","number":"9628","bikes":"23","bike_racks":"22","free_racks":"1","terminal_type":"7inch","bike_numbers":"24713,28680,28395,28390,28261,27895,27868,27847,27673,26967,26852,26835,26645,26536,26475,26060,25915,25564,25419,25139,96306,96189,29223","bike_types":{"4":23},"place_type":"0","rack_locks":"1"},{"uid":"2585925","lat":"52.3031984","lng":"20.9891666","name":"Modli\u0144ska - \u017bera\u0144ska","spot":"1","number":"9629","bikes":"27","bike_racks":"30","free_racks":"4","terminal_type":"7inch","bike_numbers":"24849,24560,28308,28127,27982,27871,27725,27704,27657,27080,26941,26769,26763,26692,26678,26188,25968,25710,25398,25297,25092,29125,96240,96138,96129,96117,29254","bike_types":{"4":26,"0":1},"place_type":"0","rack_locks":"1"},{"uid":"2585926","lat":"52.3150181","lng":"21.0610807","name":"Skarbka z G\u00f3r - Magiczna","spot":"1","number":"9630","bikes":"33","bike_racks":"30","free_racks":"1","terminal_type":"7inch","bike_numbers":"24830,24692,24042,25002,28619,28607,28587,28583,28440,28301,28067,28007,27990,27954,27538,27513,27487,27360,27354,27279,27166,27115,26827,26820,26460,26163,25591,25376,25146,29130,96451,96128,29233","bike_types":{"4":31,"26":1,"0":1},"place_type":"0","rack_locks":"1"},{"uid":"2585928","lat":"52.3000268","lng":"21.0425266","name":"P\u0119tla Br\u00f3dno - Podgrodzie","spot":"1","number":"9631","bikes":"11","bike_racks":"16","free_racks":"5","terminal_type":"7inch","bike_numbers":"28566,28550,27650,27512,26986,26582,25929,25807,63608,96368,29273","bike_types":{"4":11},"place_type":"0","rack_locks":"1"},{"uid":"2585929","lat":"52.2939957","lng":"21.0272258","name":"Rembieli\u0144ska - Kondratowicza","spot":"1","number":"9632","bikes":"7","bike_racks":"23","free_racks":"16","terminal_type":"7inch","bike_numbers":"24700,24649,24644,28420,26362,26058,25089","bike_types":{"4":7},"place_type":"0","rack_locks":"1"},{"uid":"2585931","lat":"52.2917236","lng":"21.0481189","name":"Targ\u00f3wek-Ratusz","spot":"1","number":"9633","bikes":"25","bike_racks":"22","free_racks":"0","terminal_type":"7inch","bike_numbers":"24845,28702,28553,28404,28402,28392,28387,28352,28350,28022,26857,26685,26111,25757,25552,25470,25180,29075,96539,96369,96204,96103,29193,29230,96577","bike_types":{"4":25},"place_type":"0","rack_locks":"1"},{"uid":"2585932","lat":"52.292208","lng":"21.0419554","name":"Kondratowicza - Chodecka","spot":"1","number":"9634","bikes":"22","bike_racks":"23","free_racks":"1","terminal_type":"7inch","bike_numbers":"24586,24030,28897,28378,28151,28123,28075,28044,27807,27498,27076,26764,26459,26275,26231,25928,25458,25423,96526,96329,96080,29253","bike_types":{"4":21,"26":1},"place_type":"0","rack_locks":"1"},{"uid":"2585934","lat":"52.2925145","lng":"21.0573949","name":"Kondratowicza - Przy Grodzisku","spot":"1","number":"9635","bikes":"18","bike_racks":"18","free_racks":"0","terminal_type":"7inch","bike_numbers":"28658,28651,28634,28278,27691,27632,27342,26817,26433,26048,29082,29434,96161,96120,29247,29245,29232,29228","bike_types":{"4":18},"place_type":"0","rack_locks":"1"},{"uid":"2585936","lat":"52.2878069","lng":"21.0213829","name":"Wysockiego - Poborza\u0144ska","spot":"1","number":"9636","bikes":"42","bike_racks":"23","free_racks":"0","terminal_type":"7inch","bike_numbers":"24979,24573,28758,28741,28643,28641,28554,28524,28425,28064,28016,28009,27914,27750,27742,27435,27300,27290,27127,27035,26979,26879,26844,26756,26716,26616,26599,26505,26305,26287,26214,26138,25513,25406,25170,29112,29388,29386,28861,28987,96203,29242","bike_types":{"4":42},"place_type":"0","rack_locks":"1"},{"uid":"2585937","lat":"52.2885915","lng":"21.0310087","name":"Rembieli\u0144ska - Wyszogrodzka","spot":"1","number":"9637","bikes":"8","bike_racks":"30","free_racks":"21","terminal_type":"7inch","bike_numbers":"28705,28523,27576,27462,26672,26537,26110,29160","bike_types":{"4":8},"place_type":"0","rack_locks":"1"},{"uid":"2585938","lat":"52.2864841","lng":"21.0401998","name":"Chodecka - \u017buromi\u0144ska","spot":"1","number":"9638","bikes":"6","bike_racks":"15","free_racks":"10","terminal_type":"7inch","bike_numbers":"28373,27366,27009,26824,26783,26194","bike_types":{"4":6},"place_type":"0","rack_locks":"1"},{"uid":"2585939","lat":"52.281231017533","lng":"21.025852560997","name":"Wysockiego - Matki Teresy z Kalkuty","spot":"1","number":"9639","bikes":"14","bike_racks":"17","free_racks":"7","terminal_type":"7inch","bike_numbers":"28498,27805,27663,27122,26221,25351,25025,29046,29003,29441,96041,96574,96463,96187","bike_types":{"4":14},"place_type":"0","rack_locks":"1"},{"uid":"2585941","lat":"52.2835693","lng":"21.0720858","name":"Blokowa - DK Zacisze","spot":"1","number":"9640","bikes":"24","bike_racks":"18","free_racks":"0","terminal_type":"7inch","bike_numbers":"24776,28686,28449,28267,27862,27832,27584,27561,27261,26980,26634,26546,26501,25821,25483,25435,25357,25100,28954,28863,96350,96261,96132,29274","bike_types":{"4":24},"place_type":"0","rack_locks":"1"},{"uid":"2585942","lat":"52.276259","lng":"21.0530748","name":"P\u0119tla Targ\u00f3wek","spot":"1","number":"9641","bikes":"24","bike_racks":"22","free_racks":"2","terminal_type":"7inch","bike_numbers":"24650,28543,28484,28354,28109,27792,27751,27503,27376,27316,27168,26816,26485,26281,25793,25731,25693,25567,25553,25096,29115,29031,96051,96205","bike_types":{"4":24},"place_type":"0","rack_locks":"1"},{"uid":"2585943","lat":"52.27139","lng":"21.01566","name":"Jagiello\u0144ska - ALK","spot":"1","number":"9642","bikes":"3","bike_racks":"16","free_racks":"15","terminal_type":"7inch","bike_numbers":"24675,26674,25075","bike_types":{"4":3},"place_type":"0","rack_locks":"1"},{"uid":"2585947","lat":"52.2694683","lng":"21.0499817","name":"Ossowskiego","spot":"1","number":"9644","bikes":"11","bike_racks":"17","free_racks":"6","terminal_type":"7inch","bike_numbers":"24606,24490,28762,28629,28456,27978,26793,26530,26529,29030,96536","bike_types":{"4":10,"51":1},"place_type":"0","rack_locks":"1"},{"uid":"2585951","lat":"52.272602123161","lng":"21.063210368156","name":"Radzymi\u0144ska -Trocka","spot":"1","number":"9645","bikes":"14","bike_racks":"20","free_racks":"7","terminal_type":"7inch","bike_numbers":"28499,28362,28291,28137,28088,27730,27439,27422,27225,26400,25855,25740,96288,29199","bike_types":{"4":14},"place_type":"0","rack_locks":"1"},{"uid":"2585953","lat":"52.27347","lng":"21.07698","name":"Bukowiecka - Zamkowa","spot":"1","number":"9646","bikes":"16","bike_racks":"15","free_racks":"0","terminal_type":"7inch","bike_numbers":"24514,24487,27916,27778,27551,27405,27341,26808,25985,25689,25560,25527,25144,29135,96453,96242","bike_types":{"4":14,"51":1,"0":1},"place_type":"0","rack_locks":"1"},{"uid":"2585954","lat":"52.2668885","lng":"21.0585675","name":"Radzymi\u0144ska - Piotra Skargi","spot":"1","number":"9647","bikes":"25","bike_racks":"20","free_racks":"0","terminal_type":"7inch","bike_numbers":"24918,24901,24842,24617,28673,28471,28293,27799,27397,27158,26918,26565,26491,26122,25919,25359,25248,25141,25122,29120,96011,96195,96106,29202,29281","bike_types":{"4":24,"0":1},"place_type":"0","rack_locks":"1"},{"uid":"2585955","lat":"52.2614369","lng":"21.0155744","name":"Wybrze\u017ce Helskie - ZOO","spot":"1","number":"9648","bikes":"13","bike_racks":"22","free_racks":"9","terminal_type":"7inch","bike_numbers":"24855,24811,24552,28076,27199,26998,26949,26862,26747,26667,26257,25944,25195","bike_types":{"4":13},"place_type":"0","rack_locks":"1"},{"uid":"2585956","lat":"52.2632492","lng":"21.0212231","name":"Rondo Starzy\u0144skiego","spot":"1","number":"9649","bikes":"12","bike_racks":"24","free_racks":"11","terminal_type":"7inch","bike_numbers":"24780,28739,28530,28148,28078,26588,26554,26336,25641,29105,96555,96100","bike_types":{"4":12},"place_type":"0","rack_locks":"1"},{"uid":"2585958","lat":"52.26421","lng":"21.02618","name":"Darwina - Nusbauma-Hilarowicza","spot":"1","number":"9650","bikes":"21","bike_racks":"21","free_racks":"0","terminal_type":"7inch","bike_numbers":"24938,24696,28642,28501,28443,28421,28394,28329,27286,26777,26758,26584,26125,25954,25775,25751,25466,25368,25182,25099,96281","bike_types":{"4":21},"place_type":"0","rack_locks":"1"},{"uid":"2585960","lat":"52.26554","lng":"21.03122","name":"Namys\u0142owska - Darwina","spot":"1","number":"9651","bikes":"18","bike_racks":"15","free_racks":"0","terminal_type":"7inch","bike_numbers":"24890,24799,28719,28521,27019,26719,26331,26229,25896,25739,25615,25414,25321,29429,29142,96553,96549,96438","bike_types":{"4":17,"0":1},"place_type":"0","rack_locks":"1"},{"uid":"2585961","lat":"52.2690405","lng":"21.0379493","name":"Rondo \u017baba","spot":"1","number":"9652","bikes":"16","bike_racks":"22","free_racks":"6","terminal_type":"7inch","bike_numbers":"24928,28376,28053,27899,27764,27520,27323,27249,27124,26440,26168,25882,25356,29374,96046,96302","bike_types":{"4":16},"place_type":"0","rack_locks":"1"},{"uid":"2585963","lat":"52.2591682","lng":"21.0262224","name":"Jagiello\u0144ska - Plac Hallera","spot":"1","number":"9653","bikes":"29","bike_racks":"20","free_racks":"0","terminal_type":"7inch","bike_numbers":"24481,24479,28695,28665,28005,27944,27622,27394,26886,26851,26587,26064,26033,25910,25811,25579,25523,29038,28883,28891,96506,96387,96386,96181,96179,96150,29174,29260,96580","bike_types":{"51":2,"4":27},"place_type":"0","rack_locks":"1"},{"uid":"2585964","lat":"52.2613811","lng":"21.0305437","name":"Plac Hallera - Sawinkowa","spot":"1","number":"9654","bikes":"15","bike_racks":"28","free_racks":"13","terminal_type":"7inch","bike_numbers":"24729,28647,28369,28265,28258,28214,26327,25076,25050,29041,29013,28849,28896,28971,96429","bike_types":{"4":15},"place_type":"0","rack_locks":"1"},{"uid":"2585967","lat":"52.263","lng":"21.03418","name":"Namys\u0142owska - Szymanowskiego","spot":"1","number":"9655","bikes":"8","bike_racks":"16","free_racks":"8","terminal_type":"7inch","bike_numbers":"28432,27277,26480,26247,25573,25402,25334,28963","bike_types":{"4":8},"place_type":"0","rack_locks":"1"},{"uid":"2585968","lat":"52.2538188","lng":"21.0231542","name":"Ratuszowa - ZOO","spot":"1","number":"9656","bikes":"19","bike_racks":"23","free_racks":"4","terminal_type":"7inch","bike_numbers":"28616,28560,28357,28303,27840,27833,27446,27424,27138,26150,26085,25989,25767,25700,25570,25130,29644,28859,96582","bike_types":{"4":19},"place_type":"0","rack_locks":"1"},{"uid":"2585971","lat":"52.256355","lng":"21.029538","name":"Jagiello\u0144ska - Ratuszowa","spot":"1","number":"9657","bikes":"8","bike_racks":"16","free_racks":"9","terminal_type":"7inch","bike_numbers":"24997,27363,26675,26226,25602,25571,25134,28799","bike_types":{"4":8},"place_type":"0","rack_locks":"1"},{"uid":"2585972","lat":"52.261449","lng":"21.037614","name":"11 Listopada - Ratuszowa","spot":"1","number":"9658","bikes":"23","bike_racks":"30","free_racks":"7","terminal_type":"7inch","bike_numbers":"24793,28569,28439,28295,28114,28026,27761,27723,27616,27560,27449,27175,26709,26503,26404,26392,26166,26036,25810,25415,96452,96176,96163","bike_types":{"4":23},"place_type":"0","rack_locks":"1"},{"uid":"2585974","lat":"52.263109","lng":"21.0381895","name":"11 listopada - \u015arodkowa","spot":"1","number":"9659","bikes":"22","bike_racks":"18","free_racks":"0","terminal_type":"7inch","bike_numbers":"28006,27818,27275,26815,26732,26517,26224,26173,26130,26022,25746,25596,25445,25400,25198,29139,96569,96382,96126,29198,29175,29157","bike_types":{"4":21,"0":1},"place_type":"0","rack_locks":"1"},{"uid":"2585975","lat":"52.25839","lng":"21.03537","name":"Stalowa - 11 Listopada","spot":"1","number":"9660","bikes":"10","bike_racks":"24","free_racks":"14","terminal_type":"7inch","bike_numbers":"24456,28427,28096,27800,27518,26666,25926,25325,29155,29278","bike_types":{"51":1,"4":9},"place_type":"0","rack_locks":"1"},{"uid":"2585978","lat":"52.234791","lng":"21.07905","name":"al. Stan\u00f3w Zjednoczonych - Ostrobramska","spot":"1","number":"9661","bikes":"16","bike_racks":"20","free_racks":"4","terminal_type":"7inch","bike_numbers":"24902,28700,28632,28454,28363,28351,28085,26514,26034,25973,25620,25119,96043,96424,96278,96276","bike_types":{"4":16},"place_type":"0","rack_locks":"1"},{"uid":"2585981","lat":"52.2524758","lng":"21.0303479","name":"Floria\u0144ska - Park Praski","spot":"1","number":"9662","bikes":"9","bike_racks":"23","free_racks":"7","terminal_type":"7inch","bike_numbers":"24913,28512,28374,26999,25918,25780,25754,25543,25244","bike_types":{"4":9},"place_type":"0","rack_locks":"1"},{"uid":"2585982","lat":"52.2549757","lng":"21.0339005","name":"Plac Wile\u0144ski","spot":"1","number":"9663","bikes":"35","bike_racks":"30","free_racks":"0","terminal_type":"7inch","bike_numbers":"24770,24663,24597,24486,24008,28675,28347,27997,27922,27920,27609,27187,27184,27116,26297,26215,26204,25674,25666,25609,25606,25530,25403,25371,25345,25269,25219,29062,29014,28879,28915,96509,96498,29147,29267","bike_types":{"4":33,"51":1,"26":1},"place_type":"0","rack_locks":"1"},{"uid":"2585983","lat":"52.2579576","lng":"21.0399804","name":"Wile\u0144ska - Rzeszotarskiej","spot":"1","number":"9664","bikes":"14","bike_racks":"16","free_racks":"3","terminal_type":"7inch","bike_numbers":"24983,24800,28139,28082,27242,26936,26744,26415,26307,26206,25585,25565,25539,29097","bike_types":{"4":14},"place_type":"0","rack_locks":"1"},{"uid":"2585984","lat":"52.2475848","lng":"20.9568001","name":"al. Prymasa Tysi\u0105clecia - Obozowa","spot":"1","number":"9665","bikes":"8","bike_racks":"13","free_racks":"4","terminal_type":"7inch","bike_numbers":"24581,24532,26468,26435,25019,96271,29270,29234","bike_types":{"4":8},"place_type":"0","rack_locks":"1"},{"uid":"2585985","lat":"52.248607","lng":"21.029647","name":"Okrzei - Panie\u0144ska","spot":"1","number":"9666","bikes":"12","bike_racks":"16","free_racks":"5","terminal_type":"7inch","bike_numbers":"24775,24634,28435,27817,27706,27612,27330,26787,25835,25477,96133,24055","bike_types":{"4":11,"26":1},"place_type":"0","rack_locks":"1"},{"uid":"2585987","lat":"52.2506334","lng":"21.0311174","name":"Sierakowskiego - K\u0142opotowskiego","spot":"1","number":"9667","bikes":"16","bike_racks":"25","free_racks":"9","terminal_type":"7inch","bike_numbers":"24897,28385,28302,27959,27386,27361,27106,26622,25969,25881,25787,29342,96299,96294,96284,96122","bike_types":{"4":16},"place_type":"0","rack_locks":"1"},{"uid":"2585990","lat":"52.2520876","lng":"21.0381368","name":"Targowa - Z\u0105bkowska","spot":"1","number":"9668","bikes":"27","bike_racks":"18","free_racks":"4","terminal_type":"7inch","bike_numbers":"24605,28676,28461,28292,28003,27974,27879,27577,27482,27451,27429,27026,26848,26807,26690,26572,26390,26302,25813,25766,25290,25212,25150,25053,29368,96002,29261","bike_types":{"4":27},"place_type":"0","rack_locks":"1"},{"uid":"2585992","lat":"52.2544855","lng":"21.0433458","name":"Fabryka W\u00f3dek Koneser","spot":"1","number":"9669","bikes":"20","bike_racks":"25","free_racks":"5","terminal_type":"7inch","bike_numbers":"24947,24761,24551,28039,27712,27135,27014,26947,26907,26866,26629,26455,26243,25856,25709,25284,25200,25091,29283,29262","bike_types":{"4":20},"place_type":"0","rack_locks":"1"},{"uid":"2585994","lat":"52.2559027","lng":"21.0495613","name":"Radzymi\u0144ska - Wiosenna","spot":"1","number":"9670","bikes":"24","bike_racks":"26","free_racks":"2","terminal_type":"7inch","bike_numbers":"24725,28660,28548,28489,28141,28119,27858,27753,27703,27594,27212,27140,26985,26956,26789,26684,25836,25652,25529,25121,25034,25032,29225,24049","bike_types":{"4":23,"26":1},"place_type":"0","rack_locks":"1"},{"uid":"2585995","lat":"52.25965","lng":"21.0529","name":"Radzymi\u0144ska - \u0141om\u017cy\u0144ska","spot":"1","number":"9671","bikes":"25","bike_racks":"24","free_racks":"0","terminal_type":"7inch","bike_numbers":"24815,24769,24575,28542,28305,27869,27785,27489,27291,26987,26894,26644,26379,25943,25876,25593,25260,29056,29049,29034,28993,96468,96401,96317,24046","bike_types":{"4":24,"26":1},"place_type":"0","rack_locks":"1"},{"uid":"2585996","lat":"52.2583512","lng":"21.0585337","name":"P\u0119tla Kaw\u0119czy\u0144ska-Bazylika","spot":"1","number":"9672","bikes":"6","bike_racks":"26","free_racks":"18","terminal_type":"7inch","bike_numbers":"24980,28581,28103,28037,25051,29249","bike_types":{"4":6},"place_type":"0","rack_locks":"1"},{"uid":"2585997","lat":"52.249864871462","lng":"21.042911410332","name":"Targowa - Kijowska","spot":"1","number":"9673","bikes":"10","bike_racks":"18","free_racks":"10","terminal_type":"7inch","bike_numbers":"28371,28290,27998,27837,27755,27460,26706,26648,25011,96185","bike_types":{"4":10},"place_type":"0","rack_locks":"1"},{"uid":"2586000","lat":"52.252745","lng":"21.0510331","name":"Dworzec Wschodni - Kijowska","spot":"1","number":"9674","bikes":"40","bike_racks":"27","free_racks":"0","terminal_type":"7inch","bike_numbers":"24794,24669,24647,24542,24044,25008,28627,28575,28000,27939,27614,27493,27437,27381,27357,27301,27298,27147,27054,27044,27005,26990,26847,26823,26673,26573,26454,26366,26263,25987,25857,25785,25617,25159,25154,25033,28956,96326,96272,96583","bike_types":{"4":39,"26":1},"place_type":"0","rack_locks":"1"},{"uid":"2586001","lat":"52.247314","lng":"21.042731","name":"Metro Stadion Narodowy","spot":"1","number":"9675","bikes":"9","bike_racks":"15","free_racks":"4","terminal_type":"7inch","bike_numbers":"28611,28134,26597,26450,26154,26015,25163,25028,29033","bike_types":{"4":9},"place_type":"0","rack_locks":"1"},{"uid":"2586003","lat":"52.2472308","lng":"21.0476456","name":"al. Zieleniecka - Teatr Powszechny","spot":"1","number":"9676","bikes":"1","bike_racks":"14","free_racks":"12","terminal_type":"7inch","bike_numbers":"27169","bike_types":{"4":1},"place_type":"0","rack_locks":"1"},{"uid":"2586005","lat":"52.247346","lng":"21.055947","name":"Grochowska - Mi\u0144ska","spot":"1","number":"9677","bikes":"25","bike_racks":"22","free_racks":"0","terminal_type":"7inch","bike_numbers":"24893,24510,28464,28359,28297,28274,28213,28132,27907,27469,27448,27428,27025,26957,26109,25760,25745,25155,25124,25056,25043,29051,96015,96404,24047","bike_types":{"4":24,"26":1},"place_type":"0","rack_locks":"1"},{"uid":"2586009","lat":"52.2464","lng":"21.06868","name":"Praga-Po\u0142udnie-Ratusz","spot":"1","number":"9678","bikes":"11","bike_racks":"15","free_racks":"2","terminal_type":"7inch","bike_numbers":"24935,24767,24738,28309,27925,26143,25957,25467,28853,28872,96328","bike_types":{"4":11},"place_type":"0","rack_locks":"1"},{"uid":"2586011","lat":"52.2501129","lng":"21.0772011","name":"Dwernickiego - Siennicka","spot":"1","number":"9679","bikes":"20","bike_racks":"25","free_racks":"4","terminal_type":"7inch","bike_numbers":"24009,28724,27886,27877,27786,27473,27229,27208,27094,26424,26360,26041,25873,25816,25475,25429,96464,96346,29212,29265","bike_types":{"26":1,"4":19},"place_type":"0","rack_locks":"1"},{"uid":"2586012","lat":"52.260428882956","lng":"21.041538119316","name":"Stalowa - Czynszowa","spot":"1","number":"9680","bikes":"5","bike_racks":"15","free_racks":"10","terminal_type":"7inch","bike_numbers":"28535,27554,26765,29271,29222","bike_types":{"4":5},"place_type":"0","rack_locks":"1"},{"uid":"2586014","lat":"52.2372419","lng":"21.0437644","name":"Wybrze\u017ce Szczeci\u0144skie - Stadion Narodowy","spot":"1","number":"9681","bikes":"15","bike_racks":"23","free_racks":"15","terminal_type":"7inch","bike_numbers":"24494,28597,28077,27971,27605,27178,27172,25779,25546,25374,25101,25083,25072,25063,29182","bike_types":{"51":1,"4":14},"place_type":"0","rack_locks":"1"},{"uid":"2586018","lat":"52.2387103","lng":"21.0507515","name":"Rondo Waszyngtona - Stadion Narodowy","spot":"1","number":"9682","bikes":"5","bike_racks":"27","free_racks":"17","terminal_type":"7inch","bike_numbers":"24676,24528,27716,29461,29215","bike_types":{"4":5},"place_type":"0","rack_locks":"1"},{"uid":"2586019","lat":"52.242281006874","lng":"21.071160435677","name":"Waszyngtona - Kinowa","spot":"1","number":"9683","bikes":"13","bike_racks":"15","free_racks":"1","terminal_type":"7inch","bike_numbers":"24672,28721,28423,27642,27388,26874,25783,25595,25242,29015,28798,96361,96177","bike_types":{"4":13},"place_type":"0","rack_locks":"1"},{"uid":"2586021","lat":"52.2445639","lng":"21.0838057","name":"Rondo Wiatraczna","spot":"1","number":"9684","bikes":"41","bike_racks":"30","free_racks":"0","terminal_type":"7inch","bike_numbers":"24964,24960,24880,24613,24526,28693,28557,28436,28126,28089,28087,28074,27788,27726,27651,27496,27404,27271,27232,27183,27084,26940,26934,26802,26473,26043,25953,25872,25838,25771,25382,25282,25245,25196,25169,29070,29146,28865,28862,96351,96149","bike_types":{"4":40,"0":1},"place_type":"0","rack_locks":"1"},{"uid":"2586022","lat":"52.2347451","lng":"21.053651","name":"Francuska - Walecznych","spot":"1","number":"9685","bikes":"26","bike_racks":"15","free_racks":"0","terminal_type":"7inch","bike_numbers":"24658,24474,28398,28145,28017,27865,27621,27413,27213,26677,26627,26547,26513,25707,25126,25060,28916,29451,29422,25632,28851,96003,96501,96494,96258,29264","bike_types":{"4":25,"51":1},"place_type":"0","rack_locks":"1"},{"uid":"2586024","lat":"52.236598","lng":"21.064774","name":"Mi\u0119dzynarodowa - Walecznych","spot":"1","number":"9686","bikes":"11","bike_racks":"15","free_racks":"3","terminal_type":"7inch","bike_numbers":"24871,24626,28732,28215,28128,27932,27562,26714,25901,25597,96105","bike_types":{"4":11},"place_type":"0","rack_locks":"1"},{"uid":"2586026","lat":"52.243020071904","lng":"21.102375984192","name":"Plac Szembeka","spot":"1","number":"9687","bikes":"9","bike_racks":"15","free_racks":"6","terminal_type":"7inch","bike_numbers":"28095,26258,26151,26131,26014,25381,25233,96540,24054","bike_types":{"4":8,"26":1},"place_type":"0","rack_locks":"1"},{"uid":"2586028","lat":"52.237559","lng":"21.120087","name":"P\u0119tla Goc\u0142awek","spot":"1","number":"9688","bikes":"15","bike_racks":"16","free_racks":"1","terminal_type":"7inch","bike_numbers":"24546,27608,27590,27408,27337,27118,26502,25996,25905,25670,25598,25107,29340,96045,96449","bike_types":{"4":15},"place_type":"0","rack_locks":"1"},{"uid":"2586030","lat":"52.2258359","lng":"21.0600907","name":"Brukselska - PROM","spot":"1","number":"9689","bikes":"14","bike_racks":"15","free_racks":"0","terminal_type":"7inch","bike_numbers":"24982,28873,28690,28411,27302,26959,26749,26691,26162,25405,29110,96017,29221,96589","bike_types":{"4":14},"place_type":"0","rack_locks":"1"},{"uid":"2586031","lat":"52.260205610017","lng":"21.046854257584","name":"al. Solidarno\u015bci - Szwedzka","spot":"1","number":"9690","bikes":"14","bike_racks":"18","free_racks":"5","terminal_type":"7inch","bike_numbers":"24876,28348,28058,27864,27533,26032,26027,25624,96371,96287,29269,29266,29241,24051","bike_types":{"4":13,"26":1},"place_type":"0","rack_locks":"1"},{"uid":"2586032","lat":"52.230088","lng":"21.067948","name":"al. Stan\u00f3w Zjednoczonych - Mi\u0119dzynarodowa","spot":"1","number":"9691","bikes":"15","bike_racks":"26","free_racks":"10","terminal_type":"7inch","bike_numbers":"24986,24685,24496,28892,28491,28004,27634,27536,26635,26493,25446,25211,25206,96436,29240","bike_types":{"4":14,"51":1},"place_type":"0","rack_locks":"1"},{"uid":"2586034","lat":"52.23483","lng":"21.09975","name":"Ostrobramska - Zamieniecka","spot":"1","number":"9692","bikes":"23","bike_racks":"23","free_racks":"0","terminal_type":"7inch","bike_numbers":"24915,24029,28195,28158,27747,27648,27432,27233,27215,27112,26929,25941,25699,25575,25534,25421,25277,25149,25085,29213,28860,96507,96291","bike_types":{"4":22,"26":1},"place_type":"0","rack_locks":"1"},{"uid":"2586037","lat":"52.2251969","lng":"21.0712892","name":"Afryka\u0144ska - Egipska","spot":"1","number":"9693","bikes":"15","bike_racks":"16","free_racks":"1","terminal_type":"7inch","bike_numbers":"24969,24583,24518,27777,27698,26875,26643,26640,25386,25110,28864,96054,96502,96443,96341","bike_types":{"4":15},"place_type":"0","rack_locks":"1"},{"uid":"2586039","lat":"52.22837","lng":"21.08581","name":"Abrahama - Kapelan\u00f3w AK","spot":"1","number":"9694","bikes":"21","bike_racks":"15","free_racks":"1","terminal_type":"7inch","bike_numbers":"24972,24909,24630,28904,28752,28623,28515,28496,27483,27414,27398,27243,26383,25899,25865,25819,25517,25379,25079,96324,96318","bike_types":{"4":21},"place_type":"0","rack_locks":"1"},{"uid":"2586042","lat":"52.2296088","lng":"21.0945572","name":"Fieldorfa - Bukowskiego","spot":"1","number":"9695","bikes":"18","bike_racks":"20","free_racks":"2","terminal_type":"7inch","bike_numbers":"24766,28765,27521,27476,27410,27193,27146,26657,26542,26344,26091,25963,25696,25127,29005,28946,28884,96018","bike_types":{"4":18},"place_type":"0","rack_locks":"1"},{"uid":"2586044","lat":"52.22974","lng":"21.10624","name":"Rechniewskiego - Nowaka-Jeziora\u0144skiego","spot":"1","number":"9696","bikes":"38","bike_racks":"30","free_racks":"0","terminal_type":"7inch","bike_numbers":"24888,24610,24556,24495,24467,24457,28887,28760,28662,28260,28207,28105,28093,27953,27780,27527,27468,27411,27350,27317,27024,26822,26813,26698,26641,26293,26250,26116,26025,26005,25904,25275,29024,29004,28823,28907,96116,29176","bike_types":{"4":35,"51":3},"place_type":"0","rack_locks":"1"},{"uid":"2586045","lat":"52.2223071","lng":"21.0907259","name":"Meissnera - Fieldorfa","spot":"1","number":"9697","bikes":"26","bike_racks":"15","free_racks":"1","terminal_type":"7inch","bike_numbers":"24765,24505,28534,28465,28322,28252,27973,27853,27697,27555,27321,27267,27246,27033,26655,26367,26253,26023,25303,25296,29057,28858,28841,96476,96296,96087","bike_types":{"4":26},"place_type":"0","rack_locks":"1"},{"uid":"2586268","lat":"52.23938046828","lng":"21.016716957092","name":"Krakowskie Przedmie\u015bcie - Traugutta 2","spot":"1","number":"94931","bikes":"19","bike_racks":"24","free_racks":"5","terminal_type":"7inch","bike_numbers":"28820,28773,28585,28493,28319,28208,27162,26995,26352,26299,26020,25578,25441,25416,25270,25171,25070,96013,96531","bike_types":{"4":19},"place_type":"0","rack_locks":"1"},{"uid":"2586270","lat":"52.241814568386","lng":"21.024039387703","name":"Lipowa - Dobra 2","spot":"1","number":"94961","bikes":"19","bike_racks":"19","free_racks":"0","terminal_type":"7inch","bike_numbers":"24787,24571,28639,28549,28091,28086,28012,27983,27714,27370,26810,26102,25895,25727,25240,25202,96005,96311,29256","bike_types":{"4":19},"place_type":"0","rack_locks":"1"},