[{"region_info":{"lat":"52.2345","lng":"21.0024","zoom":"11","name":"VETURILO Poland","hotline":"+4819115","domain":"vp","country":"PL","country_name":"Poland","terms":"http:\/\/www.veturilo.waw.pl\/terms\/?v=201701","policy":"","website":"http:\/\/www.veturilo.waw.pl\/","show_free_racks":"1","booked_bikes":"0","set_point_bikes":"5277","available_bikes":"4476"},"places_summary":{"lngMin":20.8689688,"lngMax":21.120087,"latMin":52.117285,"latMax":52.3485329,"lngAvg":21.007806372598,"latAvg":52.230618632679},"places":[{"uid":"2585259","lat":"52.296298","lng":"20.9583575","name":"Dewajtis - UKSW","spot":"1","number":"9402","bikes":"18","bike_racks":"30","free_racks":"12","terminal_type":"7inch","bike_numbers":"24846,24682,24574,28645,28620,26968,26591,26338,26199,25734,25461,25460,25394,29088,28958,28911,63608,29188","bike_types":{"4":18},"place_type":"0","rack_locks":"1"},{"uid":"2585263","lat":"52.2909738","lng":"20.9295559","name":"Metro M\u0142ociny","spot":"1","number":"9403","bikes":"11","bike_racks":"30","free_racks":"13","terminal_type":"7inch","bike_numbers":"24714,24036,28707,27465,26508,26076,25400,25070,29061,25625,96166","bike_types":{"4":10,"54":1},"place_type":"0","rack_locks":"1"},{"uid":"2585265","lat":"52.2901732","lng":"20.9503698","name":"Marymoncka - Dewajtis","spot":"1","number":"9404","bikes":"21","bike_racks":"30","free_racks":"5","terminal_type":"7inch","bike_numbers":"24543,24509,28370,28037,27966,27929,27671,27540,27217,26991,26798,26632,26294,26242,25472,29101,29010,29428,96285,96170,96112","bike_types":{"4":21},"place_type":"0","rack_locks":"1"},{"uid":"2585267","lat":"52.285914","lng":"20.940561","name":"Metro Wawrzyszew","spot":"1","number":"9405","bikes":"8","bike_racks":"20","free_racks":"11","terminal_type":"7inch","bike_numbers":"24847,24724,24513,28483,27254,25899,25544,29025","bike_types":{"4":8},"place_type":"0","rack_locks":"1"},{"uid":"2585269","lat":"52.2336142","lng":"21.0146353","name":"G\u00f3rskiego - Szpitalna","spot":"1","number":"9406","bikes":"2","bike_racks":"16","free_racks":"14","terminal_type":"7inch","bike_numbers":"28446,25260","bike_types":{"4":2},"place_type":"0","rack_locks":"1"},{"uid":"2585271","lat":"52.2816265","lng":"20.9498871","name":"Metro Stare Bielany","spot":"1","number":"9407","bikes":"5","bike_racks":"30","free_racks":"23","terminal_type":"7inch","bike_numbers":"28478,26663,26363,26127,25949","bike_types":{"4":5},"place_type":"0","rack_locks":"1"},{"uid":"2585272","lat":"52.2361217","lng":"21.0219096","name":"Ordynacka - Uniwersytet Muzyczny","spot":"1","number":"9408","bikes":"16","bike_racks":"20","free_racks":"4","terminal_type":"7inch","bike_numbers":"24463,28494,28409,28319,27667,27318,27140,27006,26987,26944,25974,25911,25854,29092,96109,96093","bike_types":{"51":1,"4":15},"place_type":"0","rack_locks":"1"},{"uid":"2585273","lat":"52.2768774","lng":"20.9481302","name":"Bielany-Ratusz","spot":"1","number":"9409","bikes":"17","bike_racks":"28","free_racks":"10","terminal_type":"7inch","bike_numbers":"24843,24694,28743,27990,27801,27480,26539,26100,25927,25568,25407,25399,25358,29066,29011,96047,96227","bike_types":{"4":17},"place_type":"0","rack_locks":"1"},{"uid":"2585275","lat":"52.2761569","lng":"20.9616673","name":"Metro S\u0142odowiec","spot":"1","number":"9410","bikes":"2","bike_racks":"30","free_racks":"28","terminal_type":"7inch","bike_numbers":"27468,96374","bike_types":{"4":2},"place_type":"0","rack_locks":"1"},{"uid":"2585278","lat":"52.2777751","lng":"20.9856999","name":"Potocka - OSiR \u017boliborz","spot":"1","number":"9411","bikes":"12","bike_racks":"15","free_racks":"0","terminal_type":"7inch","bike_numbers":"24931,24731,24523,27214,27072,26532,25804,25660,96032,96497,96456,96134","bike_types":{"4":12},"place_type":"0","rack_locks":"1"},{"uid":"2585280","lat":"52.273527782989","lng":"20.994186401367","name":"Gwia\u017adzista - Promyka","spot":"1","number":"9412","bikes":"8","bike_racks":"16","free_racks":"6","terminal_type":"7inch","bike_numbers":"24746,24538,27678,27573,27359,26466,26424,26030","bike_types":{"4":8},"place_type":"0","rack_locks":"1"},{"uid":"2585281","lat":"52.270941","lng":"20.9326269","name":"al. Reymonta - Conrada","spot":"1","number":"9413","bikes":"41","bike_racks":"30","free_racks":"3","terminal_type":"7inch","bike_numbers":"24930,24839,24824,24806,28601,28408,28268,28191,28138,28133,27955,27887,27683,27661,27396,27273,27191,27171,26977,26774,26614,26443,26423,26361,26098,26090,25869,25578,25484,25306,25235,25178,25142,25052,25961,96518,96514,96506,96305,96293,29152","bike_types":{"4":41},"place_type":"0","rack_locks":"1"},{"uid":"2585283","lat":"52.2706441","lng":"20.9504181","name":"Broniewskiego - Perzy\u0144skiego","spot":"1","number":"9414","bikes":"25","bike_racks":"16","free_racks":"0","terminal_type":"7inch","bike_numbers":"24956,24730,24557,24026,28768,28332,28213,27804,27368,26999,26278,26135,26079,25906,25897,25738,25454,25171,24555,28810,28833,96496,96466,96376,96189","bike_types":{"4":24,"26":1},"place_type":"0","rack_locks":"1"},{"uid":"2585284","lat":"52.2714203","lng":"20.9727099","name":"Metro Marymont","spot":"1","number":"9415","bikes":"23","bike_racks":"30","free_racks":"10","terminal_type":"7inch","bike_numbers":"24917,24898,24891,24873,24698,24628,28763,28600,27810,27656,27123,26927,26608,26408,25816,25259,29090,29028,28962,96455,96418,96406,29249","bike_types":{"4":23},"place_type":"0","rack_locks":"1"},{"uid":"2585285","lat":"52.2694081","lng":"20.9833664","name":"Metro Plac Wilsona","spot":"1","number":"9416","bikes":"14","bike_racks":"21","free_racks":"5","terminal_type":"7inch","bike_numbers":"24687,24553,28737,28265,28155,28054,27543,27160,26971,26887,26406,25830,96311,96277","bike_types":{"4":14},"place_type":"0","rack_locks":"1"},{"uid":"2585286","lat":"52.2668623","lng":"20.9637032","name":"Broniewskiego - W\u0142o\u015bcia\u0144ska","spot":"1","number":"9417","bikes":"16","bike_racks":"19","free_racks":"5","terminal_type":"7inch","bike_numbers":"24927,24643,24530,28633,28401,27550,27245,27104,25714,25440,25409,25322,29343,96298,96160,29161","bike_types":{"4":16},"place_type":"0","rack_locks":"1"},{"uid":"2585288","lat":"52.2643984","lng":"20.9723179","name":"Broniewskiego - Krasi\u0144skiego","spot":"1","number":"9418","bikes":"8","bike_racks":"16","free_racks":"8","maintenance":"1","terminal_type":"7inch","bike_numbers":"24740,24621,27934,27110,26829,29077,29060,29013","bike_types":{"4":8},"place_type":"0","rack_locks":"1"},{"uid":"2585289","lat":"52.267875","lng":"21.0020667","name":"Wybrze\u017ce Gdy\u0144skie - KS Sp\u00f3jnia","spot":"1","number":"9419","bikes":"11","bike_racks":"15","free_racks":"2","terminal_type":"7inch","bike_numbers":"24966,24639,28533,28096,27686,27673,25230,25118,29065,29127,29228","bike_types":{"4":10,"0":1},"place_type":"0","rack_locks":"1"},{"uid":"2585291","lat":"52.2624054","lng":"20.9802551","name":"Plac Grunwaldzki","spot":"1","number":"9420","bikes":"26","bike_racks":"30","free_racks":"7","terminal_type":"7inch","bike_numbers":"24826,28342,28307,27949,27782,27509,27380,27333,26946,26651,26451,26427,26343,26083,25925,25893,25859,25404,25258,25176,25080,29352,96434,96397,96393,96131","bike_types":{"4":26},"place_type":"0","rack_locks":"1"},{"uid":"2585296","lat":"52.2612575","lng":"20.9863191","name":"Zaj\u0105czka - Bitwy Pod Rokitn\u0105","spot":"1","number":"9421","bikes":"15","bike_racks":"15","free_racks":"0","terminal_type":"7inch","bike_numbers":"24758,24515,24015,28764,28438,28021,27390,27086,26562,25408,25237,96001,96275,96264,96225","bike_types":{"4":14,"26":1},"place_type":"0","rack_locks":"1"},{"uid":"2585297","lat":"52.2645018","lng":"20.9895998","name":"Plac Inwalid\u00f3w","spot":"1","number":"9422","bikes":"12","bike_racks":"15","free_racks":"2","terminal_type":"7inch","bike_numbers":"28903,28025,27956,27907,27844,26725,26516,25755,29123,96380,96350,96578","bike_types":{"4":11,"0":1},"place_type":"0","rack_locks":"1"},{"uid":"2585299","lat":"52.258245356688","lng":"20.898613929749","name":"P\u0119tla Stare Bemowo","spot":"1","number":"9423","bikes":"8","bike_racks":"21","free_racks":"13","terminal_type":"7inch","bike_numbers":"24764,28462,28418,27250,26380,25931,25724,96035","bike_types":{"4":8},"place_type":"0","rack_locks":"1"},{"uid":"2585301","lat":"52.260895125763","lng":"20.923923254013","name":"P\u0119tla Nowe Bemowo","spot":"1","number":"9424","bikes":"18","bike_racks":"25","free_racks":"5","terminal_type":"7inch","bike_numbers":"24790,28260,28149,27898,26786,26773,26449,26290,25369,25220,28935,28934,96008,96375,96321,96314,96233,96206","bike_types":{"4":18},"place_type":"0","rack_locks":"1"},{"uid":"2585304","lat":"52.2575903","lng":"20.9323374","name":"Obro\u0144c\u00f3w Tobruku - Pieni\u0105\u017cka","spot":"1","number":"9425","bikes":"14","bike_racks":"12","free_racks":"0","terminal_type":"7inch","bike_numbers":"24559,24485,24028,28316,26872,26549,25293,25137,25081,29027,28924,28824,96458,96152","bike_types":{"4":12,"51":1,"26":1},"place_type":"0","rack_locks":"1"},{"uid":"2585305","lat":"52.2593225","lng":"20.9605511","name":"Pow\u0105zkowska - Krasi\u0144skiego","spot":"1","number":"9426","bikes":"19","bike_racks":"23","free_racks":"3","terminal_type":"7inch","bike_numbers":"24944,24924,24906,24798,24652,24486,28210,27690,27639,27631,27486,27459,27309,26279,25864,25278,25189,29039,96443","bike_types":{"4":18,"51":1},"place_type":"0","rack_locks":"1"},{"uid":"2585306","lat":"52.2563145","lng":"20.9682307","name":"Pow\u0105zkowska - Plac Niemena","spot":"1","number":"9427","bikes":"11","bike_racks":"16","free_racks":"5","terminal_type":"7inch","bike_numbers":"24857,28674,28535,28116,28055,27252,26960,26739,25866,25332,96101","bike_types":{"4":11},"place_type":"0","rack_locks":"1"},{"uid":"2585307","lat":"52.258524460024","lng":"20.970931649208","name":"Przasnyska - Rydygiera","spot":"1","number":"9428","bikes":"23","bike_racks":"15","free_racks":"0","terminal_type":"7inch","bike_numbers":"24684,24681,24506,28589,28069,27824,27802,26925,26868,26617,26610,26420,26264,26216,25416,25280,25046,29087,29076,29007,28857,28834,29282","bike_types":{"4":23},"place_type":"0","rack_locks":"1"},{"uid":"2585308","lat":"52.253594","lng":"20.9798744","name":"Pow\u0105zkowska - Burakowska","spot":"1","number":"9429","bikes":"13","bike_racks":"20","free_racks":"8","terminal_type":"7inch","bike_numbers":"28801,28663,28570,28130,27860,27284,26888,26323,26171,25104,25073,28861,96478","bike_types":{"4":13},"place_type":"0","rack_locks":"1"},{"uid":"2585311","lat":"52.2576018","lng":"20.9944975","name":"Metro Dworzec Gda\u0144ski","spot":"1","number":"9430","bikes":"40","bike_racks":"30","free_racks":"7","terminal_type":"7inch","bike_numbers":"24805,24616,24490,28885,28727,28723,28593,28584,28530,28510,28271,28157,27787,27769,27500,27466,27460,27235,27022,26833,26826,26822,26717,26605,26533,26435,26002,25609,25101,29338,29054,28971,28993,96031,96499,96356,96340,96220,96196,29190","bike_types":{"4":39,"51":1},"place_type":"0","rack_locks":"1"},{"uid":"2585315","lat":"52.2465952","lng":"20.9429216","name":"Obozowa - Cio\u0142ka","spot":"1","number":"9432","bikes":"4","bike_racks":"13","free_racks":"9","terminal_type":"7inch","bike_numbers":"28325,26997,28948,29144","bike_types":{"4":3,"0":1},"place_type":"0","rack_locks":"1"},{"uid":"2585317","lat":"52.227621983552","lng":"20.956758856773","name":"al. Prymasa Tysi\u0105clecia - Kasprzaka","spot":"1","number":"9433","bikes":"12","bike_racks":"23","free_racks":"11","terminal_type":"7inch","bike_numbers":"28457,28220,28112,27765,27132,26299,25277,25270,28843,96362,96236,29178","bike_types":{"4":12},"place_type":"0","rack_locks":"1"},{"uid":"2585319","lat":"52.246037","lng":"20.962463","name":"Obozowa - Radziwie","spot":"1","number":"9434","bikes":"1","bike_racks":"13","free_racks":"11","terminal_type":"7inch","bike_numbers":"27236","bike_types":{"4":1},"place_type":"0","rack_locks":"1"},{"uid":"2585321","lat":"52.2514708","lng":"20.9857053","name":"al. Jana Paw\u0142a II - Stawki","spot":"1","number":"9435","bikes":"21","bike_racks":"23","free_racks":"2","terminal_type":"7inch","bike_numbers":"28654,27980,27946,27854,27511,27135,26796,26463,26428,26181,26143,26059,25676,25427,25085,29448,28996,96239,96163,96156,29241","bike_types":{"4":21},"place_type":"0","rack_locks":"1"},{"uid":"2585323","lat":"52.2535305","lng":"20.9924922","name":"Stawki - Dubois","spot":"1","number":"9436","bikes":"6","bike_racks":"13","free_racks":"6","terminal_type":"7inch","bike_numbers":"28039,26627,26259,25378,25343,96475","bike_types":{"4":6},"place_type":"0","rack_locks":"1"},{"uid":"2585326","lat":"52.2541702","lng":"20.9980649","name":"Andersa - Muranowska","spot":"1","number":"9437","bikes":"11","bike_racks":"30","free_racks":"18","terminal_type":"7inch","bike_numbers":"24671,28565,28312,27674,26581,25541,25477,28969,96553,96461,29276","bike_types":{"4":11},"place_type":"0","rack_locks":"1"},{"uid":"2585327","lat":"52.255877","lng":"21.0099819","name":"Sanguszki - Wybrze\u017ce Gda\u0144skie","spot":"1","number":"9438","bikes":"23","bike_racks":"28","free_racks":"10","terminal_type":"7inch","bike_numbers":"24980,24864,24848,24666,28602,28527,28285,27977,27841,26923,26785,26751,26686,26455,26064,25785,25719,25530,25253,29348,29449,28850,96154","bike_types":{"4":23},"place_type":"0","rack_locks":"1"},{"uid":"2585330","lat":"52.24418","lng":"20.97794","name":"Okopowa - Anielewicza","spot":"1","number":"9440","bikes":"8","bike_racks":"20","free_racks":"12","terminal_type":"7inch","bike_numbers":"24813,24584,28477,27152,26062,25308,28883,96585","bike_types":{"4":8},"place_type":"0","rack_locks":"1"},{"uid":"2585333","lat":"52.2486","lng":"20.98352","name":"Smocza - Mi\u0142a","spot":"1","number":"9441","bikes":"6","bike_racks":"15","free_racks":"10","terminal_type":"7inch","bike_numbers":"24737,24636,27626,26839,26403,29426","bike_types":{"4":6},"place_type":"0","rack_locks":"1"},{"uid":"2585334","lat":"52.24616","lng":"20.98538","name":"Smocza - Anielewicza","spot":"1","number":"9442","bikes":"12","bike_racks":"17","free_racks":"4","terminal_type":"7inch","bike_numbers":"28575,28547,27658,27470,27443,27384,27268,26616,26236,25762,29022,96389","bike_types":{"4":12},"place_type":"0","rack_locks":"1"},{"uid":"2585335","lat":"52.247226","lng":"20.9893155","name":"al. Jana Paw\u0142a II - Anielewicza","spot":"1","number":"9443","bikes":"3","bike_racks":"22","free_racks":"19","terminal_type":"7inch","bike_numbers":"25188,29048,29452","bike_types":{"4":3},"place_type":"0","rack_locks":"1"},{"uid":"2585337","lat":"52.249052","lng":"20.9948923","name":"Anielewicza - Zamenhofa","spot":"1","number":"9444","bikes":"2","bike_racks":"15","free_racks":"11","terminal_type":"7inch","bike_numbers":"27220,29217","bike_types":{"4":2},"place_type":"0","rack_locks":"1"},{"uid":"2585338","lat":"52.2492196","lng":"20.9971878","name":"Anielewicza - Andersa","spot":"1","number":"9445","bikes":"2","bike_racks":"18","free_racks":"16","terminal_type":"7inch","bike_numbers":"26718","bike_types":{"4":1},"place_type":"0","rack_locks":"1"},{"uid":"2585340","lat":"52.251549","lng":"21.002749","name":"Bonifraterska - Franciszka\u0144ska","spot":"1","number":"9446","bikes":"9","bike_racks":"16","free_racks":"8","terminal_type":"7inch","bike_numbers":"28005,26736,26701,26128,25723,25605,25572,25309,29260","bike_types":{"4":9},"place_type":"0","rack_locks":"1"},{"uid":"2585342","lat":"52.2541119","lng":"21.0093342","name":"Ko\u015bcielna - Piesza","spot":"1","number":"9448","bikes":"2","bike_racks":"26","free_racks":"23","terminal_type":"7inch","bike_numbers":"25077,96288","bike_types":{"4":2},"place_type":"0","rack_locks":"1"},{"uid":"2585344","lat":"52.2392622","lng":"20.8987641","name":"P\u0119tla Os. G\u00f3rczewska","spot":"1","number":"9449","bikes":"28","bike_racks":"15","free_racks":"0","terminal_type":"7inch","bike_numbers":"24631,24619,28667,28335,28192,27968,27892,27874,27771,27497,27417,26955,26496,26439,25831,25661,25566,25241,25197,25113,29339,28959,96433,96348,96271,96255,96102,29238","bike_types":{"4":28},"place_type":"0","rack_locks":"1"},{"uid":"2585345","lat":"52.2389287","lng":"20.9139535","name":"Bemowo-Ratusz","spot":"1","number":"9450","bikes":"14","bike_racks":"20","free_racks":"6","terminal_type":"7inch","bike_numbers":"24835,28147,28098,26871,26470,25892,25865,25805,25801,25633,25105,25095,28809,29221","bike_types":{"4":14},"place_type":"0","rack_locks":"1"},{"uid":"2585346","lat":"52.2387861","lng":"20.9424946","name":"Okocimska - Olbrachta","spot":"1","number":"9451","bikes":"16","bike_racks":"18","free_racks":"2","terminal_type":"7inch","bike_numbers":"24935,24736,24728,24567,25005,25004,28551,28400,27806,26658,26633,25889,25364,29051,96422,29166","bike_types":{"4":16},"place_type":"0","rack_locks":"1"},{"uid":"2585349","lat":"52.2506241","lng":"21.0533611","name":"Dworzec Wschodni - Lubelska","spot":"1","number":"9452","bikes":"16","bike_racks":"15","free_racks":"0","terminal_type":"7inch","bike_numbers":"24787,24577,24528,28603,28468,28387,28100,27440,27276,27263,26862,26276,25659,25570,25134,96229","bike_types":{"4":16},"place_type":"0","rack_locks":"1"},{"uid":"2585351","lat":"52.2369249","lng":"20.9723559","name":"Leszno - M\u0142ynarska","spot":"1","number":"9453","bikes":"8","bike_racks":"30","free_racks":"21","terminal_type":"7inch","bike_numbers":"24866,24023,26864,26831,26136,26045,25239,96164","bike_types":{"4":7,"26":1},"place_type":"0","rack_locks":"1"},{"uid":"2585352","lat":"52.2430451","lng":"20.9803864","name":"Dzielna - Bellottiego","spot":"1","number":"9454","bikes":"7","bike_racks":"13","free_racks":"7","terminal_type":"7inch","bike_numbers":"24971,24472,28592,28588,27547,25611,29103","bike_types":{"4":6,"51":1},"place_type":"0","rack_locks":"1"},{"uid":"2585353","lat":"52.24108","lng":"20.98316","name":"Wolno\u015b\u0107 - Bellottiego","spot":"1","number":"9455","bikes":"5","bike_racks":"16","free_racks":"11","terminal_type":"7inch","bike_numbers":"24877,24549,26510,29062,29436","bike_types":{"4":5},"place_type":"0","rack_locks":"1"},{"uid":"2585354","lat":"52.2435448","lng":"20.9873507","name":"Smocza - Nowolipki","spot":"1","number":"9456","bikes":"4","bike_racks":"16","free_racks":"12","terminal_type":"7inch","bike_numbers":"26184,25532,96533,96258","bike_types":{"4":4},"place_type":"0","rack_locks":"1"},{"uid":"2585356","lat":"52.2445767","lng":"20.99177","name":"al. Jana Paw\u0142a II - Nowolipki","spot":"1","number":"9457","bikes":"6","bike_racks":"16","free_racks":"9","terminal_type":"7inch","bike_numbers":"28269,27744,26795,25444,28907,96188","bike_types":{"4":6},"place_type":"0","rack_locks":"1"},{"uid":"2585358","lat":"52.22868","lng":"20.91509","name":"Powsta\u0144c\u00f3w \u015al\u0105skich - Cz\u0142uchowska","spot":"1","number":"9458","bikes":"14","bike_racks":"16","free_racks":"6","terminal_type":"7inch","bike_numbers":"24742,28772,28664,28135,27226,26124,26019,25565,29657,96503,96339,96256,96171,29185","bike_types":{"4":14},"place_type":"0","rack_locks":"1"},{"uid":"2585360","lat":"52.2342032","lng":"20.934689","name":"Jana Olbrachta - Antka Rozpylacza","spot":"1","number":"9459","bikes":"19","bike_racks":"13","free_racks":"0","terminal_type":"7inch","bike_numbers":"24625,28817,28677,28263,28047,27970,27945,27646,26823,26764,26553,26543,25847,25487,25451,25397,25311,96004,29156","bike_types":{"4":19},"place_type":"0","rack_locks":"1"},{"uid":"2585364","lat":"52.2401623","lng":"20.9877277","name":"Wola-Ratusz","spot":"1","number":"9460","bikes":"15","bike_racks":"15","free_racks":"0","terminal_type":"7inch","bike_numbers":"24520,25000,28610,27889,27145,27084,26422,26377,26315,26049,29107,96445,96300,96278,96157","bike_types":{"4":15},"place_type":"0","rack_locks":"1"},{"uid":"2585368","lat":"52.2445326","lng":"20.99998","name":"Plac Bankowy - Kino Muran\u00f3w","spot":"1","number":"9462","bikes":"1","bike_racks":"17","free_racks":"16","terminal_type":"7inch","bike_numbers":"27566","bike_types":{"4":1},"place_type":"0","rack_locks":"1"},{"uid":"2585369","lat":"52.2449465","lng":"21.0012943","name":"Andersa - D\u0142uga","spot":"1","number":"9463","bikes":"2","bike_racks":"30","free_racks":"28","terminal_type":"7inch","bike_numbers":"96007,96528","bike_types":{"4":2},"place_type":"0","rack_locks":"1"},{"uid":"2585370","lat":"52.2442666","lng":"21.0015893","name":"Marsza\u0142kowska - al. Solidarno\u015bci","spot":"1","number":"9464","bikes":"19","bike_racks":"30","free_racks":"11","terminal_type":"7inch","bike_numbers":"24537,28665,28552,27826,27685,27018,26282,26157,26099,26094,26093,26087,25103,29368,29454,28811,96547,96385,96121","bike_types":{"4":19},"place_type":"0","rack_locks":"1"},{"uid":"2585371","lat":"52.2431975","lng":"21.0016603","name":"Plac Bankowy - Ratusz","spot":"1","number":"9465","bikes":"9","bike_racks":"30","free_racks":"21","terminal_type":"7inch","bike_numbers":"28635,28596,28132,28028,26624,26086,25252,25155,25124","bike_types":{"4":9},"place_type":"0","rack_locks":"1"},{"uid":"2585373","lat":"52.2435719","lng":"21.0066801","name":"Senatorska - Biela\u0144ska","spot":"1","number":"9466","bikes":"8","bike_racks":"17","free_racks":"9","terminal_type":"7inch","bike_numbers":"27610,26836,25923,25878,25761,25602,25268,96427","bike_types":{"4":8},"place_type":"0","rack_locks":"1"},{"uid":"2585377","lat":"52.246314509834","lng":"21.0113042593","name":"Miodowa","spot":"1","number":"9467","bikes":"13","bike_racks":"24","free_racks":"12","terminal_type":"7inch","bike_numbers":"24908,24688,24550,26996,26743,26579,26177,26022,25960,25183,28909,96473,96169","bike_types":{"4":13},"place_type":"0","rack_locks":"1"},{"uid":"2585378","lat":"52.2435965","lng":"21.0140803","name":"Krakowskie Przedmie\u015bcie - Tr\u0119backa","spot":"1","number":"9468","bikes":"11","bike_racks":"14","free_racks":"6","terminal_type":"7inch","bike_numbers":"28561,28014,27763,27737,25619,25310,25294,28992,28989,96372,24052","bike_types":{"4":10,"26":1},"place_type":"0","rack_locks":"1"},{"uid":"2585379","lat":"52.2465625","lng":"21.0174345","name":"Mariensztat","spot":"1","number":"9469","bikes":"11","bike_racks":"15","free_racks":"4","terminal_type":"7inch","bike_numbers":"28549,27597,27544,27192,26895,26248,26001,25916,96292,96244,96077","bike_types":{"4":11},"place_type":"0","rack_locks":"1"},{"uid":"2585381","lat":"52.224934","lng":"20.945489","name":"Jana Kazimierza - Giz\u00f3w","spot":"1","number":"9471","bikes":"21","bike_racks":"13","free_racks":"0","terminal_type":"7inch","bike_numbers":"24707,28574,28540,28473,28272,27880,27515,27418,27395,27065,26885,26791,26454,26156,26097,25858,25476,25372,29014,29361,28915","bike_types":{"4":21},"place_type":"0","rack_locks":"1"},{"uid":"2585385","lat":"52.23016","lng":"20.951558","name":"Wolska - Elekcyjna","spot":"1","number":"9472","bikes":"20","bike_racks":"20","free_racks":"0","terminal_type":"7inch","bike_numbers":"24722,24659,24612,28142,27756,27338,26953,26381,26040,26017,25939,25671,25303,25019,29012,28921,28979,96313,96212,96122","bike_types":{"4":20},"place_type":"0","rack_locks":"1"},{"uid":"2585387","lat":"52.237662392829","lng":"20.955492854118","name":"al. Prymasa Tysi\u0105clecia - G\u00f3rczewska","spot":"1","number":"9473","bikes":"4","bike_racks":"20","free_racks":"18","terminal_type":"7inch","bike_numbers":"28320,26749,25621,96016","bike_types":{"4":4},"place_type":"0","rack_locks":"1"},{"uid":"2585389","lat":"52.2333374","lng":"20.9652776","name":"Wolska - P\u0142ocka","spot":"1","number":"9474","bikes":"16","bike_racks":"15","free_racks":"0","terminal_type":"7inch","bike_numbers":"24782,24588,24020,28644,28347,27896,27455,27179,27027,26740,26580,26519,26057,25717,25202,25156","bike_types":{"4":15,"26":1},"place_type":"0","rack_locks":"1"},{"uid":"2585391","lat":"52.228522296173","lng":"20.969638824463","name":"Kasprzaka - Skierniewicka","spot":"1","number":"9475","bikes":"6","bike_racks":"21","free_racks":"15","terminal_type":"7inch","bike_numbers":"26720,26716,26020,25580,25022,25020","bike_types":{"4":6},"place_type":"0","rack_locks":"1"},{"uid":"2585394","lat":"52.22898","lng":"20.97843","name":"Kasprzaka - Karolkowa","spot":"1","number":"9476","bikes":"4","bike_racks":"15","free_racks":"11","terminal_type":"7inch","bike_numbers":"24832,26118,25728,29387","bike_types":{"4":4},"place_type":"0","rack_locks":"1"},{"uid":"2585396","lat":"52.2328752","lng":"20.9805411","name":"Muzeum Powstania Warszawskiego","spot":"1","number":"9477","bikes":"3","bike_racks":"10","free_racks":"7","terminal_type":"7inch","bike_numbers":"24914,28453,96310","bike_types":{"4":3},"place_type":"0","rack_locks":"1"},{"uid":"2585398","lat":"52.22983","lng":"20.983123","name":"Metro Rondo Daszy\u0144skiego","spot":"1","number":"9478","bikes":"15","bike_racks":"26","free_racks":"10","terminal_type":"7inch","bike_numbers":"28152,27828,27501,27428,27034,27010,26270,26061,25691,25519,25039,29036,96027,96440,29227","bike_types":{"4":15},"place_type":"0","rack_locks":"1"},{"uid":"2585400","lat":"52.23145","lng":"20.98869","name":"Prosta - Wronia","spot":"1","number":"9479","bikes":"6","bike_racks":"15","free_racks":"9","terminal_type":"7inch","bike_numbers":"27306,26392,26256,26055,28913,96262","bike_types":{"4":6},"place_type":"0","rack_locks":"1"},{"uid":"2585401","lat":"52.2373141","lng":"20.9888488","name":"\u017belazna - Ch\u0142odna","spot":"1","number":"9480","bikes":"7","bike_racks":"15","free_racks":"7","terminal_type":"7inch","bike_numbers":"24890,24837,28131,27164,27044,25988,25499","bike_types":{"4":7},"place_type":"0","rack_locks":"1"},{"uid":"2585402","lat":"52.2344946","lng":"20.9905117","name":"\u017belazna - Grzybowska","spot":"1","number":"9481","bikes":"1","bike_racks":"20","free_racks":"20","terminal_type":"7inch","bike_numbers":"29086","bike_types":{"4":1},"place_type":"0","rack_locks":"1"},{"uid":"2585405","lat":"52.238666","lng":"20.9957314","name":"al. Jana Paw\u0142a II - Plac Mirowski","spot":"1","number":"9482","bikes":"5","bike_racks":"16","free_racks":"10","terminal_type":"7inch","bike_numbers":"24834,28648,27885,26545,96435","bike_types":{"4":5},"place_type":"0","rack_locks":"1"},{"uid":"2585406","lat":"52.2357151","lng":"20.9966071","name":"al. Jana Paw\u0142a II - Grzybowska","spot":"1","number":"9483","bikes":"1","bike_racks":"23","free_racks":"21","terminal_type":"7inch","bike_numbers":"24048","bike_types":{"26":1},"place_type":"0","rack_locks":"1"},{"uid":"2585410","lat":"52.23958","lng":"21.00027","name":"Ptasia - Zimna","spot":"1","number":"9485","bikes":"1","bike_racks":"16","free_racks":"13","terminal_type":"7inch","bike_numbers":"96036","bike_types":{"4":1},"place_type":"0","rack_locks":"1"},{"uid":"2585412","lat":"52.2336314","lng":"21.0028795","name":"Emilii Plater - \u015awi\u0119tokrzyska","spot":"1","number":"9486","bikes":"4","bike_racks":"26","free_racks":"21","terminal_type":"7inch","bike_numbers":"24755,28044,25371,28831","bike_types":{"4":4},"place_type":"0","rack_locks":"1"},{"uid":"2585413","lat":"52.2358704","lng":"21.0037806","name":"Plac Grzybowski","spot":"1","number":"9487","bikes":"5","bike_racks":"26","free_racks":"21","terminal_type":"7inch","bike_numbers":"28901,27216,25902,25135,28952","bike_types":{"4":5},"place_type":"0","rack_locks":"1"},{"uid":"2585416","lat":"52.2384853","lng":"21.0067552","name":"Marsza\u0142kowska - Kr\u00f3lewska","spot":"1","number":"9488","bikes":"2","bike_racks":"19","free_racks":"18","terminal_type":"7inch","bike_numbers":"27415,26222","bike_types":{"4":2},"place_type":"0","rack_locks":"1"},{"uid":"2585417","lat":"52.2364206","lng":"21.0072407","name":"Marsza\u0142kowska - Zielna","spot":"1","number":"9489","bikes":"7","bike_racks":"30","free_racks":"21","terminal_type":"7inch","bike_numbers":"24732,24699,28608,25788,25533,28871,96100","bike_types":{"4":7},"place_type":"0","rack_locks":"1"},{"uid":"2585420","lat":"52.2397008","lng":"21.0119292","name":"Plac Ma\u0142achowskiego","spot":"1","number":"9491","bikes":"9","bike_racks":"16","free_racks":"4","terminal_type":"7inch","bike_numbers":"28033,27619,26863,26603,26379,25793,25594,25573,25432","bike_types":{"4":9},"place_type":"0","rack_locks":"1"},{"uid":"2585422","lat":"52.2359114","lng":"21.0135654","name":"Plac Powsta\u0144c\u00f3w Warszawy","spot":"1","number":"9492","bikes":"1","bike_racks":"20","free_racks":"19","terminal_type":"7inch","bike_numbers":"28489","bike_types":{"4":1},"place_type":"0","rack_locks":"1"},{"uid":"2585423","lat":"52.2393559","lng":"21.016603","name":"Krakowskie Przedmie\u015bcie - Traugutta","spot":"1","number":"9493","bikes":"9","bike_racks":"24","free_racks":"16","terminal_type":"7inch","bike_numbers":"24999,24747,24642,28634,28449,27838,27262,26309,29231","bike_types":{"4":9},"place_type":"0","rack_locks":"1"},{"uid":"2585429","lat":"52.238298","lng":"21.0184014","name":"Obo\u017ana - Kopernika","spot":"1","number":"9495","bikes":"8","bike_racks":"22","free_racks":"13","terminal_type":"7inch","bike_numbers":"26809,26318,26069,25740,25523,29115,96019,96150","bike_types":{"4":8},"place_type":"0","rack_locks":"1"},{"uid":"2585430","lat":"52.24190654256","lng":"21.024259328842","name":"Lipowa - Dobra","spot":"1","number":"9496","bikes":"40","bike_racks":"19","free_racks":"2","terminal_type":"7inch","bike_numbers":"24856,24838,24781,24776,24580,24510,28757,28517,28031,27747,27629,27580,27527,27523,27473,27202,27190,27181,27004,26938,26906,26840,26442,26399,26313,26252,26170,25708,25604,25517,25353,25298,25262,29461,29652,25629,28837,28826,96048,29195","bike_types":{"4":40},"place_type":"0","rack_locks":"1"},{"uid":"2585431","lat":"52.2413087","lng":"21.0281727","name":"Centrum Nauki Kopernik","spot":"1","number":"9497","bikes":"9","bike_racks":"30","free_racks":"20","terminal_type":"7inch","bike_numbers":"24911,24903,24570,27976,27869,27242,26219,25211,96005","bike_types":{"4":9},"place_type":"0","rack_locks":"1"},{"uid":"2585432","lat":"52.2264464","lng":"20.9837164","name":"Kolejowa","spot":"1","number":"9498","bikes":"7","bike_racks":"16","free_racks":"8","terminal_type":"7inch","bike_numbers":"24640,28695,28511,27924,26494,26010,96520","bike_types":{"4":7},"place_type":"0","rack_locks":"1"},{"uid":"2585433","lat":"52.22983","lng":"20.993996","name":"\u017belazna - Sienna","spot":"1","number":"9499","bikes":"6","bike_racks":"24","free_racks":"16","terminal_type":"7inch","bike_numbers":"24949,27195,25942,25641,25128,96377","bike_types":{"4":6},"place_type":"0","rack_locks":"1"},{"uid":"2585435","lat":"52.230201297582","lng":"20.999550819397","name":"al. Jana Paw\u0142a II - Z\u0142ota","spot":"1","number":"9500","bikes":"4","bike_racks":"16","free_racks":"12","terminal_type":"7inch","bike_numbers":"24495,28726,26261,25082","bike_types":{"51":1,"4":3},"place_type":"0","rack_locks":"1"},{"uid":"2585438","lat":"52.2309778","lng":"21.0036755","name":"Emilii Plater - Z\u0142ota","spot":"1","number":"9501","bikes":"28","bike_racks":"30","free_racks":"1","terminal_type":"7inch","bike_numbers":"24951,24786,28819,28114,28018,27967,27965,27757,27702,27603,26748,26712,26527,26493,26240,26007,25992,25886,25848,25635,25482,25217,25196,28936,29432,28827,96442,29206","bike_types":{"4":28},"place_type":"0","rack_locks":"1"},{"uid":"2585440","lat":"52.232816601853","lng":"21.006980538368","name":"Pa\u0142ac Kultury i Nauki","spot":"1","number":"9502","bikes":"7","bike_racks":"17","free_racks":"10","terminal_type":"7inch","bike_numbers":"28599,28509,26590,25438,29038,29372,96507","bike_types":{"4":7},"place_type":"0","rack_locks":"1"},{"uid":"2585442","lat":"52.232934","lng":"21.0101791","name":"Marsza\u0142kowska - Z\u0142ota","spot":"1","number":"9503","bikes":"14","bike_racks":"22","free_racks":"5","terminal_type":"7inch","bike_numbers":"24916,28755,27749,27660,27524,27419,27201,27128,27100,26729,26462,25542,25511,25489","bike_types":{"4":14},"place_type":"0","rack_locks":"1"},{"uid":"2585445","lat":"52.231987","lng":"21.016092","name":"Bracka - Krucza","spot":"1","number":"9504","bikes":"6","bike_racks":"20","free_racks":"14","terminal_type":"7inch","bike_numbers":"27718,26990,26754,26618,25283,96060","bike_types":{"4":6},"place_type":"0","rack_locks":"1"},{"uid":"2585446","lat":"52.2355713","lng":"21.0179642","name":"Nowy \u015awiat - Warecka","spot":"1","number":"9505","bikes":"1","bike_racks":"24","free_racks":"24","terminal_type":"7inch","bike_numbers":"25058","bike_types":{"4":1},"place_type":"0","rack_locks":"1"},{"uid":"2585447","lat":"52.2337571","lng":"21.0202789","name":"Ga\u0142czy\u0144skiego - Foksal","spot":"1","number":"9506","bikes":"14","bike_racks":"24","free_racks":"10","terminal_type":"7inch","bike_numbers":"24974,24602,28690,28358,28074,27692,26942,26816,25803,25696,25601,25284,25043,96017","bike_types":{"4":14},"place_type":"0","rack_locks":"1"},{"uid":"2585450","lat":"52.2375934","lng":"21.0256487","name":"Topiel - Tamka","spot":"1","number":"9507","bikes":"26","bike_racks":"20","free_racks":"2","terminal_type":"7inch","bike_numbers":"24995,28598,28548,27997,27331,27187,27183,27087,26920,26907,26854,26760,26735,26596,26441,25922,25771,25669,96014,96550,96535,96492,96471,96351,96197,29154","bike_types":{"4":26},"place_type":"0","rack_locks":"1"},{"uid":"2585452","lat":"52.2358752","lng":"21.0317323","name":"Solec - Jaracza","spot":"1","number":"9508","bikes":"26","bike_racks":"15","free_racks":"0","terminal_type":"7inch","bike_numbers":"24940,24662,24593,28218,28027,27729,27675,27653,27464,27259,27117,27030,26805,26513,26053,25950,25422,29364,29360,28891,96317,96309,96173,96123,96110,29159","bike_types":{"4":26},"place_type":"0","rack_locks":"1"},{"uid":"2585453","lat":"52.2218874","lng":"20.9795301","name":"al. Jerozolimskie - Niemcewicza","spot":"1","number":"9509","bikes":"4","bike_racks":"19","free_racks":"15","terminal_type":"7inch","bike_numbers":"28086,27253,28973,96523","bike_types":{"4":4},"place_type":"0","rack_locks":"1"},{"uid":"2585455","lat":"52.2222155","lng":"20.9866293","name":"Ochota-Ratusz","spot":"1","number":"9510","bikes":"11","bike_racks":"23","free_racks":"12","terminal_type":"7inch","bike_numbers":"25009,27843,27156,26307,26042,25986,25548,25317,60845,28846,96370","bike_types":{"4":11},"place_type":"0","rack_locks":"1"},{"uid":"2585457","lat":"52.2249718","lng":"20.9897661","name":"Plac Zawiszy","spot":"1","number":"9511","bikes":"14","bike_racks":"24","free_racks":"11","terminal_type":"7inch","bike_numbers":"28393,27796,27784,27028,26932,26710,26469,26142,26125,25720,96493,96320,29169,29275","bike_types":{"4":14},"place_type":"0","rack_locks":"1"},{"uid":"2585460","lat":"52.22626","lng":"20.9961309","name":"al. Jerozolimskie - Lindleya","spot":"1","number":"9512","bikes":"0","bike_racks":"15","free_racks":"14","terminal_type":"7inch","place_type":"0","rack_locks":"1","bike_numbers":null,"bike_types":[]},{"uid":"2585462","lat":"52.2241455","lng":"20.9975244","name":"Lindleya - szpital","spot":"1","number":"9513","bikes":"2","bike_racks":"28","free_racks":"26","terminal_type":"7inch","bike_numbers":"24734,27403","bike_types":{"4":2},"place_type":"0","rack_locks":"1"},{"uid":"2585464","lat":"52.227861","lng":"21.0008509","name":"Warszawa \u015ar\u00f3dmie\u015bcie WKD","spot":"1","number":"9514","bikes":"11","bike_racks":"18","free_racks":"6","terminal_type":"7inch","bike_numbers":"24542,28485,27710,27173,27012,26859,26112,25389,25340,25177,96387","bike_types":{"4":11},"place_type":"0","rack_locks":"1"},{"uid":"2585466","lat":"52.2249555","lng":"21.0031664","name":"Oczki - WUM","spot":"1","number":"9515","bikes":"17","bike_racks":"19","free_racks":"3","terminal_type":"7inch","bike_numbers":"28753,28586,28391,27412,27401,27355,27095,27093,27008,26981,26561,26141,25819,25319,25163,28856,29158","bike_types":{"4":17},"place_type":"0","rack_locks":"1"},{"uid":"2585469","lat":"52.2290464","lng":"21.0054544","name":"Emilii Plater - Al. Jerozolimskie","spot":"1","number":"9517","bikes":"11","bike_racks":"30","free_racks":"15","terminal_type":"7inch","bike_numbers":"24655,24016,28714,28329,28118,27835,27637,27081,26564,25414,25366","bike_types":{"4":10,"26":1},"place_type":"0","rack_locks":"1"},{"uid":"2585470","lat":"52.2259343","lng":"21.0067537","name":"Emilii Plater - Wsp\u00f3lna","spot":"1","number":"9518","bikes":"5","bike_racks":"15","free_racks":"10","terminal_type":"7inch","bike_numbers":"24943,26933,26445,25120,96172","bike_types":{"4":5},"place_type":"0","rack_locks":"1"},{"uid":"2585472","lat":"52.23001","lng":"21.01088","name":"Metro Centrum","spot":"1","number":"9519","bikes":"24","bike_racks":"30","free_racks":"6","terminal_type":"7inch","bike_numbers":"24958,24783,24775,24670,28892,28728,28300,28001,27876,27748,27687,27651,27439,27295,27233,27020,26851,26698,26283,26131,25330,25094,96411,29278","bike_types":{"4":24},"place_type":"0","rack_locks":"1"},{"uid":"2585473","lat":"52.229347019086","lng":"21.011314988136","name":"Marsza\u0142kowska - Al. Jerozolimskie","spot":"1","number":"9520","bikes":"11","bike_racks":"20","free_racks":"8","terminal_type":"7inch","bike_numbers":"24979,28739,27786,27727,25612,25592,25588,29386,96517,96253,96241","bike_types":{"4":11},"place_type":"0","rack_locks":"1"},{"uid":"2585476","lat":"52.230418150276","lng":"21.013610959053","name":"al. Jerozolimskie - rejon Rotundy","spot":"1","number":"9521","bikes":"15","bike_racks":"24","free_racks":"9","terminal_type":"7inch","bike_numbers":"24976,24043,28766,27677,27024,26989,26675,26556,26488,25345,25279,29073,29435,96477,29198","bike_types":{"4":14,"26":1},"place_type":"0","rack_locks":"1"},{"uid":"2585477","lat":"52.2262882","lng":"21.0135705","name":"Marsza\u0142kowska - Ho\u017ca","spot":"1","number":"9522","bikes":"1","bike_racks":"15","free_racks":"11","terminal_type":"7inch","bike_numbers":"26232","bike_types":{"4":1},"place_type":"0","rack_locks":"1"},{"uid":"2585492","lat":"52.2282923","lng":"21.0178542","name":"Krucza - Wsp\u00f3lna","spot":"1","number":"9523","bikes":"1","bike_racks":"28","free_racks":"26","terminal_type":"7inch","bike_numbers":"29362","bike_types":{"4":1},"place_type":"0","rack_locks":"1"},{"uid":"2585684","lat":"52.23144","lng":"21.0213036","name":"Rondo de Gaulle'a","spot":"1","number":"9524","bikes":"2","bike_racks":"22","free_racks":"19","terminal_type":"7inch","bike_numbers":"26514,26145","bike_types":{"4":2},"place_type":"0","rack_locks":"1"},{"uid":"2585694","lat":"52.2278487","lng":"21.0235084","name":"Plac Trzech Krzy\u017cy","spot":"1","number":"9525","bikes":"3","bike_racks":"23","free_racks":"18","maintenance":"1","terminal_type":"7inch","bike_numbers":"26967,25083,96394","bike_types":{"4":3},"place_type":"0","rack_locks":"1"},{"uid":"2585695","lat":"52.23324","lng":"21.0261179","name":"Smolna - PKP Powi\u015ble","spot":"1","number":"9526","bikes":"5","bike_racks":"18","free_racks":"13","terminal_type":"7inch","bike_numbers":"27374,26879,26707,26506,25781","bike_types":{"4":5},"place_type":"0","rack_locks":"1"},{"uid":"2585699","lat":"52.2340191","lng":"21.0300328","name":"Herberta - PKP Powi\u015ble","spot":"1","number":"9527","bikes":"24","bike_racks":"26","free_racks":"2","terminal_type":"7inch","bike_numbers":"24933,28775,28421,28121,27600,27454,27371,27130,27096,26037,25984,25948,25837,25675,25643,25540,25449,25244,25207,25071,29419,28840,28875,29203","bike_types":{"4":24},"place_type":"0","rack_locks":"1"},{"uid":"2585704","lat":"52.2347879","lng":"21.0340991","name":"Solec - al. 3 Maja","spot":"1","number":"9528","bikes":"25","bike_racks":"24","free_racks":"0","terminal_type":"7inch","bike_numbers":"24661,28685,28637,28532,28486,28472,28253,27927,27798,27795,27633,27606,27126,26601,25913,25842,25773,25721,25219,25010,29340,29098,29031,96373,96108","bike_types":{"4":25},"place_type":"0","rack_locks":"1"},{"uid":"2585708","lat":"52.2301405","lng":"21.0303694","name":"Ksi\u0105\u017c\u0119ca - Rozbrat","spot":"1","number":"9529","bikes":"22","bike_racks":"15","free_racks":"0","terminal_type":"7inch","bike_numbers":"24965,24657,24654,28653,28376,28212,27988,27789,27611,27529,27061,26830,26673,25292,25254,25049,29445,96527,96510,96187,96125,29189","bike_types":{"4":22},"place_type":"0","rack_locks":"1"},{"uid":"2585711","lat":"52.2172177","lng":"20.9713608","name":"Szcz\u0119\u015bliwicka - APS","spot":"1","number":"9530","bikes":"5","bike_racks":"22","free_racks":"16","terminal_type":"7inch","bike_numbers":"28740,27919,26917,25794,28776","bike_types":{"4":5},"place_type":"0","rack_locks":"1"},{"uid":"2585712","lat":"52.2179474","lng":"20.9775567","name":"Kopi\u0144ska - Bia\u0142obrzeska","spot":"1","number":"9531","bikes":"10","bike_racks":"15","free_racks":"4","terminal_type":"7inch","bike_numbers":"27587,27387,27092,27043,26518,26453,25457,25129,29017,96504","bike_types":{"4":10},"place_type":"0","rack_locks":"1"},{"uid":"2585714","lat":"52.2178554","lng":"20.9828138","name":"Plac Narutowicza","spot":"1","number":"9532","bikes":"11","bike_racks":"30","free_racks":"18","terminal_type":"7inch","bike_numbers":"24778,24739,24470,24033,27703,27119,26936,26727,26210,25012,96384","bike_types":{"4":9,"51":1,"26":1},"place_type":"0","rack_locks":"1"},{"uid":"2585716","lat":"52.216641","lng":"20.9879476","name":"Raszy\u0144ska - Wawelska","spot":"1","number":"9533","bikes":"4","bike_racks":"20","free_racks":"15","terminal_type":"7inch","bike_numbers":"28715,26570,29458,96153","bike_types":{"4":4},"place_type":"0","rack_locks":"1"},{"uid":"2585717","lat":"52.2191029","lng":"20.9890149","name":"Raszy\u0144ska - Filtrowa","spot":"1","number":"9534","bikes":"6","bike_racks":"22","free_racks":"14","terminal_type":"7inch","bike_numbers":"27867,27270,26662,26075,28807,96099","bike_types":{"4":6},"place_type":"0","rack_locks":"1"},{"uid":"2585720","lat":"52.220676","lng":"21.0045554","name":"al. Niepodleg\u0142o\u015bci - Nowowiejska","spot":"1","number":"9535","bikes":"1","bike_racks":"30","free_racks":"29","terminal_type":"7inch","bike_numbers":"28777","bike_types":{"4":1},"place_type":"0","rack_locks":"1"},{"uid":"2585721","lat":"52.2174693","lng":"21.0056537","name":"Kaczy\u0144skiego - al. Niepodleg\u0142o\u015bci","spot":"1","number":"9536","bikes":"3","bike_racks":"16","free_racks":"12","terminal_type":"7inch","bike_numbers":"26358,25981,25428","bike_types":{"4":3},"place_type":"0","rack_locks":"1"},{"uid":"2585722","lat":"52.2226831","lng":"21.0081097","name":"Noakowskiego - Koszykowa","spot":"1","number":"9537","bikes":"4","bike_racks":"24","free_racks":"19","terminal_type":"7inch","bike_numbers":"24718,26690,26132,96193","bike_types":{"4":4},"place_type":"0","rack_locks":"1"},{"uid":"2585724","lat":"52.219916","lng":"21.0116824","name":"Plac Politechniki","spot":"1","number":"9538","bikes":"2","bike_racks":"27","free_racks":"26","terminal_type":"7inch","bike_numbers":"28501,28941","bike_types":{"4":2},"place_type":"0","rack_locks":"1"},{"uid":"2585727","lat":"52.223503","lng":"21.0128519","name":"Pozna\u0144ska - Zesp\u00f3\u0142 Szk\u00f3\u0142 Gastronomicznych","spot":"1","number":"9539","bikes":"0","bike_racks":"18","free_racks":"18","terminal_type":"7inch","place_type":"0","rack_locks":"1","bike_numbers":null,"bike_types":[]},{"uid":"2585728","lat":"52.2174857","lng":"21.0142949","name":"Rondo Jazdy Polskiej","spot":"1","number":"9540","bikes":"4","bike_racks":"24","free_racks":"19","terminal_type":"7inch","bike_numbers":"24002,28208,28146,26115","bike_types":{"26":1,"4":3},"place_type":"0","rack_locks":"1"},{"uid":"2585729","lat":"52.2197435","lng":"21.0157353","name":"ul. Wary\u0144skiego-ul. Nowowiejska-Metro Politechnika ","spot":"1","number":"9541","bikes":"5","bike_racks":"18","free_racks":"13","terminal_type":"7inch","bike_numbers":"24987,27564,26801,29050,96417","bike_types":{"4":5},"place_type":"0","rack_locks":"1"},{"uid":"2585731","lat":"52.2197681","lng":"21.0172775","name":"Plac Zbawiciela","spot":"1","number":"9542","bikes":"4","bike_racks":"12","free_racks":"7","terminal_type":"7inch","bike_numbers":"26559,96491,96097,29280","bike_types":{"4":4},"place_type":"0","rack_locks":"1"},{"uid":"2585735","lat":"52.2229427","lng":"21.0158211","name":"Plac Konstytucji","spot":"1","number":"9543","bikes":"4","bike_racks":"30","free_racks":"22","terminal_type":"7inch","bike_numbers":"26741,28814,96022,96076","bike_types":{"4":4},"place_type":"0","rack_locks":"1"},{"uid":"2585737","lat":"52.2238152","lng":"21.0207859","name":"Mokotowska - Pi\u0119kna","spot":"1","number":"9544","bikes":"1","bike_racks":"20","free_racks":"19","terminal_type":"7inch","bike_numbers":"27369","bike_types":{"4":1},"place_type":"0","rack_locks":"1"},{"uid":"2585738","lat":"52.2200212","lng":"21.0256299","name":"Plac na Rozdro\u017cu","spot":"1","number":"9545","bikes":"1","bike_racks":"26","free_racks":"19","terminal_type":"7inch","bike_numbers":"27911","bike_types":{"4":1},"place_type":"0","rack_locks":"1"},{"uid":"2585742","lat":"52.2249504","lng":"21.0268155","name":"Matejki - Wiejska","spot":"1","number":"9546","bikes":"8","bike_racks":"20","free_racks":"13","terminal_type":"7inch","bike_numbers":"24874,28479,26630,26350,26267,25792,29136,96174","bike_types":{"4":7,"0":1},"place_type":"0","rack_locks":"1"},{"uid":"2585747","lat":"52.2221129","lng":"21.0343873","name":"My\u015bliwiecka - Rozbrat","spot":"1","number":"9547","bikes":"13","bike_racks":"21","free_racks":"6","terminal_type":"7inch","bike_numbers":"24565,28710,28683,28012,27779,26910,26319,26039,25222,25158,25109,29427,28805","bike_types":{"4":13},"place_type":"0","rack_locks":"1"},{"uid":"2585748","lat":"52.2277124","lng":"21.0442955","name":"Port Czerniakowski","spot":"1","number":"9548","bikes":"26","bike_racks":"30","free_racks":"13","terminal_type":"7inch","bike_numbers":"24865,24802,24502,28579,28573,28516,28495,28375,28355,27836,27640,27256,27218,27125,26585,26490,26478,25429,25299,25169,29083,29459,25622,28972,96026,96565","bike_types":{"4":26},"place_type":"0","rack_locks":"1"},{"uid":"2585749","lat":"52.2109711","lng":"20.9759125","name":"Gr\u00f3jecka - Bitwy Warszawskiej 1920 roku","spot":"1","number":"9549","bikes":"1","bike_racks":"20","free_racks":"18","terminal_type":"7inch","bike_numbers":"26074","bike_types":{"4":1},"place_type":"0","rack_locks":"1"},{"uid":"2585750","lat":"52.2130296","lng":"20.9819985","name":"Pasteura - Winnicka - UW","spot":"1","number":"9550","bikes":"5","bike_racks":"24","free_racks":"19","terminal_type":"7inch","bike_numbers":"28639,27890,26432,25583,96322","bike_types":{"4":5},"place_type":"0","rack_locks":"1"},{"uid":"2585762","lat":"52.2107722","lng":"20.9847557","name":"Stefana Banacha - UW","spot":"1","number":"9551","bikes":"1","bike_racks":"29","free_racks":"28","terminal_type":"7inch","bike_numbers":"29344","bike_types":{"4":1},"place_type":"0","rack_locks":"1"},{"uid":"2585764","lat":"52.212671","lng":"21.003437","name":"Biblioteka Narodowa","spot":"1","number":"9552","bikes":"0","bike_racks":"24","free_racks":"24","terminal_type":"7inch","place_type":"0","rack_locks":"1","bike_numbers":null,"bike_types":[]},{"uid":"2585766","lat":"52.21691","lng":"21.01997","name":"Marsza\u0142kowska - Litewska","spot":"1","number":"9553","bikes":"12","bike_racks":"15","free_racks":"4","terminal_type":"7inch","bike_numbers":"24753,24605,24518,28623,27483,27266,26029,26004,96029,96542,96274,29272","bike_types":{"4":12},"place_type":"0","rack_locks":"1"},{"uid":"2585770","lat":"52.2083858","lng":"20.9631103","name":"P\u0119tla Szcz\u0119\u015bliwice","spot":"1","number":"9554","bikes":"15","bike_racks":"19","free_racks":"4","terminal_type":"7inch","bike_numbers":"24582,24564,28904,28062,27848,26852,25920,25844,25798,25086,29071,96006,96572,96315,96143","bike_types":{"4":15},"place_type":"0","rack_locks":"1"},{"uid":"2585771","lat":"52.206153650625","lng":"20.970287919044","name":"Dickensa - Geodet\u00f3w","spot":"1","number":"9555","bikes":"11","bike_racks":"16","free_racks":"5","terminal_type":"7inch","bike_numbers":"24455,25001,28410,26509,26342,25972,25186,29106,96251,96141,29252","bike_types":{"51":1,"4":10},"place_type":"0","rack_locks":"1"},{"uid":"2585772","lat":"52.205361371875","lng":"20.984664559364","name":"\u017bwirki i Wigury - Ksi\u0119cia Trojdena","spot":"1","number":"9556","bikes":"5","bike_racks":"17","free_racks":"11","terminal_type":"7inch","bike_numbers":"27866,27324,26916,25748,28815","bike_types":{"4":5},"place_type":"0","rack_locks":"1"},{"uid":"2585774","lat":"52.205801893754","lng":"20.998928546906","name":"Rakowiecka - \u015aw. A. Boboli","spot":"1","number":"9557","bikes":"2","bike_racks":"17","free_racks":"15","terminal_type":"7inch","bike_numbers":"24717,96179","bike_types":{"4":2},"place_type":"0","rack_locks":"1"},{"uid":"2585776","lat":"52.209916","lng":"21.0067794","name":"al. Niepodleg\u0142o\u015bci - Batorego","spot":"1","number":"9558","bikes":"18","bike_racks":"26","free_racks":"6","terminal_type":"7inch","bike_numbers":"24881,24716,28259,28038,27317,27282,27244,26845,26671,26385,26369,25825,29137,28816,96055,96222,96217,96124","bike_types":{"4":17,"0":1},"place_type":"0","rack_locks":"1"},{"uid":"2585779","lat":"52.2132375","lng":"21.0210568","name":"Plac Unii Lubelskiej","spot":"1","number":"9559","bikes":"10","bike_racks":"24","free_racks":"13","terminal_type":"7inch","bike_numbers":"24695,24585,28482,28469,28279,26889,25822,25504,25240,28808","bike_types":{"4":10},"place_type":"0","rack_locks":"1"},{"uid":"2585781","lat":"52.2027557","lng":"20.9508951","name":"W\u0142odarzewska - Maszynowa","spot":"1","number":"9560","bikes":"6","bike_racks":"18","free_racks":"12","terminal_type":"7inch","bike_numbers":"26046,25795,25314,96050,96444,96192","bike_types":{"4":6},"place_type":"0","rack_locks":"1"},{"uid":"2585782","lat":"52.2017647","lng":"20.9820897","name":"Sanocka - Pruszkowska","spot":"1","number":"9561","bikes":"12","bike_racks":"15","free_racks":"2","terminal_type":"7inch","bike_numbers":"24860,28662,28193,27819,26750,26504,26372,25880,25620,25320,25232,96237","bike_types":{"4":12},"place_type":"0","rack_locks":"1"},{"uid":"2585785","lat":"52.1981365","lng":"20.9833717","name":"\u017bwirki i Wigury - Rac\u0142awicka","spot":"1","number":"9562","bikes":"5","bike_racks":"18","free_racks":"12","terminal_type":"7inch","bike_numbers":"26704,26638,26613,26286,96024","bike_types":{"4":5},"place_type":"0","rack_locks":"1"},{"uid":"2585787","lat":"52.20177","lng":"20.99969","name":"Wo\u0142oska - Kulskiego","spot":"1","number":"9563","bikes":"0","bike_racks":"15","free_racks":"15","terminal_type":"7inch","place_type":"0","rack_locks":"1","bike_numbers":null,"bike_types":[]},{"uid":"2585788","lat":"52.2042638","lng":"21.014428","name":"Madali\u0144skiego - Kazimierzowska","spot":"1","number":"9564","bikes":"2","bike_racks":"24","free_racks":"20","terminal_type":"7inch","bike_numbers":"27767,25535","bike_types":{"4":2},"place_type":"0","rack_locks":"1"},{"uid":"2585789","lat":"52.2055175","lng":"21.0231033","name":"Pu\u0142awska - Dworkowa","spot":"1","number":"9565","bikes":"5","bike_racks":"19","free_racks":"13","terminal_type":"7inch","bike_numbers":"27995,27174,27071,26900,25243","bike_types":{"4":5},"place_type":"0","rack_locks":"1"},{"uid":"2585790","lat":"52.2071756","lng":"21.0312643","name":"Belwederska - Gagarina","spot":"1","number":"9566","bikes":"19","bike_racks":"30","free_racks":"10","terminal_type":"7inch","bike_numbers":"28869,28154,27979,27831,27420,27409,26975,26940,26919,26787,26597,26531,25524,25216,25125,29044,29649,28884,96028","bike_types":{"4":19},"place_type":"0","rack_locks":"1"},{"uid":"2585791","lat":"52.2074193","lng":"21.0479621","name":"Czerniakowska - Gagarina","spot":"1","number":"9567","bikes":"32","bike_racks":"25","free_racks":"0","terminal_type":"7inch","bike_numbers":"24920,24820,24816,24645,28641,28604,28546,28459,28458,28286,28136,27732,26745,26699,26402,26326,26285,26071,26063,25938,25347,25133,25013,29034,29433,29656,28830,28828,28900,28977,29172,24053","bike_types":{"4":31,"26":1},"place_type":"0","rack_locks":"1"},{"uid":"2585794","lat":"52.1938131","lng":"20.9914431","name":"Etiudy Rewolucyjnej - Mi\u0105czy\u0144ska","spot":"1","number":"9568","bikes":"20","bike_racks":"18","free_racks":"0","terminal_type":"7inch","bike_numbers":"24828,28640,28384,28262,27577,27477,27312,27148,26966,26167,26013,25862,25586,25584,25465,25112,29113,96033,96469,96416","bike_types":{"4":20},"place_type":"0","rack_locks":"1"},{"uid":"2585799","lat":"52.1994156","lng":"21.0121384","name":"Metro Rac\u0142awicka","spot":"1","number":"9570","bikes":"14","bike_racks":"30","free_racks":"15","terminal_type":"7inch","bike_numbers":"27198,27063,27051,26359,25991,25871,25695,25315,25271,25226,25223,25145,29089,28943","bike_types":{"4":14},"place_type":"0","rack_locks":"1"},{"uid":"2585800","lat":"52.199505","lng":"21.0240975","name":"Pu\u0142awska - Dolna","spot":"1","number":"9571","bikes":"5","bike_racks":"18","free_racks":"12","terminal_type":"7inch","bike_numbers":"28071,26573,25618,25555,29218","bike_types":{"4":5},"place_type":"0","rack_locks":"1"},{"uid":"2585802","lat":"52.2014754","lng":"21.0360047","name":"Sobieskiego - Che\u0142mska","spot":"1","number":"9572","bikes":"23","bike_racks":"15","free_racks":"0","terminal_type":"7inch","bike_numbers":"24929,24925,24637,24517,24497,28283,28104,27964,27741,27447,27058,27045,26929,26180,25686,25642,25206,25024,29080,96342,96202,96200,96186","bike_types":{"4":22,"51":1},"place_type":"0","rack_locks":"1"},{"uid":"2585804","lat":"52.1998446","lng":"21.05095","name":"Czerniakowska - ZUS","spot":"1","number":"9573","bikes":"12","bike_racks":"15","free_racks":"3","terminal_type":"7inch","bike_numbers":"24754,24627,28356,27676,26993,26308,26133,25914,25654,25431,28852,29207","bike_types":{"4":12},"place_type":"0","rack_locks":"1"},{"uid":"2585807","lat":"52.1916776","lng":"20.8689688","name":"PKP Ursus-Nied\u017awiadek","spot":"1","number":"9574","bikes":"10","bike_racks":"15","free_racks":"5","terminal_type":"7inch","bike_numbers":"24744,24519,28905,27598,27205,25888,25840,29131,96512,96345","bike_types":{"4":9,"0":1},"place_type":"0","rack_locks":"1"},{"uid":"2585808","lat":"52.1960469","lng":"20.8849347","name":"PKP Ursus","spot":"1","number":"9575","bikes":"9","bike_racks":"16","free_racks":"7","terminal_type":"7inch","bike_numbers":"24968,28591,28336,28083,26602,26328,25835,25221,29639","bike_types":{"4":9},"place_type":"0","rack_locks":"1"},{"uid":"2585809","lat":"52.1869936","lng":"20.8906478","name":"Sosnkowskiego - OSiR Ursus","spot":"1","number":"9576","bikes":"14","bike_racks":"15","free_racks":"4","terminal_type":"7inch","bike_numbers":"24576,28122,27569,26676,26659,26431,26397,26393,25667,25436,25256,28893,96470,96091","bike_types":{"4":14},"place_type":"0","rack_locks":"1"},{"uid":"2585811","lat":"52.2005548","lng":"20.8937538","name":"Ursus-Ratusz","spot":"1","number":"9577","bikes":"6","bike_racks":"15","free_racks":"8","terminal_type":"7inch","bike_numbers":"27379,26708,25733,25655,28825,96364","bike_types":{"4":6},"place_type":"0","rack_locks":"1"},{"uid":"2585814","lat":"52.1906376","lng":"20.8999443","name":"Skoroszewska - Prystora","spot":"1","number":"9578","bikes":"13","bike_racks":"17","free_racks":"2","terminal_type":"7inch","bike_numbers":"28460,28287,27942,27131,27047,26339,26024,25304,25194,28842,96525,96400,96301","bike_types":{"4":13},"place_type":"0","rack_locks":"1"},{"uid":"2585817","lat":"52.1882609","lng":"20.9603771","name":"G\u0142adka - OSiR W\u0142ochy","spot":"1","number":"9579","bikes":"14","bike_racks":"16","free_racks":"1","terminal_type":"7inch","bike_numbers":"24596,28636,28538,28049,27813,27416,26528,26500,26426,26065,25664,25116,29141,96259","bike_types":{"4":13,"0":1},"place_type":"0","rack_locks":"1"},{"uid":"2585820","lat":"52.2056441","lng":"20.9159142","name":"PKP W\u0142ochy","spot":"1","number":"9580","bikes":"5","bike_racks":"17","free_racks":"11","terminal_type":"7inch","bike_numbers":"24674,28117,26334,25363,96056","bike_types":{"4":5},"place_type":"0","rack_locks":"1"},{"uid":"2585821","lat":"52.2012157","lng":"20.9353145","name":"al. Jerozolimskie - Popularna","spot":"1","number":"9581","bikes":"1","bike_racks":"17","free_racks":"16","terminal_type":"7inch","bike_numbers":"96428","bike_types":{"4":1},"place_type":"0","rack_locks":"1"},{"uid":"2585824","lat":"52.1924709","lng":"20.9596664","name":"W\u0142ochy-Ratusz","spot":"1","number":"9582","bikes":"10","bike_racks":"14","free_racks":"4","terminal_type":"7inch","bike_numbers":"24885,24465,28476,28327,27797,27582,26006,29134,28847,28838","bike_types":{"4":9,"51":1},"place_type":"0","rack_locks":"1"},{"uid":"2585825","lat":"52.1946888","lng":"20.9667823","name":"1 Sierpnia - DK W\u0142ochy","spot":"1","number":"9583","bikes":"10","bike_racks":"15","free_racks":"5","terminal_type":"7inch","bike_numbers":"28003,27432,26964,26878,25853,25434,29200,28942,29359,25631","bike_types":{"4":10},"place_type":"0","rack_locks":"1"},{"uid":"2585827","lat":"52.1888962","lng":"21.0175887","name":"Metro Wierzbno","spot":"1","number":"9584","bikes":"15","bike_racks":"20","free_racks":"4","terminal_type":"7inch","bike_numbers":"24690,28713,28672,28398,27884,27348,26304,26230,26146,25863,25678,25234,29055,96279,96260","bike_types":{"4":15},"place_type":"0","rack_locks":"1"},{"uid":"2585830","lat":"52.18648","lng":"21.02538","name":"Pu\u0142awska - Idzikowskiego","spot":"1","number":"9585","bikes":"6","bike_racks":"17","free_racks":"11","terminal_type":"7inch","bike_numbers":"28497,26640,26411,25758,96057,96272","bike_types":{"4":6},"place_type":"0","rack_locks":"1"},{"uid":"2585835","lat":"52.1882861","lng":"21.0498825","name":"Sobieskiego - Mangalia","spot":"1","number":"9586","bikes":"27","bike_racks":"15","free_racks":"0","terminal_type":"7inch","bike_numbers":"24795,24697,24471,24011,28704,28582,27846,27705,27641,27293,26939,26476,26288,26250,26101,26038,25875,25851,25823,25820,25648,25316,28944,28778,96556,96147,96119","bike_types":{"4":25,"51":1,"26":1},"place_type":"0","rack_locks":"1"},{"uid":"2585837","lat":"52.178777","lng":"21.0016387","name":"Wo\u0142oska - Marynarska","spot":"1","number":"9588","bikes":"15","bike_racks":"26","free_racks":"11","terminal_type":"7inch","bike_numbers":"24458,28650,28577,27913,27545,27537,27434,27213,27209,27011,26873,26746,25638,25173,29279","bike_types":{"51":1,"4":14},"place_type":"0","rack_locks":"1"},{"uid":"2585838","lat":"52.1800882","lng":"21.0207403","name":"al. Niepodleg\u0142o\u015bci - al. Wilanowska","spot":"1","number":"9589","bikes":"15","bike_racks":"22","free_racks":"8","terminal_type":"7inch","bike_numbers":"24768,24762,28437,28143,28032,27783,27296,26664,26329,25967,25702,25595,25547,25388,25061","bike_types":{"4":15},"place_type":"0","rack_locks":"1"},{"uid":"2585839","lat":"52.1779163","lng":"21.049562","name":"P\u0119tla Stegny","spot":"1","number":"9590","bikes":"19","bike_racks":"23","free_racks":"8","terminal_type":"7inch","bike_numbers":"24827,27695,27391,27297,26861,25945,25681,25333,25111,25059,25026,29648,63626,63625,96515,96413,96312,29268,29250","bike_types":{"4":19},"place_type":"0","rack_locks":"1"},{"uid":"2585843","lat":"52.1818472","lng":"21.0562822","name":"Sobieskiego - \u015bw. Bonifacego","spot":"1","number":"9591","bikes":"20","bike_racks":"22","free_racks":"2","terminal_type":"7inch","bike_numbers":"24887,28717,28556,28334,28015,27973,27772,27402,27196,26526,26070,25846,25828,25826,25639,29654,28964,96043,96177,29208","bike_types":{"4":20},"place_type":"0","rack_locks":"1"},{"uid":"2585844","lat":"52.1702836","lng":"20.9959132","name":"P\u0119tla Bokserska","spot":"1","number":"9592","bikes":"9","bike_racks":"15","free_racks":"7","terminal_type":"7inch","bike_numbers":"24954,28666,28196,27851,26728,26356,25495,96049,96226","bike_types":{"4":9},"place_type":"0","rack_locks":"1"},{"uid":"2585846","lat":"52.1710498","lng":"21.0059144","name":"Gintrowskiego - Gotarda","spot":"1","number":"9593","bikes":"5","bike_racks":"15","free_racks":"10","terminal_type":"7inch","bike_numbers":"28617,27780,27114,26589,25932","bike_types":{"4":5},"place_type":"0","rack_locks":"1"},{"uid":"2585848","lat":"52.174435","lng":"21.0128814","name":"al. Lotnik\u00f3w - Kaczmarskiego","spot":"1","number":"9594","bikes":"5","bike_racks":"30","free_racks":"24","terminal_type":"7inch","bike_numbers":"26246,25772,25153,96488,29220","bike_types":{"4":5},"place_type":"0","rack_locks":"1"},{"uid":"2585850","lat":"52.1733132","lng":"21.0257305","name":"Metro S\u0142u\u017cew","spot":"1","number":"9595","bikes":"3","bike_racks":"24","free_racks":"21","terminal_type":"7inch","bike_numbers":"25172,25031,96410","bike_types":{"4":3},"place_type":"0","rack_locks":"1"},{"uid":"2585853","lat":"52.17343","lng":"21.03179","name":"Wa\u0142brzyska - Wr\u00f3bla","spot":"1","number":"9596","bikes":"17","bike_racks":"30","free_racks":"12","terminal_type":"7inch","bike_numbers":"28520,28023,28002,27812,27556,27399,27215,27066,27036,26637,26324,26322,25789,25426,25251,29431,96355","bike_types":{"4":17},"place_type":"0","rack_locks":"1"},{"uid":"2585856","lat":"52.170135","lng":"21.0685748","name":"Jana III Sobieskiego - al. Wilanowska","spot":"1","number":"9597","bikes":"20","bike_racks":"15","free_racks":"0","terminal_type":"7inch","bike_numbers":"24981,24595,24590,24012,28729,28696,28493,28413,27739,27614,27153,26458,25999,25818,25459,25204,25097,25056,28951,96303","bike_types":{"4":19,"26":1},"place_type":"0","rack_locks":"1"},{"uid":"2585860","lat":"52.1655879","lng":"21.0839331","name":"al. Wilanowska - Przycz\u00f3\u0142kowa","spot":"1","number":"9598","bikes":"12","bike_racks":"16","free_racks":"3","terminal_type":"7inch","bike_numbers":"24610,28051,27407,26677,26365,26195,25507,25501,28800,63630,96162,29201","bike_types":{"4":12},"place_type":"0","rack_locks":"1"},{"uid":"2585863","lat":"52.16479","lng":"21.10925","name":"Vogla - Syta","spot":"1","number":"9599","bikes":"14","bike_racks":"16","free_racks":"1","terminal_type":"7inch","bike_numbers":"24489,28528,28433,28365,28256,27834,27825,27474,27373,26434,26345,26333,25808,29095","bike_types":{"51":1,"4":13},"place_type":"0","rack_locks":"1"},{"uid":"2585868","lat":"52.1606257","lng":"21.0723245","name":"al. Rzeczypospolitej - Klimczaka","spot":"1","number":"9600","bikes":"12","bike_racks":"16","free_racks":"2","terminal_type":"7inch","bike_numbers":"24651,28108,27992,27894,27549,26512,26114,25352,29021,60855,96280,96178","bike_types":{"4":12},"place_type":"0","rack_locks":"1"},{"uid":"2585871","lat":"52.1569168","lng":"21.0760903","name":"al. Rzeczypospolitej - Branickiego","spot":"1","number":"9601","bikes":"7","bike_racks":"16","free_racks":"7","terminal_type":"7inch","bike_numbers":"24609,24484,28092,26520,26448,26262,25870","bike_types":{"4":6,"51":1},"place_type":"0","rack_locks":"1"},{"uid":"2585872","lat":"52.1593735","lng":"21.086449","name":"Przycz\u00f3\u0142kowa - Branickiego","spot":"1","number":"9602","bikes":"14","bike_racks":"16","free_racks":"3","terminal_type":"7inch","bike_numbers":"24614,24569,28513,28380,25703,25439,25412,25361,25185,96040,96338,96330","bike_types":{"4":12},"place_type":"0","rack_locks":"1"},{"uid":"2585873","lat":"52.1618136","lng":"21.0277355","name":"Metro Ursyn\u00f3w II","spot":"1","number":"9603","bikes":"12","bike_racks":"30","free_racks":"18","terminal_type":"7inch","bike_numbers":"24797,28331,27425,27015,26306,25833,25814,25384,25373,25255,29032,96184","bike_types":{"4":12},"place_type":"0","rack_locks":"1"},{"uid":"2585875","lat":"52.1622579","lng":"21.0280761","name":"Metro Ursyn\u00f3w I","spot":"1","number":"9604","bikes":"13","bike_racks":"30","free_racks":"17","terminal_type":"7inch","bike_numbers":"24712,24693,28689,27453,27289,27053,26813,25935,25453,25274,25225,25168,25045","bike_types":{"4":13},"place_type":"0","rack_locks":"1"},{"uid":"2585876","lat":"52.162401","lng":"21.0383811","name":"Jastrz\u0119bowskiego - SGGW","spot":"1","number":"9605","bikes":"20","bike_racks":"28","free_racks":"8","terminal_type":"7inch","bike_numbers":"24862,24741,24624,24611,24476,24021,28818,28537,27981,27694,27431,27147,27129,26904,26818,26357,29346,28974,96465,96358","bike_types":{"4":18,"51":1,"26":1},"place_type":"0","rack_locks":"1"},{"uid":"2585880","lat":"52.1557534","lng":"21.0232776","name":"Romera - Pieciolinii","spot":"1","number":"9606","bikes":"12","bike_racks":"16","free_racks":"4","terminal_type":"7inch","bike_numbers":"28803,28661,27962,27568,27025,26149,25874,25653,25326,25210,29096,96552","bike_types":{"4":12},"place_type":"0","rack_locks":"1"},{"uid":"2585883","lat":"52.1568674","lng":"21.0338401","name":"Metro Stok\u0142osy","spot":"1","number":"9607","bikes":"23","bike_racks":"27","free_racks":"4","terminal_type":"7inch","bike_numbers":"24656,28731,28576,28366,28349,28343,27969,27918,27618,27223,27091,26905,26525,25934,25908,25420,29035,28940,63621,63605,96521,96270,96195","bike_types":{"4":23},"place_type":"0","rack_locks":"1"},{"uid":"2585885","lat":"52.1572887","lng":"21.0440084","name":"Roso\u0142a - Ciszewskiego - SGGW","spot":"1","number":"9608","bikes":"35","bike_racks":"30","free_racks":"0","terminal_type":"7inch","bike_numbers":"24934,24850,24844,24822,24791,28698,28419,28403,28034,27994,27878,27793,27659,27506,27488,27197,27069,26850,26722,26574,26515,26189,25735,25697,25561,25346,25015,28839,28870,28881,28906,96037,96025,96459,29170","bike_types":{"4":35},"place_type":"0","rack_locks":"1"},{"uid":"2585888","lat":"52.1521429","lng":"21.0181224","name":"Pu\u0142awska - Pileckiego","spot":"1","number":"9609","bikes":"8","bike_racks":"22","free_racks":"14","terminal_type":"7inch","bike_numbers":"24615,27724,27496,27228,26984,25776,60836,29237","bike_types":{"4":8},"place_type":"0","rack_locks":"1"},{"uid":"2585893","lat":"52.1495064","lng":"21.0332527","name":"Ciszewskiego - Pileckiego","spot":"1","number":"9610","bikes":"12","bike_racks":"22","free_racks":"10","terminal_type":"7inch","bike_numbers":"24817,24038,28057,26612,26067,25536,25493,25375,25184,28845,28994,63628","bike_types":{"4":11,"26":1},"place_type":"0","rack_locks":"1"},{"uid":"2585894","lat":"52.1549453","lng":"21.0492977","name":"Roso\u0142a - Gandhi","spot":"1","number":"9611","bikes":"8","bike_racks":"22","free_racks":"11","terminal_type":"7inch","bike_numbers":"28735,28622,28311,27570,26102,25557,25331,25068","bike_types":{"4":8},"place_type":"0","rack_locks":"1"},{"uid":"2585897","lat":"52.1493105","lng":"21.0453361","name":"Metro Imielin","spot":"1","number":"9612","bikes":"13","bike_racks":"22","free_racks":"7","terminal_type":"7inch","bike_numbers":"24886,24777,24554,28630,28621,28340,27613,26205,26193,26036,25581,25525,25377","bike_types":{"4":13},"place_type":"0","rack_locks":"1"},{"uid":"2585899","lat":"52.1522333","lng":"21.0563922","name":"Roso\u0142a - Weso\u0142a","spot":"1","number":"9613","bikes":"1","bike_racks":"23","free_racks":"21","terminal_type":"7inch","bike_numbers":"28215","bike_types":{"4":1},"place_type":"0","rack_locks":"1"},{"uid":"2585901","lat":"52.1427201","lng":"21.0383624","name":"Pileckiego - Alternatywy","spot":"1","number":"9614","bikes":"5","bike_racks":"30","free_racks":"26","terminal_type":"7inch","bike_numbers":"28701,28372,26598,29660,96399","bike_types":{"4":5},"place_type":"0","rack_locks":"1"},{"uid":"2585902","lat":"52.142735","lng":"21.0448131","name":"Dereniowa - P\u0142askowickiej","spot":"1","number":"9615","bikes":"18","bike_racks":"22","free_racks":"3","terminal_type":"7inch","bike_numbers":"28416,28040,27987,27583,27352,26626,26557,26499,26244,25894,25665,25610,25273,29053,96053,63613,96218,96084","bike_types":{"4":18},"place_type":"0","rack_locks":"1"},{"uid":"2585904","lat":"52.1376039","lng":"21.0505531","name":"Stryje\u0144skich - Belgradzka","spot":"1","number":"9616","bikes":"8","bike_racks":"15","free_racks":"7","terminal_type":"7inch","bike_numbers":"28748,28502,26487,25964,25067,28848,28982,96052","bike_types":{"4":8},"place_type":"0","rack_locks":"1"},{"uid":"2585905","lat":"52.1403909","lng":"21.0568187","name":"Metro Natolin","spot":"1","number":"9617","bikes":"30","bike_racks":"30","free_racks":"4","terminal_type":"7inch","bike_numbers":"24953,28804,28505,28466,28326,28024,27829,27781,27426,27111,26883,26523,26341,26212,26191,26148,26005,25673,25474,25392,25267,25047,29553,29552,28968,60867,96566,96107,29177,24047","bike_types":{"4":29,"26":1},"place_type":"0","rack_locks":"1"},{"uid":"2585906","lat":"52.1420749","lng":"21.0659905","name":"Belgradzka - Roso\u0142a","spot":"1","number":"9618","bikes":"7","bike_racks":"23","free_racks":"13","terminal_type":"7inch","bike_numbers":"24975,24892,24632,27599,26695,26245,28844","bike_types":{"4":7},"place_type":"0","rack_locks":"1"},{"uid":"2585908","lat":"52.1314333","lng":"21.0561562","name":"Stryje\u0144skich - W\u0105wozowa","spot":"1","number":"9619","bikes":"42","bike_racks":"23","free_racks":"0","terminal_type":"7inch","bike_numbers":"24977,24475,28773,28481,28448,28383,28298,28221,28144,28099,28068,27941,27859,27759,27585,27471,27382,27304,27251,26928,26898,26688,26412,26105,26096,25978,25812,25741,25571,25556,25490,25481,25370,28945,28854,63629,63623,96561,96454,96437,96224,29192","bike_types":{"4":41,"51":1},"place_type":"0","rack_locks":"1"},{"uid":"2585911","lat":"52.3326052","lng":"20.9418404","name":"Ordon\u00f3wny - \u015awiatowida","spot":"1","number":"9620","bikes":"25","bike_racks":"22","free_racks":"0","terminal_type":"7inch","bike_numbers":"24882,24743,28642,28314,27664,27612,26915,26692,26655,26582,26461,26225,26018,25936,25577,25305,25300,25036,25030,96522,96448,96441,96265,96248,96591","bike_types":{"4":25},"place_type":"0","rack_locks":"1"},{"uid":"2585913","lat":"52.1310925","lng":"21.0654795","name":"Metro Kabaty","spot":"1","number":"9621","bikes":"12","bike_racks":"22","free_racks":"13","terminal_type":"7inch","bike_numbers":"27790,27507,27495,27308,27189,26753,26155,25966,60863,63614,96085,96592","bike_types":{"4":12},"place_type":"0","rack_locks":"1"},{"uid":"2585916","lat":"52.1332642","lng":"21.0747962","name":"W\u0105wozowa - Roso\u0142a","spot":"1","number":"9622","bikes":"7","bike_racks":"18","free_racks":"9","terminal_type":"7inch","bike_numbers":"28377,27595,26609,26544,96333,96145,29184","bike_types":{"4":7},"place_type":"0","rack_locks":"1"},{"uid":"2585917","lat":"52.324116","lng":"21.05663","name":"Skarbka z G\u00f3r - Berensona","spot":"1","number":"9623","bikes":"19","bike_racks":"26","free_racks":"7","terminal_type":"7inch","bike_numbers":"24939,28657,28619,28607,28277,28090,27821,27680,27632,26881,26768,26430,26194,26152,25587,28812,96020,96430,29246","bike_types":{"4":19},"place_type":"0","rack_locks":"1"},{"uid":"2585919","lat":"52.3485329","lng":"20.9418336","name":"Aluzyjna - Tr\u0105by","spot":"1","number":"9624","bikes":"12","bike_racks":"16","free_racks":"7","terminal_type":"7inch","bike_numbers":"24504,28612,27986,26759,26623,25841,29045,29555,96391,96327,96199,96190","bike_types":{"4":12},"place_type":"0","rack_locks":"1"},{"uid":"2585920","lat":"52.3226982","lng":"20.9448107","name":"\u015awiatowida - Mehoffera","spot":"1","number":"9625","bikes":"9","bike_racks":"16","free_racks":"7","terminal_type":"7inch","bike_numbers":"28821,27721,27335,27170,26674,26330,25646,29373,28878","bike_types":{"4":9},"place_type":"0","rack_locks":"1"},{"uid":"2585921","lat":"52.3212548","lng":"20.9477347","name":"Bia\u0142o\u0142\u0119cki O\u015brodek Sportu","spot":"1","number":"9626","bikes":"23","bike_racks":"30","free_racks":"7","terminal_type":"7inch","bike_numbers":"24993,28682,28671,28652,28628,28426,28072,27847,27445,26954,26941,26575,26551,26489,26172,28995,96044,96042,96486,96481,96137,29181,29223","bike_types":{"4":23},"place_type":"0","rack_locks":"1"},{"uid":"2585922","lat":"52.3211272","lng":"20.9712964","name":"Bia\u0142o\u0142\u0119ka-Ratusz","spot":"1","number":"9627","bikes":"11","bike_racks":"19","free_racks":"10","terminal_type":"7inch","bike_numbers":"24900,24833,24677,28771,28431,27996,27167,25607,29108,96396,29197","bike_types":{"4":11},"place_type":"0","rack_locks":"1"},{"uid":"2585924","lat":"52.3132981","lng":"20.9655324","name":"My\u015bliborska - al. Kukli\u0144skiego","spot":"1","number":"9628","bikes":"27","bike_racks":"22","free_racks":"0","terminal_type":"7inch","bike_numbers":"24926,28680,28562,28395,28390,28190,27952,27895,27868,27350,27303,27098,27080,26835,26834,26645,26536,26475,26000,25915,25736,25191,25139,96568,96306,96257,96138","bike_types":{"4":27},"place_type":"0","rack_locks":"1"},{"uid":"2585925","lat":"52.3031984","lng":"20.9891666","name":"Modli\u0144ska - \u017bera\u0144ska","spot":"1","number":"9629","bikes":"32","bike_racks":"30","free_racks":"3","terminal_type":"7inch","bike_numbers":"24849,24675,24560,28886,28308,28127,27982,27960,27871,27725,27704,26769,26763,26757,26678,26592,26472,26188,25968,25784,25710,25470,25398,25349,25297,25092,29125,29133,96544,96129,96117,29254","bike_types":{"4":30,"0":2},"place_type":"0","rack_locks":"1"},{"uid":"2585926","lat":"52.3150181","lng":"21.0610807","name":"Skarbka z G\u00f3r - Magiczna","spot":"1","number":"9630","bikes":"32","bike_racks":"30","free_racks":"2","terminal_type":"7inch","bike_numbers":"24830,24692,24042,25002,28587,28583,28526,28456,28440,28301,28067,27954,27538,27513,27487,27360,27354,27279,27115,26827,26820,26460,26400,25591,25376,25146,29130,96451,96128,96120,29180,29233","bike_types":{"4":30,"26":1,"0":1},"place_type":"0","rack_locks":"1"},{"uid":"2585928","lat":"52.3000268","lng":"21.0425266","name":"P\u0119tla Br\u00f3dno - Podgrodzie","spot":"1","number":"9631","bikes":"26","bike_racks":"16","free_racks":"0","terminal_type":"7inch","bike_numbers":"24799,24649,28750,28734,28585,28566,28442,28404,27650,27463,27450,27427,27305,27274,27260,26986,26129,25807,25701,25615,25597,25538,28863,96468,96240,29157","bike_types":{"4":26},"place_type":"0","rack_locks":"1"},{"uid":"2585929","lat":"52.2939957","lng":"21.0272258","name":"Rembieli\u0144ska - Kondratowicza","spot":"1","number":"9632","bikes":"20","bike_racks":"23","free_racks":"3","terminal_type":"7inch","bike_numbers":"24700,24672,28350,27742,27462,27435,27328,27037,26994,26896,26719,26522,26292,26208,25855,25782,25089,96536,96127,29160","bike_types":{"4":20},"place_type":"0","rack_locks":"1"},{"uid":"2585931","lat":"52.2917236","lng":"21.0481189","name":"Targ\u00f3wek-Ratusz","spot":"1","number":"9633","bikes":"30","bike_racks":"22","free_racks":"0","terminal_type":"7inch","bike_numbers":"24978,24928,24883,24039,28699,28675,28553,28550,28420,28402,28359,28022,27575,27512,27344,26815,26738,26058,25896,25552,25510,25494,25180,29075,29124,96490,96369,96282,96103,96577","bike_types":{"4":28,"26":1,"0":1},"place_type":"0","rack_locks":"1"},{"uid":"2585932","lat":"52.292208","lng":"21.0419554","name":"Kondratowicza - Chodecka","spot":"1","number":"9634","bikes":"13","bike_racks":"23","free_racks":"8","terminal_type":"7inch","bike_numbers":"24573,28151,28075,27601,27498,26275,26231,25928,25458,25198,29350,96526,96329","bike_types":{"4":13},"place_type":"0","rack_locks":"1"},{"uid":"2585934","lat":"52.2925145","lng":"21.0573949","name":"Kondratowicza - Przy Grodzisku","spot":"1","number":"9635","bikes":"20","bike_racks":"18","free_racks":"2","terminal_type":"7inch","bike_numbers":"28658,28651,28354,28352,28291,28278,27794,27342,26817,26793,26433,26305,26140,26048,25712,25467,29082,29143,96204,29243","bike_types":{"4":19,"0":1},"place_type":"0","rack_locks":"1"},{"uid":"2585936","lat":"52.2878069","lng":"21.0213829","name":"Wysockiego - Poborza\u0144ska","spot":"1","number":"9636","bikes":"24","bike_racks":"23","free_racks":"0","terminal_type":"7inch","bike_numbers":"24552,28758,28524,27290,27138,27035,26979,26844,26756,26599,26153,26138,26108,25929,25406,25229,25170,29388,96015,96574,96539,96524,96080,29222","bike_types":{"4":24},"place_type":"0","rack_locks":"1"},{"uid":"2585937","lat":"52.2885915","lng":"21.0310087","name":"Rembieli\u0144ska - Wyszogrodzka","spot":"1","number":"9637","bikes":"11","bike_racks":"30","free_racks":"19","terminal_type":"7inch","bike_numbers":"24008,28082,27914,27300,26537,26505,26346,26110,28908,96336,29253","bike_types":{"26":1,"4":10},"place_type":"0","rack_locks":"1"},{"uid":"2585938","lat":"52.2864841","lng":"21.0401998","name":"Chodecka - \u017buromi\u0144ska","spot":"1","number":"9638","bikes":"22","bike_racks":"15","free_racks":"0","terminal_type":"7inch","bike_numbers":"24586,28705,28702,28523,28414,28373,28357,27366,26857,26824,26767,26642,26459,26390,25943,25815,25526,29037,29441,96041,96368,29247","bike_types":{"4":22},"place_type":"0","rack_locks":"1"},{"uid":"2585939","lat":"52.281231017533","lng":"21.025852560997","name":"Wysockiego - Matki Teresy z Kalkuty","spot":"1","number":"9639","bikes":"16","bike_racks":"17","free_racks":"4","terminal_type":"7inch","bike_numbers":"24644,24030,28762,28498,28392,28374,27663,26667,26221,26130,26060,25351,29117,29046,28849,96203","bike_types":{"4":15,"26":1},"place_type":"0","rack_locks":"1"},{"uid":"2585941","lat":"52.2835693","lng":"21.0720858","name":"Blokowa - DK Zacisze","spot":"1","number":"9640","bikes":"35","bike_racks":"18","free_racks":"0","terminal_type":"7inch","bike_numbers":"24918,24876,24804,28876,28267,27978,27832,27799,27670,27609,27584,27561,27298,27122,27116,27007,26980,26973,26634,26546,26501,26237,26204,25821,25731,25435,25357,25122,25100,28966,96516,96386,96261,96132,29193","bike_types":{"4":35},"place_type":"0","rack_locks":"1"},{"uid":"2585942","lat":"52.276259","lng":"21.0530748","name":"P\u0119tla Targ\u00f3wek","spot":"1","number":"9641","bikes":"17","bike_racks":"22","free_racks":"10","terminal_type":"7inch","bike_numbers":"24845,28643,28109,27792,27751,27376,26771,26485,26214,26173,25910,25775,25757,25707,25689,96051,29232","bike_types":{"4":17},"place_type":"0","rack_locks":"1"},{"uid":"2585943","lat":"52.27139","lng":"21.01566","name":"Jagiello\u0144ska - ALK","spot":"1","number":"9642","bikes":"8","bike_racks":"16","free_racks":"9","terminal_type":"7inch","bike_numbers":"24548,24525,27644,27361,25227,25167,25075,96281","bike_types":{"4":8},"place_type":"0","rack_locks":"1"},{"uid":"2585947","lat":"52.2694683","lng":"21.0499817","name":"Ossowskiego","spot":"1","number":"9644","bikes":"4","bike_racks":"17","free_racks":"11","terminal_type":"7inch","bike_numbers":"27615,27002,26281,29030","bike_types":{"4":4},"place_type":"0","rack_locks":"1"},{"uid":"2585951","lat":"52.272602123161","lng":"21.063210368156","name":"Radzymi\u0144ska -Trocka","spot":"1","number":"9645","bikes":"22","bike_racks":"20","free_racks":"0","terminal_type":"7inch","bike_numbers":"28686,28362,28088,27814,27730,27489,27422,27397,27341,27134,27133,26163,26122,25901,25882,25117,29135,96023,96531,96221,29199,29230","bike_types":{"4":21,"0":1},"place_type":"0","rack_locks":"1"},{"uid":"2585953","lat":"52.27347","lng":"21.07698","name":"Bukowiecka - Zamkowa","spot":"1","number":"9646","bikes":"14","bike_racks":"15","free_racks":"4","terminal_type":"7inch","bike_numbers":"24604,24487,28103,27939,27551,27405,26808,26263,25732,25527,25483,28954,29146,96242","bike_types":{"4":12,"51":1,"0":1},"place_type":"0","rack_locks":"1"},{"uid":"2585954","lat":"52.2668885","lng":"21.0585675","name":"Radzymi\u0144ska - Piotra Skargi","spot":"1","number":"9647","bikes":"32","bike_racks":"20","free_racks":"1","terminal_type":"7inch","bike_numbers":"24901,24658,28697,28120,27807,27158,26491,26396,26161,25954,25926,25919,25706,25596,25560,25553,25395,25359,25323,25263,25248,25228,25141,25032,25016,29120,96494,96463,96361,96106,29202,29226","bike_types":{"4":31,"0":1},"place_type":"0","rack_locks":"1"},{"uid":"2585955","lat":"52.2614369","lng":"21.0155744","name":"Wybrze\u017ce Helskie - ZOO","spot":"1","number":"9648","bikes":"4","bike_racks":"22","free_racks":"19","terminal_type":"7inch","bike_numbers":"24855,26998,26761,26257","bike_types":{"4":4},"place_type":"0","rack_locks":"1"},{"uid":"2585956","lat":"52.2632492","lng":"21.0212231","name":"Rondo Starzy\u0144skiego","spot":"1","number":"9649","bikes":"14","bike_racks":"24","free_racks":"9","terminal_type":"7inch","bike_numbers":"24774,24713,25006,28874,28554,28101,27707,27261,26995,26622,26588,96555,96414,96096","bike_types":{"4":14},"place_type":"0","rack_locks":"1"},{"uid":"2585958","lat":"52.26421","lng":"21.02618","name":"Darwina - Nusbauma-Hilarowicza","spot":"1","number":"9650","bikes":"19","bike_racks":"21","free_racks":"2","terminal_type":"7inch","bike_numbers":"24938,28606,27734,27019,26930,26777,26758,26606,26584,26106,25890,25799,25754,25751,25466,25356,25148,25099,25096","bike_types":{"4":19},"place_type":"0","rack_locks":"1"},{"uid":"2585960","lat":"52.26554","lng":"21.03122","name":"Namys\u0142owska - Darwina","spot":"1","number":"9651","bikes":"17","bike_racks":"15","free_racks":"0","terminal_type":"7inch","bike_numbers":"24780,25003,28719,28542,27877,26713,26644,26457,26331,26266,25700,25663,29429,29142,96267,96116,96581","bike_types":{"4":16,"0":1},"place_type":"0","rack_locks":"1"},{"uid":"2585961","lat":"52.2690405","lng":"21.0379493","name":"Rondo \u017baba","spot":"1","number":"9652","bikes":"17","bike_racks":"22","free_racks":"6","terminal_type":"7inch","bike_numbers":"24921,24606,27944,27520,27323,26921,26847,26440,25564,25325,25264,25018,29003,96498,96326,96302,29245","bike_types":{"4":17},"place_type":"0","rack_locks":"1"},{"uid":"2585963","lat":"52.2591682","lng":"21.0262224","name":"Jagiello\u0144ska - Plac Hallera","spot":"1","number":"9653","bikes":"22","bike_racks":"20","free_racks":"8","terminal_type":"7inch","bike_numbers":"24842,24599,24496,24481,28385,28134,27893,27652,27249,26982,26297,26168,26033,25993,25933,25725,25677,25447,25093,96126,29174,29214","bike_types":{"4":20,"51":2},"place_type":"0","rack_locks":"1"},{"uid":"2585964","lat":"52.2613811","lng":"21.0305437","name":"Plac Hallera - Sawinkowa","spot":"1","number":"9654","bikes":"27","bike_racks":"28","free_racks":"4","terminal_type":"7inch","bike_numbers":"24955,24729,28647,28294,28258,28214,28148,28064,27696,27627,27557,27518,27239,26886,26715,26395,26327,25350,25076,25074,25053,29641,29140,28978,96392,96344,96328","bike_types":{"4":26,"0":1},"place_type":"0","rack_locks":"1"},{"uid":"2585967","lat":"52.263","lng":"21.03418","name":"Namys\u0142owska - Szymanowskiego","spot":"1","number":"9655","bikes":"10","bike_racks":"16","free_racks":"6","terminal_type":"7inch","bike_numbers":"24767,28432,27574,26565,26089,25368,25161,25091,96208,24049","bike_types":{"4":9,"26":1},"place_type":"0","rack_locks":"1"},{"uid":"2585968","lat":"52.2538188","lng":"21.0231542","name":"Ratuszowa - ZOO","spot":"1","number":"9656","bikes":"22","bike_racks":"23","free_racks":"4","terminal_type":"7inch","bike_numbers":"24811,28732,28616,28560,28303,27833,27502,27446,27424,27385,26846,26229,26150,26111,26085,25989,25767,25130,28960,29644,28859,96401","bike_types":{"4":22},"place_type":"0","rack_locks":"1"},{"uid":"2585971","lat":"52.256355","lng":"21.029538","name":"Jagiello\u0144ska - Ratuszowa","spot":"1","number":"9657","bikes":"6","bike_racks":"16","free_racks":"9","terminal_type":"7inch","bike_numbers":"27413,26730,26685,25739,25150,28988","bike_types":{"4":6},"place_type":"0","rack_locks":"1"},{"uid":"2585972","lat":"52.261449","lng":"21.037614","name":"11 Listopada - Ratuszowa","spot":"1","number":"9658","bikes":"29","bike_racks":"30","free_racks":"2","terminal_type":"7inch","bike_numbers":"24793,28897,28745,28569,28504,28439,28427,28295,28264,28026,27764,27761,27723,27560,27503,27406,27175,26922,26503,26404,26366,26166,26081,25810,25419,25415,28799,96431,96266","bike_types":{"4":29},"place_type":"0","rack_locks":"1"},{"uid":"2585974","lat":"52.263109","lng":"21.0381895","name":"11 listopada - \u015arodkowa","spot":"1","number":"9659","bikes":"19","bike_racks":"18","free_racks":"0","terminal_type":"7inch","bike_numbers":"28515,28369,28006,27818,27343,27275,26902,26732,26517,26464,26360,26224,25746,25666,25445,29446,96021,96284,96167","bike_types":{"4":19},"place_type":"0","rack_locks":"1"},{"uid":"2585975","lat":"52.25839","lng":"21.03537","name":"Stalowa - 11 Listopada","spot":"1","number":"9660","bikes":"13","bike_racks":"24","free_racks":"12","terminal_type":"7inch","bike_numbers":"24770,24617,24456,28774,28471,28276,27800,26446,26104,25977,25973,25593,25157","bike_types":{"4":12,"51":1},"place_type":"0","rack_locks":"1"},{"uid":"2585978","lat":"52.234791","lng":"21.07905","name":"al. Stan\u00f3w Zjednoczonych - Ostrobramska","spot":"1","number":"9661","bikes":"14","bike_racks":"20","free_racks":"6","terminal_type":"7inch","bike_numbers":"24905,24526,28741,28274,26965,26959,26947,26643,26571,26386,26383,26211,25904,28865","bike_types":{"4":14},"place_type":"0","rack_locks":"1"},{"uid":"2585981","lat":"52.2524758","lng":"21.0303479","name":"Floria\u0144ska - Park Praski","spot":"1","number":"9662","bikes":"22","bike_racks":"23","free_racks":"1","terminal_type":"7inch","bike_numbers":"24809,24794,24683,24663,24017,28423,27879,27803,27199,27124,26951,26949,26586,26027,26011,25918,25341,25290,25114,28981,96283,29259","bike_types":{"4":21,"26":1},"place_type":"0","rack_locks":"1"},{"uid":"2585982","lat":"52.2549757","lng":"21.0339005","name":"Plac Wile\u0144ski","spot":"1","number":"9663","bikes":"48","bike_racks":"30","free_racks":"0","terminal_type":"7inch","bike_numbers":"24913,24696,24668,24469,28691,28678,28578,28425,28405,28397,28137,28076,28066,27998,27922,27888,27775,27622,27533,27493,27362,27017,26961,26783,26529,26273,26164,26073,25856,25585,25491,25336,25126,29041,29456,28963,96003,96545,96484,96452,96408,96398,96359,96230,96113,29269,29225,24046","bike_types":{"4":46,"51":1,"26":1},"place_type":"0","rack_locks":"1"},{"uid":"2585983","lat":"52.2579576","lng":"21.0399804","name":"Wile\u0144ska - Rzeszotarskiej","spot":"1","number":"9664","bikes":"26","bike_racks":"16","free_racks":"1","terminal_type":"7inch","bike_numbers":"24983,24800,28139,27935,27862,27837,27776,27009,26985,26918,26765,26495,26415,26368,26206,25539,25382,29367,28967,28961,28987,96549,96382,96252,96205,29151","bike_types":{"4":26},"place_type":"0","rack_locks":"1"},{"uid":"2585984","lat":"52.2475848","lng":"20.9568001","name":"al. Prymasa Tysi\u0105clecia - Obozowa","spot":"1","number":"9665","bikes":"4","bike_racks":"13","free_racks":"10","terminal_type":"7inch","bike_numbers":"26945,26409,29186,29239","bike_types":{"4":4},"place_type":"0","rack_locks":"1"},{"uid":"2585985","lat":"52.248607","lng":"21.029647","name":"Okrzei - Panie\u0144ska","spot":"1","number":"9666","bikes":"13","bike_racks":"16","free_racks":"6","terminal_type":"7inch","bike_numbers":"24964,28673,28435,28297,28194,27817,27330,26154,29105,96231,96133,24055,96583","bike_types":{"4":12,"26":1},"place_type":"0","rack_locks":"1"},{"uid":"2585987","lat":"52.2506334","lng":"21.0311174","name":"Sierakowskiego - K\u0142opotowskiego","spot":"1","number":"9667","bikes":"11","bike_racks":"25","free_racks":"15","terminal_type":"7inch","bike_numbers":"24897,24044,27959,27499,26901,26247,26113,25881,25787,25480,96299","bike_types":{"4":10,"26":1},"place_type":"0","rack_locks":"1"},{"uid":"2585990","lat":"52.2520876","lng":"21.0381368","name":"Targowa - Z\u0105bkowska","spot":"1","number":"9668","bikes":"27","bike_racks":"18","free_racks":"2","terminal_type":"7inch","bike_numbers":"24769,28822,28681,28676,28292,27974,27925,27856,27482,27429,27184,27026,26848,26807,26702,26554,26302,25766,25212,25064,29116,29097,29063,29447,96002,96501,29261","bike_types":{"4":27},"place_type":"0","rack_locks":"1"},{"uid":"2585992","lat":"52.2544855","lng":"21.0433458","name":"Fabryka W\u00f3dek Koneser","spot":"1","number":"9669","bikes":"16","bike_racks":"25","free_racks":"9","terminal_type":"7inch","bike_numbers":"24947,24551,28209,28053,28010,27916,27389,27316,27014,26894,26706,26629,26547,25709,29283,29262","bike_types":{"4":16},"place_type":"0","rack_locks":"1"},{"uid":"2585994","lat":"52.2559027","lng":"21.0495613","name":"Radzymi\u0144ska - Wiosenna","spot":"1","number":"9670","bikes":"18","bike_racks":"26","free_racks":"7","terminal_type":"7inch","bike_numbers":"24796,24725,28660,27586,27554,27363,27212,26875,26866,26109,25985,25857,25337,25287,25250,28836,29183,29182","bike_types":{"4":18},"place_type":"0","rack_locks":"1"},{"uid":"2585995","lat":"52.25965","lng":"21.0529","name":"Radzymi\u0144ska - \u0141om\u017cy\u0144ska","spot":"1","number":"9671","bikes":"16","bike_racks":"24","free_racks":"8","terminal_type":"7inch","bike_numbers":"24514,28629,28394,28119,28052,27899,27393,27291,25876,25649,25636,25498,29049,96176,29281,29244","bike_types":{"4":16},"place_type":"0","rack_locks":"1"},{"uid":"2585996","lat":"52.2583512","lng":"21.0585337","name":"P\u0119tla Kaw\u0119czy\u0144ska-Bazylika","spot":"1","number":"9672","bikes":"23","bike_racks":"26","free_racks":"3","terminal_type":"7inch","bike_numbers":"24880,28564,28302,28020,27827,27621,27283,27064,27062,26842,26530,26241,25998,25563,25051,25050,25025,29081,29020,28860,96046,96118,96579","bike_types":{"4":23},"place_type":"0","rack_locks":"1"},{"uid":"2585997","lat":"52.249864871462","lng":"21.042911410332","name":"Targowa - Kijowska","spot":"1","number":"9673","bikes":"14","bike_racks":"18","free_racks":"6","terminal_type":"7inch","bike_numbers":"24870,28531,28371,28078,27755,27657,27165,27054,26709,26648,25783,25334,25011,96185","bike_types":{"4":14},"place_type":"0","rack_locks":"1"},{"uid":"2586000","lat":"52.252745","lng":"21.0510331","name":"Dworzec Wschodni - Kijowska","spot":"1","number":"9674","bikes":"29","bike_racks":"27","free_racks":"0","terminal_type":"7inch","bike_numbers":"24932,24647,28544,28106,28050,28000,27604,27437,27381,27301,27277,27188,26814,26450,26271,26151,25971,25969,25944,25811,25567,25200,25195,29072,28956,28975,96438,96436,96360","bike_types":{"4":29},"place_type":"0","rack_locks":"1"},{"uid":"2586001","lat":"52.247314","lng":"21.042731","name":"Metro Stadion Narodowy","spot":"1","number":"9675","bikes":"20","bike_racks":"15","free_racks":"0","terminal_type":"7inch","bike_numbers":"24771,24524,24010,28721,28700,28484,28452,28087,27712,27448,27168,26636,26587,26414,26387,25937,25471,29057,96319,96191","bike_types":{"4":19,"26":1},"place_type":"0","rack_locks":"1"},{"uid":"2586003","lat":"52.2472308","lng":"21.0476456","name":"al. Zieleniecka - Teatr Powszechny","spot":"1","number":"9676","bikes":"9","bike_racks":"14","free_racks":"4","terminal_type":"7inch","bike_numbers":"24761,24634,28436,28016,27706,27634,29646,28879,29148","bike_types":{"4":9},"place_type":"0","rack_locks":"1"},{"uid":"2586005","lat":"52.247346","lng":"21.055947","name":"Grochowska - Mi\u0144ska","spot":"1","number":"9677","bikes":"22","bike_racks":"22","free_racks":"0","terminal_type":"7inch","bike_numbers":"24998,24997,24575,24546,28718,27809,27469,27162,26914,26744,26666,26646,26287,25760,25029,25632,28829,96009,96482,96453,96158,96148","bike_types":{"4":22},"place_type":"0","rack_locks":"1"},{"uid":"2586009","lat":"52.2464","lng":"21.06868","name":"Praga-Po\u0142udnie-Ratusz","spot":"1","number":"9678","bikes":"8","bike_racks":"15","free_racks":"7","terminal_type":"7inch","bike_numbers":"24841,28724,28309,25838,28872,96034,96429,96297","bike_types":{"4":8},"place_type":"0","rack_locks":"1"},{"uid":"2586011","lat":"52.2501129","lng":"21.0772011","name":"Dwernickiego - Siennicka","spot":"1","number":"9679","bikes":"26","bike_racks":"25","free_racks":"0","terminal_type":"7inch","bike_numbers":"24893,24626,24483,28490,28406,28254,27886,27590,27229,27106,27094,26957,26772,26660,26654,26213,26126,26054,26041,25980,25790,25674,25160,25065,96054,29265","bike_types":{"4":25,"51":1},"place_type":"0","rack_locks":"1"},{"uid":"2586012","lat":"52.260428882956","lng":"21.041538119316","name":"Stalowa - Czynszowa","spot":"1","number":"9680","bikes":"9","bike_racks":"15","free_racks":"6","terminal_type":"7inch","bike_numbers":"28624,28428,28364,27365,26789,26611,26031,25813,29271","bike_types":{"4":9},"place_type":"0","rack_locks":"1"},{"uid":"2586014","lat":"52.2372419","lng":"21.0437644","name":"Wybrze\u017ce Szczeci\u0144skie - Stadion Narodowy","spot":"1","number":"9681","bikes":"16","bike_racks":"23","free_racks":"10","terminal_type":"7inch","bike_numbers":"24665,24494,25007,28597,28077,27971,27714,27700,27178,27172,26200,26147,25843,25779,25063,96450","bike_types":{"4":15,"51":1},"place_type":"0","rack_locks":"1"},{"uid":"2586018","lat":"52.2387103","lng":"21.0507515","name":"Rondo Waszyngtona - Stadion Narodowy","spot":"1","number":"9682","bikes":"9","bike_racks":"27","free_racks":"18","terminal_type":"7inch","bike_numbers":"27562,26734,25688,25441,25413,25238,25127,29240,96582","bike_types":{"4":9},"place_type":"0","rack_locks":"1"},{"uid":"2586019","lat":"52.242281006874","lng":"21.071160435677","name":"Waszyngtona - Kinowa","spot":"1","number":"9683","bikes":"12","bike_racks":"15","free_racks":"2","terminal_type":"7inch","bike_numbers":"24545,24005,27510,27182,26183,26117,25885,25379,25362,25106,96357,96337","bike_types":{"4":11,"26":1},"place_type":"0","rack_locks":"1"},{"uid":"2586021","lat":"52.2445639","lng":"21.0838057","name":"Rondo Wiatraczna","spot":"1","number":"9684","bikes":"23","bike_racks":"30","free_racks":"4","terminal_type":"7inch","bike_numbers":"24960,24788,24613,24479,24009,28557,28521,28310,27936,27517,27414,26837,26653,26473,26043,25953,25749,25652,25245,29070,28985,96058,96149","bike_types":{"4":21,"51":1,"26":1},"place_type":"0","rack_locks":"1"},{"uid":"2586022","lat":"52.2347451","lng":"21.053651","name":"Francuska - Walecznych","spot":"1","number":"9685","bikes":"9","bike_racks":"15","free_racks":"7","terminal_type":"7inch","bike_numbers":"24867,24633,24539,28760,27989,27208,26934,26203,96341","bike_types":{"4":9},"place_type":"0","rack_locks":"1"},{"uid":"2586024","lat":"52.236598","lng":"21.064774","name":"Mi\u0119dzynarodowa - Walecznych","spot":"1","number":"9686","bikes":"20","bike_racks":"15","free_racks":"0","terminal_type":"7inch","bike_numbers":"24895,24676,28411,27777,27642,27530,27423,27271,26794,26293,25756,25693,25546,25478,29015,28970,96424,96294,96142,96078","bike_types":{"4":20},"place_type":"0","rack_locks":"1"},{"uid":"2586026","lat":"52.243020071904","lng":"21.102375984192","name":"Plac Szembeka","spot":"1","number":"9687","bikes":"14","bike_racks":"15","free_racks":"1","terminal_type":"7inch","bike_numbers":"24945,28611,27861,27444,26371,26014,25917,25705,25144,25107,29078,96464,96165,96576","bike_types":{"4":14},"place_type":"0","rack_locks":"1"},{"uid":"2586028","lat":"52.237559","lng":"21.120087","name":"P\u0119tla Goc\u0142awek","spot":"1","number":"9688","bikes":"25","bike_racks":"16","free_racks":"0","terminal_type":"7inch","bike_numbers":"24531,28693,27608,27589,27411,27408,27144,27118,26682,26502,26066,26034,26015,25996,25957,25905,25598,25551,25514,25338,25060,96045,96449,96207,96092","bike_types":{"4":25},"place_type":"0","rack_locks":"1"},{"uid":"2586030","lat":"52.2258359","lng":"21.0600907","name":"Brukselska - PROM","spot":"1","number":"9689","bikes":"9","bike_racks":"15","free_racks":"6","terminal_type":"7inch","bike_numbers":"24982,24685,28491,28315,27932,27858,27699,27505,26684","bike_types":{"4":9},"place_type":"0","rack_locks":"1"},{"uid":"2586031","lat":"52.260205610017","lng":"21.046854257584","name":"al. Solidarno\u015bci - Szwedzka","spot":"1","number":"9690","bikes":"14","bike_racks":"18","free_racks":"4","terminal_type":"7inch","bike_numbers":"24815,28499,28348,28126,28058,27864,26956,26032,25402,25088,96569,96402,96287,24051","bike_types":{"4":13,"26":1},"place_type":"0","rack_locks":"1"},{"uid":"2586032","lat":"52.230088","lng":"21.067948","name":"al. Stan\u00f3w Zjednoczonych - Mi\u0119dzynarodowa","spot":"1","number":"9691","bikes":"29","bike_racks":"26","free_racks":"0","terminal_type":"7inch","bike_numbers":"24861,24635,24620,24492,28752,28555,28102,27648,27563,27536,27452,27398,27070,27005,26935,26243,25802,25716,25446,25381,25119,25072,29056,28950,28853,96474,96346,29264,96589","bike_types":{"4":28,"51":1},"place_type":"0","rack_locks":"1"},{"uid":"2586034","lat":"52.23483","lng":"21.09975","name":"Ostrobramska - Zamieniecka","spot":"1","number":"9692","bikes":"17","bike_racks":"23","free_racks":"6","terminal_type":"7inch","bike_numbers":"24915,28412,27112,26855,26665,25941,25824,25722,25699,25575,25421,25233,25149,28798,28890,96563,96291","bike_types":{"4":17},"place_type":"0","rack_locks":"1"},{"uid":"2586037","lat":"52.2251969","lng":"21.0712892","name":"Afryka\u0144ska - Egipska","spot":"1","number":"9693","bikes":"18","bike_racks":"16","free_racks":"2","terminal_type":"7inch","bike_numbers":"24969,24909,24583,28802,28738,28512,27870,27698,27479,27246,26766,25534,25386,25110,28864,96476,29175,29147","bike_types":{"4":18},"place_type":"0","rack_locks":"1"},{"uid":"2586039","lat":"52.22837","lng":"21.08581","name":"Abrahama - Kapelan\u00f3w AK","spot":"1","number":"9694","bikes":"12","bike_racks":"15","free_racks":"3","terminal_type":"7inch","bike_numbers":"24972,24748,24589,27920,27377,27243,26897,25744,25302,25079,96286,29187","bike_types":{"4":12},"place_type":"0","rack_locks":"1"},{"uid":"2586044","lat":"52.22974","lng":"21.10624","name":"Rechniewskiego - Nowaka-Jeziora\u0144skiego","spot":"1","number":"9696","bikes":"22","bike_racks":"30","free_racks":"11","terminal_type":"7inch","bike_numbers":"24984,24888,28496,28207,28195,28105,28093,28085,26352,26025,25745,25670,25327,25275,25028,29033,28862,28823,96487,96249,96155,29176","bike_types":{"4":22},"place_type":"0","rack_locks":"1"},{"uid":"2586045","lat":"52.2223071","lng":"21.0907259","name":"Meissnera - Fieldorfa","spot":"1","number":"9697","bikes":"30","bike_racks":"15","free_racks":"0","terminal_type":"7inch","bike_numbers":"24853,24705,24505,28873,28646,28614,28534,28465,28322,28252,27865,27853,27697,27555,27321,27267,27139,27049,27033,26367,26253,26176,26091,26023,25296,29213,25627,28841,96324,96296","bike_types":{"4":30},"place_type":"0","rack_locks":"1"},{"uid":"2586268","lat":"52.23938046828","lng":"21.016716957092","name":"Krakowskie Przedmie\u015bcie - Traugutta 2","spot":"1","number":"94931","bikes":"15","bike_racks":"24","free_racks":"8","terminal_type":"7inch","bike_numbers":"24970,24735,24726,28898,27720,27079,27000,26988,26239,25729,25405,96540,96161,96105,29149","bike_types":{"4":15},"place_type":"0","rack_locks":"1"},{"uid":"2586270","lat":"52.241814568386","lng":"21.024039387703","name":"Lipowa - Dobra 2","spot":"1","number":"94961","bikes":"24","bike_racks":"19","free_racks":"3","terminal_type":"7inch","bike_numbers":"24823,24750,24466,28899,28769,28318,28290,28091,28080,28009,27840,27760,27370,26912,26843,26810,26215,26209,25924,25895,29554,96495,96419,29242","bike_types":{"4":23,"51":1},"place_type":"0","rack_locks":"1"},{"uid":"2586272","lat":"52.219916006513","lng":"21.011733412743","name":"Plac Politechniki 2","spot":"1","number":"95381","bikes":"0","bike_racks":"27","free_racks":"25","terminal_type":"7inch","place_type":"0","rack_locks":"1","bike_numbers":null,"bike_types":[]},{"uid":"2675985","lat":"52.21759","lng":"21.0096855","name":"Kaczy\u0144skiego - Rektorska","spot":"1","number":"9587","bikes":"7","bike_racks":"17","free_racks":"9","terminal_type":"7inch","bike_numbers":"28107,27255,27082,25730,25508,25475,96562","bike_types":{"4":7},"place_type":"0","rack_locks":"1"},{"uid":"2676298","lat":"52.255871","lng":"21.010043","name":"Veturilko - Sanguszki - Wybrze\u017ce Gda\u0144skie","spot":"1","number":"9716","bikes":"9","bike_racks":"14","free_racks":"5","terminal_type":"7inch","bike_numbers":"24377,24372,24367,24351,24264,24395,24294,24292,24282","bike_types":{"35":5,"34":4},"place_type":"11","rack_locks":"1"},{"uid":"2685255","lat":"52.278754","lng":"20.991692","name":"Veturilko - K\u0119pa Potocka","spot":"1","number":"9711","bikes":"8","bike_racks":"14","free_racks":"6","terminal_type":"7inch","bike_numbers":"24354,24280,24277,24269,24253,24387,24398,24301","bike_types":{"35":3,"34":5},"place_type":"11","rack_locks":"1"},