[{"region_info":{"lat":"52.2345","lng":"21.0024","zoom":"11","name":"VETURILO Poland","hotline":"+4819115","domain":"vp","language":"pl","email":"info@nextbike.pl","timezone":"Europe\/Warsaw","currency":"PLN","country_calling_code":"+48","system_operator_address":"Nextbike Polska S.A. ul. Przasnyska 6B, 01-756 Warszawa","country":"PL","country_name":"Poland","terms":"http:\/\/www.veturilo.waw.pl\/terms\/?v=201701","policy":"","website":"http:\/\/www.veturilo.waw.pl\/","show_free_racks":"1","booked_bikes":"0","set_point_bikes":"5284","available_bikes":"4219"},"places_summary":{"lngMin":20.8689688,"lngMax":21.120087,"latMin":52.117285,"latMax":52.3485329,"lngAvg":21.008117591667,"latAvg":52.230678041088},"places":[{"uid":"2585259","lat":"52.296298","lng":"20.9583575","name":"Dewajtis - UKSW","spot":"1","number":"9402","bikes":"18","bike_racks":"30","free_racks":"12","terminal_type":"7inch","bike_numbers":"24804,28886,28437,28354,28065,27594,27348,27086,26828,26278,26242,25904,25306,96008,96391,96374,96227,24051","bike_types":{"4":17,"26":1},"place_type":"0","rack_locks":"1"},{"uid":"2585263","lat":"52.2909738","lng":"20.9295559","name":"Metro M\u0142ociny","spot":"1","number":"9403","bikes":"21","bike_racks":"30","free_racks":"8","terminal_type":"7inch","bike_numbers":"24966,24865,24699,24684,24675,28873,27919,27427,26955,26044,25915,25650,25406,25383,25317,25197,25102,29108,96453,96373,29160","bike_types":{"4":21},"place_type":"0","rack_locks":"1"},{"uid":"2585265","lat":"52.2901732","lng":"20.9503698","name":"Marymoncka - Dewajtis","spot":"1","number":"9404","bikes":"5","bike_racks":"30","free_racks":"25","terminal_type":"7inch","bike_numbers":"24795,26835,26547,25107,96326","bike_types":{"4":5},"place_type":"0","rack_locks":"1"},{"uid":"2585267","lat":"52.285914","lng":"20.940561","name":"Metro Wawrzyszew","spot":"1","number":"9405","bikes":"11","bike_racks":"20","free_racks":"9","terminal_type":"7inch","bike_numbers":"24751,24466,27805,27094,26862,25963,25897,25660,25156,28810,96172","bike_types":{"4":10,"51":1},"place_type":"0","rack_locks":"1"},{"uid":"2585269","lat":"52.2336142","lng":"21.0146353","name":"G\u00f3rskiego - Szpitalna","spot":"1","number":"9406","bikes":"4","bike_racks":"16","free_racks":"12","terminal_type":"7inch","bike_numbers":"25838,96467,96371,96122","bike_types":{"4":3},"place_type":"0","rack_locks":"1"},{"uid":"2585271","lat":"52.2816265","lng":"20.9498871","name":"Metro Stare Bielany","spot":"1","number":"9407","bikes":"15","bike_racks":"30","free_racks":"15","terminal_type":"7inch","bike_numbers":"24635,28577,28417,28096,28076,27821,27092,26873,26304,25987,25822,25740,25053,96448,96092","bike_types":{"4":15},"place_type":"0","rack_locks":"1"},{"uid":"2585272","lat":"52.2361217","lng":"21.0219096","name":"Ordynacka - Uniwersytet Muzyczny","spot":"1","number":"9408","bikes":"15","bike_racks":"20","free_racks":"7","terminal_type":"7inch","bike_numbers":"24598,28335,28150,27795,27646,27271,26524,25986,25308,25010,25629,28860,96570,96250,29224","bike_types":{"4":15},"place_type":"0","rack_locks":"1"},{"uid":"2585273","lat":"52.2768774","lng":"20.9481302","name":"Bielany-Ratusz","spot":"1","number":"9409","bikes":"10","bike_racks":"28","free_racks":"14","terminal_type":"7inch","bike_numbers":"27876,27093,26571,26183,29428,96036,96473,96439,96236,29197","bike_types":{"4":10},"place_type":"0","rack_locks":"1"},{"uid":"2585275","lat":"52.2761569","lng":"20.9616673","name":"Metro S\u0142odowiec","spot":"1","number":"9410","bikes":"10","bike_racks":"30","free_racks":"20","terminal_type":"7inch","bike_numbers":"24588,28651,28327,28282,27924,27771,26150,25734,29649,96111","bike_types":{"4":10},"place_type":"0","rack_locks":"1"},{"uid":"2585278","lat":"52.2777751","lng":"20.9856999","name":"Potocka - OSiR \u017boliborz","spot":"1","number":"9411","bikes":"14","bike_racks":"15","free_racks":"1","terminal_type":"7inch","bike_numbers":"24870,28279,27453,27231,26989,26648,26622,26607,26459,26427,25466,25113,28945,29229","bike_types":{"4":14},"place_type":"0","rack_locks":"1"},{"uid":"2585280","lat":"52.273527782989","lng":"20.994186401367","name":"Gwia\u017adzista - Promyka","spot":"1","number":"9412","bikes":"6","bike_racks":"16","free_racks":"9","terminal_type":"7inch","bike_numbers":"24538,24483,28579,28145,27256,26801","bike_types":{"4":5,"51":1},"place_type":"0","rack_locks":"1"},{"uid":"2585281","lat":"52.270941","lng":"20.9326269","name":"al. Reymonta - Conrada","spot":"1","number":"9413","bikes":"20","bike_racks":"30","free_racks":"10","terminal_type":"7inch","bike_numbers":"24971,24970,28701,28138,28022,27685,27273,27132,26973,26774,26477,25388,25302,25203,29641,25624,96248,96206,96112,96077","bike_types":{"4":20},"place_type":"0","rack_locks":"1"},{"uid":"2585283","lat":"52.2706441","lng":"20.9504181","name":"Broniewskiego - Perzy\u0144skiego","spot":"1","number":"9414","bikes":"13","bike_racks":"16","free_racks":"3","terminal_type":"7inch","bike_numbers":"26636,26533,26513,26071,25948,25857,28828,28991,96393,96287,96106,29180,29154","bike_types":{"4":13},"place_type":"0","rack_locks":"1"},{"uid":"2585284","lat":"52.2714203","lng":"20.9727099","name":"Metro Marymont","spot":"1","number":"9415","bikes":"12","bike_racks":"30","free_racks":"15","terminal_type":"7inch","bike_numbers":"24475,28534,28336,28111,28031,27811,26901,26574,26271,26232,29125,96419","bike_types":{"51":1,"4":10,"0":1},"place_type":"0","rack_locks":"1"},{"uid":"2585285","lat":"52.2694081","lng":"20.9833664","name":"Metro Plac Wilsona","spot":"1","number":"9416","bikes":"19","bike_racks":"21","free_racks":"0","terminal_type":"7inch","bike_numbers":"24992,24616,24608,28324,28296,27996,27765,27182,27142,27019,26933,26926,25983,25668,25471,29042,28863,96372,96113","bike_types":{"4":19},"place_type":"0","rack_locks":"1"},{"uid":"2585286","lat":"52.2668623","lng":"20.9637032","name":"Broniewskiego - W\u0142o\u015bcia\u0144ska","spot":"1","number":"9417","bikes":"21","bike_racks":"19","free_racks":"0","terminal_type":"7inch","bike_numbers":"24799,28737,28619,28563,28338,28221,28210,27930,27761,27179,26326,26274,26256,26243,25034,25026,29110,29051,96013,29155,29253","bike_types":{"4":21},"place_type":"0","rack_locks":"1"},{"uid":"2585288","lat":"52.2643984","lng":"20.9723179","name":"Broniewskiego - Krasi\u0144skiego","spot":"1","number":"9418","bikes":"1","bike_racks":"16","free_racks":"15","maintenance":"1","terminal_type":"7inch","bike_numbers":"96498","bike_types":{"4":1},"place_type":"0","rack_locks":"1"},{"uid":"2585289","lat":"52.267875","lng":"21.0020667","name":"Wybrze\u017ce Gdy\u0144skie - KS Sp\u00f3jnia","spot":"1","number":"9419","bikes":"13","bike_racks":"15","free_racks":"1","terminal_type":"7inch","bike_numbers":"24843,24042,27967,27500,27466,26611,26184,25775,25294,29088,96458,96242,96165","bike_types":{"4":12,"26":1},"place_type":"0","rack_locks":"1"},{"uid":"2585291","lat":"52.2624054","lng":"20.9802551","name":"Plac Grunwaldzki","spot":"1","number":"9420","bikes":"24","bike_racks":"30","free_racks":"5","terminal_type":"7inch","bike_numbers":"24984,24779,28376,28075,27961,27743,27738,27289,27198,26447,26209,25954,25906,25846,25779,25747,25641,25590,25552,25382,25074,29115,29034,29233","bike_types":{"4":24},"place_type":"0","rack_locks":"1"},{"uid":"2585296","lat":"52.2612575","lng":"20.9863191","name":"Zaj\u0105czka - Bitwy Pod Rokitn\u0105","spot":"1","number":"9421","bikes":"4","bike_racks":"15","free_racks":"11","terminal_type":"7inch","bike_numbers":"28658,27834,25712,29232","bike_types":{"4":4},"place_type":"0","rack_locks":"1"},{"uid":"2585297","lat":"52.2645018","lng":"20.9895998","name":"Plac Inwalid\u00f3w","spot":"1","number":"9422","bikes":"7","bike_racks":"15","free_racks":"9","terminal_type":"7inch","bike_numbers":"27074,26921,25989,25880,25286,96327,96134","bike_types":{"4":7},"place_type":"0","rack_locks":"1"},{"uid":"2585299","lat":"52.258245356688","lng":"20.898613929749","name":"P\u0119tla Stare Bemowo","spot":"1","number":"9423","bikes":"9","bike_racks":"21","free_racks":"12","terminal_type":"7inch","bike_numbers":"24830,24540,28514,27590,26659,25957,25201,96535,96109","bike_types":{"4":9},"place_type":"0","rack_locks":"1"},{"uid":"2585301","lat":"52.260895125763","lng":"20.923923254013","name":"P\u0119tla Nowe Bemowo","spot":"1","number":"9424","bikes":"17","bike_racks":"25","free_racks":"8","terminal_type":"7inch","bike_numbers":"24624,24487,27752,27656,27469,27125,26475,25872,25435,25428,25420,25259,29454,96268,96235,96223,96183","bike_types":{"4":16,"51":1},"place_type":"0","rack_locks":"1"},{"uid":"2585304","lat":"52.2575903","lng":"20.9323374","name":"Obro\u0144c\u00f3w Tobruku - Pieni\u0105\u017cka","spot":"1","number":"9425","bikes":"28","bike_racks":"22","free_racks":"0","terminal_type":"7inch","bike_numbers":"24930,24715,24658,24609,24478,28763,28716,28681,28633,28604,28472,28406,27950,27723,27345,26968,26851,26494,26395,26301,25749,25157,25116,25036,96321,96160,96101,29211","bike_types":{"4":27,"51":1},"place_type":"0","rack_locks":"1"},{"uid":"2585305","lat":"52.2593225","lng":"20.9605511","name":"Pow\u0105zkowska - Krasi\u0144skiego","spot":"1","number":"9426","bikes":"10","bike_racks":"23","free_racks":"12","terminal_type":"7inch","bike_numbers":"24551,28699,27639,27389,25850,25390,25325,29079,96083,29220","bike_types":{"4":10},"place_type":"0","rack_locks":"1"},{"uid":"2585306","lat":"52.2563145","lng":"20.9682307","name":"Pow\u0105zkowska - Plac Niemena","spot":"1","number":"9427","bikes":"14","bike_racks":"16","free_racks":"0","terminal_type":"7inch","bike_numbers":"24671,28765,27901,27749,27192,26842,26286,25199,28813,28832,96530,96414,96319,96592","bike_types":{"4":15},"place_type":"0","rack_locks":"1"},{"uid":"2585307","lat":"52.258524460024","lng":"20.970931649208","name":"Przasnyska - Rydygiera","spot":"1","number":"9428","bikes":"8","bike_racks":"15","free_racks":"6","terminal_type":"7inch","bike_numbers":"24636,24567,28687,28522,26476,26375,96152,96577","bike_types":{"4":8},"place_type":"0","rack_locks":"1"},{"uid":"2585308","lat":"52.253594","lng":"20.9798744","name":"Pow\u0105zkowska - Burakowska","spot":"1","number":"9429","bikes":"9","bike_racks":"20","free_racks":"11","terminal_type":"7inch","bike_numbers":"24453,27381,26439,26421,25342,25272,25261,25044,28948","bike_types":{"51":1,"4":8},"place_type":"0","rack_locks":"1"},{"uid":"2585311","lat":"52.2576018","lng":"20.9944975","name":"Metro Dworzec Gda\u0144ski","spot":"1","number":"9430","bikes":"13","bike_racks":"30","free_racks":"21","terminal_type":"7inch","bike_numbers":"24837,24024,27959,27652,27144,26887,26297,26220,25535,25457,25257,96396,29271","bike_types":{"4":13,"26":1},"place_type":"0","rack_locks":"1"},{"uid":"2585315","lat":"52.2465952","lng":"20.9429216","name":"Obozowa - Cio\u0142ka","spot":"1","number":"9432","bikes":"10","bike_racks":"13","free_racks":"3","terminal_type":"7inch","bike_numbers":"28521,28457,27617,27489,27449,27317,27063,25810,96575,96562","bike_types":{"4":10},"place_type":"0","rack_locks":"1"},{"uid":"2585317","lat":"52.227621983552","lng":"20.956758856773","name":"al. Prymasa Tysi\u0105clecia - Kasprzaka","spot":"1","number":"9433","bikes":"14","bike_racks":"23","free_racks":"7","terminal_type":"7inch","bike_numbers":"24948,24742,24458,27879,27244,26546,26185,25922,25817,25764,25554,25413,96574,96522","bike_types":{"4":14,"51":1},"place_type":"0","rack_locks":"1"},{"uid":"2585319","lat":"52.246037","lng":"20.962463","name":"Obozowa - Radziwie","spot":"1","number":"9434","bikes":"9","bike_racks":"13","free_racks":"2","terminal_type":"7inch","bike_numbers":"24693,26822,26694,26461,26321,29426,28866,96058,96503","bike_types":{"4":9},"place_type":"0","rack_locks":"1"},{"uid":"2585321","lat":"52.2514708","lng":"20.9857053","name":"al. Jana Paw\u0142a II - Stawki","spot":"1","number":"9435","bikes":"20","bike_racks":"23","free_racks":"3","terminal_type":"7inch","bike_numbers":"24955,24937,24746,24537,24512,28721,28561,28288,27801,27683,27546,27410,26847,26102,26005,25547,25463,25198,29066,96485","bike_types":{"4":18},"place_type":"0","rack_locks":"1"},{"uid":"2585323","lat":"52.2535305","lng":"20.9924922","name":"Stawki - Dubois","spot":"1","number":"9436","bikes":"0","bike_racks":"13","free_racks":"12","terminal_type":"7inch","bike_numbers":null,"bike_types":{"4":1},"place_type":"0","rack_locks":"1"},{"uid":"2585326","lat":"52.2541702","lng":"20.9980649","name":"Andersa - Muranowska","spot":"1","number":"9437","bikes":"26","bike_racks":"30","free_racks":"4","terminal_type":"7inch","bike_numbers":"24683,24634,24607,25004,28741,28034,27809,27794,27070,26740,26675,26673,26645,26394,26336,26319,26313,26108,25884,25635,25588,25461,25381,25337,96415,96090","bike_types":{"4":26},"place_type":"0","rack_locks":"1"},{"uid":"2585327","lat":"52.255877","lng":"21.0099819","name":"Sanguszki - Wybrze\u017ce Gda\u0144skie","spot":"1","number":"9438","bikes":"19","bike_racks":"28","free_racks":"8","terminal_type":"7inch","bike_numbers":"24857,24662,28602,28193,28151,27964,27759,27698,27674,26814,26686,26486,26481,26201,26162,26157,25614,29002,28799","bike_types":{"4":19},"place_type":"0","rack_locks":"1"},{"uid":"2585330","lat":"52.24418","lng":"20.97794","name":"Okopowa - Anielewicza","spot":"1","number":"9440","bikes":"2","bike_racks":"20","free_racks":"16","terminal_type":"7inch","bike_numbers":"24793,25241","bike_types":{"4":2},"place_type":"0","rack_locks":"1"},{"uid":"2585333","lat":"52.2486","lng":"20.98352","name":"Smocza - Mi\u0142a","spot":"1","number":"9441","bikes":"13","bike_racks":"15","free_racks":"2","terminal_type":"7inch","bike_numbers":"24838,28440,28364,27926,27724,27609,27420,27151,25336,25068,25065,29123,63621","bike_types":{"4":12,"0":1},"place_type":"0","rack_locks":"1"},{"uid":"2585334","lat":"52.24616","lng":"20.98538","name":"Smocza - Anielewicza","spot":"1","number":"9442","bikes":"4","bike_racks":"17","free_racks":"11","terminal_type":"7inch","bike_numbers":"24839,27900,26324,25262","bike_types":{"4":4},"place_type":"0","rack_locks":"1"},{"uid":"2585335","lat":"52.247226","lng":"20.9893155","name":"al. Jana Paw\u0142a II - Anielewicza","spot":"1","number":"9443","bikes":"7","bike_racks":"22","free_racks":"15","terminal_type":"7inch","bike_numbers":"28038,28030,26981,26977,25839,25710,28888","bike_types":{"4":7},"place_type":"0","rack_locks":"1"},{"uid":"2585337","lat":"52.249052","lng":"20.9948923","name":"Anielewicza - Zamenhofa","spot":"1","number":"9444","bikes":"4","bike_racks":"15","free_racks":"10","terminal_type":"7inch","bike_numbers":"28662,28638,28130,27429","bike_types":{"4":5},"place_type":"0","rack_locks":"1"},{"uid":"2585338","lat":"52.2492196","lng":"20.9971878","name":"Anielewicza - Andersa","spot":"1","number":"9445","bikes":"18","bike_racks":"20","free_racks":"1","terminal_type":"7inch","bike_numbers":"24719,24672,24505,28487,28058,27579,27439,27296,27193,26381,26025,25889,25784,25659,29072,29652,28812,96082","bike_types":{"4":18},"place_type":"0","rack_locks":"1"},{"uid":"2585340","lat":"52.251549","lng":"21.002749","name":"Bonifraterska - Franciszka\u0144ska","spot":"1","number":"9446","bikes":"16","bike_racks":"18","free_racks":"1","terminal_type":"7inch","bike_numbers":"24855,24802,28535,28029,27748,26889,26861,26401,26368,25607,25577,25541,25429,25222,29014,63630","bike_types":{"4":16},"place_type":"0","rack_locks":"1"},{"uid":"2585342","lat":"52.2541119","lng":"21.0093342","name":"Ko\u015bcielna - Piesza","spot":"1","number":"9448","bikes":"5","bike_racks":"26","free_racks":"19","terminal_type":"7inch","bike_numbers":"28586,27778,25920,25236,28962","bike_types":{"4":5},"place_type":"0","rack_locks":"1"},{"uid":"2585344","lat":"52.2392622","lng":"20.8987641","name":"P\u0119tla Os. G\u00f3rczewska","spot":"1","number":"9449","bikes":"5","bike_racks":"15","free_racks":"10","terminal_type":"7inch","bike_numbers":"28640,28593,26445,25665,29212","bike_types":{"4":5},"place_type":"0","rack_locks":"1"},{"uid":"2585345","lat":"52.2389287","lng":"20.9139535","name":"Bemowo-Ratusz","spot":"1","number":"9450","bikes":"19","bike_racks":"20","free_racks":"2","terminal_type":"7inch","bike_numbers":"24849,24592,24519,28474,28462,28413,28060,27195,27190,26819,26654,26568,26448,26294,25375,25191,28777,96534,96311","bike_types":{"4":19},"place_type":"0","rack_locks":"1"},{"uid":"2585346","lat":"52.2387861","lng":"20.9424946","name":"Okocimska - Olbrachta","spot":"1","number":"9451","bikes":"8","bike_racks":"18","free_racks":"9","terminal_type":"7inch","bike_numbers":"24806,28654,28489,27942,27823,26895,96265,96079","bike_types":{"4":8},"place_type":"0","rack_locks":"1"},{"uid":"2585349","lat":"52.2506241","lng":"21.0533611","name":"Dworzec Wschodni - Lubelska","spot":"1","number":"9452","bikes":"13","bike_racks":"15","free_racks":"2","terminal_type":"7inch","bike_numbers":"24724,24550,24545,27713,26948,26240,25739,25587,25542,25047,29005,96496,96221","bike_types":{"4":13},"place_type":"0","rack_locks":"1"},{"uid":"2585351","lat":"52.2369249","lng":"20.9723559","name":"Leszno - M\u0142ynarska","spot":"1","number":"9453","bikes":"20","bike_racks":"30","free_racks":"8","terminal_type":"7inch","bike_numbers":"24492,28903,27405,27138,27097,26942,26788,26721,26100,25847,25693,25543,25313,25305,25220,25112,29134,28967,96313,96238","bike_types":{"51":1,"4":19},"place_type":"0","rack_locks":"1"},{"uid":"2585352","lat":"52.2430451","lng":"20.9803864","name":"Dzielna - Bellottiego","spot":"1","number":"9454","bikes":"6","bike_racks":"13","free_racks":"7","terminal_type":"7inch","bike_numbers":"26777,26598,25652,25032,96302,29181","bike_types":{"4":6},"place_type":"0","rack_locks":"1"},{"uid":"2585353","lat":"52.24108","lng":"20.98316","name":"Wolno\u015b\u0107 - Bellottiego","spot":"1","number":"9455","bikes":"13","bike_racks":"16","free_racks":"2","terminal_type":"7inch","bike_numbers":"24794,24738,28559,28300,28147,27934,27814,26329,25981,25546,25023,29352,96272","bike_types":{"4":13},"place_type":"0","rack_locks":"1"},{"uid":"2585354","lat":"52.2435448","lng":"20.9873507","name":"Smocza - Nowolipki","spot":"1","number":"9456","bikes":"7","bike_racks":"16","free_racks":"8","terminal_type":"7inch","bike_numbers":"27892,27186,26999,26412,28959,29367,29445","bike_types":{"4":7},"place_type":"0","rack_locks":"1"},{"uid":"2585356","lat":"52.2445767","lng":"20.99177","name":"al. Jana Paw\u0142a II - Nowolipki","spot":"1","number":"9457","bikes":"7","bike_racks":"16","free_racks":"8","terminal_type":"7inch","bike_numbers":"28739,27840,25344,28964,96504,96249,29255","bike_types":{"4":7},"place_type":"0","rack_locks":"1"},{"uid":"2585358","lat":"52.22868","lng":"20.91509","name":"Powsta\u0144c\u00f3w \u015al\u0105skich - Cz\u0142uchowska","spot":"1","number":"9458","bikes":"10","bike_racks":"16","free_racks":"6","terminal_type":"7inch","bike_numbers":"24953,24595,24520,28750,28218,28872,96471,96451,96427,96128","bike_types":{"4":10},"place_type":"0","rack_locks":"1"},{"uid":"2585360","lat":"52.2342032","lng":"20.934689","name":"Jana Olbrachta - Antka Rozpylacza","spot":"1","number":"9459","bikes":"12","bike_racks":"13","free_racks":"0","terminal_type":"7inch","bike_numbers":"24755,24510,28904,27635,27302,26668,26116,25947,25253,63608,96368,96246","bike_types":{"4":14},"place_type":"0","rack_locks":"1"},{"uid":"2585364","lat":"52.2401623","lng":"20.9877277","name":"Wola-Ratusz","spot":"1","number":"9460","bikes":"13","bike_racks":"15","free_racks":"0","terminal_type":"7inch","bike_numbers":"24975,24690,24500,28622,28033,27404,27073,26910,26466,29063,29461,96173,96581","bike_types":{"4":12,"51":1},"place_type":"0","rack_locks":"1"},{"uid":"2585368","lat":"52.2445326","lng":"20.99998","name":"Plac Bankowy - Kino Muran\u00f3w","spot":"1","number":"9462","bikes":"16","bike_racks":"17","free_racks":"1","terminal_type":"7inch","bike_numbers":"24917,24643,24599,28441,28357,27888,27055,26715,25506,29087,60850,28846,96298,96286,29187,29241","bike_types":{"4":16},"place_type":"0","rack_locks":"1"},{"uid":"2585369","lat":"52.2449465","lng":"21.0012943","name":"Andersa - D\u0142uga","spot":"1","number":"9463","bikes":"20","bike_racks":"30","free_racks":"12","terminal_type":"7inch","bike_numbers":"28659,28503,28485,28458,28016,27841,27817,27758,27257,27233,27171,27156,26755,26639,26432,28921,29660,96232,96126,29251","bike_types":{"4":20},"place_type":"0","rack_locks":"1"},{"uid":"2585370","lat":"52.2442666","lng":"21.0015893","name":"Marsza\u0142kowska - al. Solidarno\u015bci","spot":"1","number":"9464","bikes":"18","bike_racks":"30","free_racks":"2","terminal_type":"7inch","bike_numbers":"24580,28589,28565,28445,27897,27757,27202,27181,27033,26863,26807,25766,25690,25571,25165,29357,28896,96310","bike_types":{"4":18},"place_type":"0","rack_locks":"1"},{"uid":"2585371","lat":"52.2431975","lng":"21.0016603","name":"Plac Bankowy - Ratusz","spot":"1","number":"9465","bikes":"14","bike_racks":"30","free_racks":"16","terminal_type":"7inch","bike_numbers":"24666,28507,28257,28057,27769,27701,26422,26348,26023,25919,25744,29089,25630,96230","bike_types":{"4":14},"place_type":"0","rack_locks":"1"},{"uid":"2585373","lat":"52.2435719","lng":"21.0066801","name":"Senatorska - Biela\u0144ska","spot":"1","number":"9466","bikes":"21","bike_racks":"17","free_racks":"0","terminal_type":"7inch","bike_numbers":"24485,28475,28416,28334,28330,27980,27968,27923,27715,27146,26994,26789,26252,26225,25591,25162,25160,25155,96003,96417,96143","bike_types":{"51":1,"4":20},"place_type":"0","rack_locks":"1"},{"uid":"2585377","lat":"52.246314509834","lng":"21.0113042593","name":"Miodowa","spot":"1","number":"9467","bikes":"29","bike_racks":"24","free_racks":"9","terminal_type":"7inch","bike_numbers":"24775,28761,28663,28573,28427,27883,27735,27707,27661,27651,27436,27396,26995,26751,26624,26128,26079,25671,25536,25504,25098,29142,96462,96461,96362,96130,96097,96076,29265","bike_types":{"4":25,"0":1},"place_type":"0","rack_locks":"1"},{"uid":"2585378","lat":"52.2435965","lng":"21.0140803","name":"Krakowskie Przedmie\u015bcie - Tr\u0119backa","spot":"1","number":"9468","bikes":"22","bike_racks":"14","free_racks":"0","terminal_type":"7inch","bike_numbers":"24856,28690,28473,27976,27237,27210,26959,26829,26480,26471,26124,25707,25472,29030,29021,29455,28862,28891,28982,96509,96386,29189","bike_types":{"4":22},"place_type":"0","rack_locks":"1"},{"uid":"2585379","lat":"52.2465625","lng":"21.0174345","name":"Mariensztat","spot":"1","number":"9469","bikes":"30","bike_racks":"15","free_racks":"0","terminal_type":"7inch","bike_numbers":"24650,24036,28773,28394,28100,28055,28040,27932,27921,27667,27554,27505,27479,27316,26843,26764,26725,26601,26140,26099,26013,25819,25698,25566,25550,25469,25252,25095,29013,96146","bike_types":{"4":29,"54":1},"place_type":"0","rack_locks":"1"},{"uid":"2585381","lat":"52.224934","lng":"20.945489","name":"Jana Kazimierza - Giz\u00f3w","spot":"1","number":"9471","bikes":"7","bike_racks":"13","free_racks":"3","terminal_type":"7inch","bike_numbers":"24528,28424,28156,27638,27527,96523,96584","bike_types":{"4":8},"place_type":"0","rack_locks":"1"},{"uid":"2585385","lat":"52.23016","lng":"20.951558","name":"Wolska - Elekcyjna","spot":"1","number":"9472","bikes":"7","bike_racks":"20","free_racks":"13","terminal_type":"7inch","bike_numbers":"24765,27152,26865,26664,26132,28816,29169","bike_types":{"4":7},"place_type":"0","rack_locks":"1"},{"uid":"2585387","lat":"52.237662392829","lng":"20.955492854118","name":"al. Prymasa Tysi\u0105clecia - G\u00f3rczewska","spot":"1","number":"9473","bikes":"5","bike_racks":"20","free_racks":"13","terminal_type":"7inch","bike_numbers":"28682,27513,27062,26047,29239","bike_types":{"4":6},"place_type":"0","rack_locks":"1"},{"uid":"2585389","lat":"52.2333374","lng":"20.9652776","name":"Wolska - P\u0142ocka","spot":"1","number":"9474","bikes":"11","bike_racks":"20","free_racks":"8","terminal_type":"7inch","bike_numbers":"24932,24655,24601,24514,28002,27057,26935,26658,26112,25689,25675","bike_types":{"4":11},"place_type":"0","rack_locks":"1"},{"uid":"2585391","lat":"52.228522296173","lng":"20.969638824463","name":"Kasprzaka - Skierniewicka","spot":"1","number":"9475","bikes":"0","bike_racks":"21","free_racks":"20","terminal_type":"7inch","place_type":"0","rack_locks":"1","bike_numbers":null,"bike_types":[]},{"uid":"2585394","lat":"52.22898","lng":"20.97843","name":"Kasprzaka - Karolkowa","spot":"1","number":"9476","bikes":"5","bike_racks":"15","free_racks":"10","terminal_type":"7inch","bike_numbers":"27295,27149,26967,25807,96253","bike_types":{"4":5},"place_type":"0","rack_locks":"1"},{"uid":"2585396","lat":"52.2328752","lng":"20.9805411","name":"Muzeum Powstania Warszawskiego","spot":"1","number":"9477","bikes":"9","bike_racks":"10","free_racks":"1","terminal_type":"7inch","bike_numbers":"24868,24823,28667,28665,25193,25011,96021,96436,96150","bike_types":{"4":9},"place_type":"0","rack_locks":"1"},{"uid":"2585398","lat":"52.22983","lng":"20.983123","name":"Metro Rondo Daszy\u0144skiego","spot":"1","number":"9478","bikes":"5","bike_racks":"26","free_racks":"20","terminal_type":"7inch","bike_numbers":"24901,24773,28479,26551,29257","bike_types":{"4":5},"place_type":"0","rack_locks":"1"},{"uid":"2585400","lat":"52.23145","lng":"20.98869","name":"Prosta - Wronia","spot":"1","number":"9479","bikes":"0","bike_racks":"15","free_racks":"15","terminal_type":"7inch","place_type":"0","rack_locks":"1","bike_numbers":null,"bike_types":[]},{"uid":"2585401","lat":"52.2373141","lng":"20.9888488","name":"\u017belazna - Ch\u0142odna","spot":"1","number":"9480","bikes":"7","bike_racks":"15","free_racks":"8","terminal_type":"7inch","bike_numbers":"24940,28207,25446,25385,96149,29164,29279","bike_types":{"4":7},"place_type":"0","rack_locks":"1"},{"uid":"2585402","lat":"52.2344946","lng":"20.9905117","name":"\u017belazna - Grzybowska","spot":"1","number":"9481","bikes":"7","bike_racks":"20","free_racks":"13","terminal_type":"7inch","bike_numbers":"27140,26164,25902,25132,25078,96571,96519","bike_types":{"4":6},"place_type":"0","rack_locks":"1"},{"uid":"2585405","lat":"52.238666","lng":"20.9957314","name":"al. Jana Paw\u0142a II - Plac Mirowski","spot":"1","number":"9482","bikes":"6","bike_racks":"21","free_racks":"15","terminal_type":"7inch","bike_numbers":"28297,28071,27518,26590,26065,25120","bike_types":{"4":5},"place_type":"0","rack_locks":"1"},{"uid":"2585406","lat":"52.2357151","lng":"20.9966071","name":"al. Jana Paw\u0142a II - Grzybowska","spot":"1","number":"9483","bikes":"0","bike_racks":"30","free_racks":"29","terminal_type":"7inch","place_type":"0","rack_locks":"1","bike_numbers":null,"bike_types":[]},{"uid":"2585410","lat":"52.23958","lng":"21.00027","name":"Ptasia - Zimna","spot":"1","number":"9485","bikes":"14","bike_racks":"16","free_racks":"2","terminal_type":"7inch","bike_numbers":"24875,27606,27555,27543,27433,27118,27099,27028,26993,26462,26213,29421,28900,96421","bike_types":{"4":14},"place_type":"0","rack_locks":"1"},{"uid":"2585412","lat":"52.2336314","lng":"21.0028795","name":"Emilii Plater - \u015awi\u0119tokrzyska","spot":"1","number":"9486","bikes":"11","bike_racks":"26","free_racks":"10","terminal_type":"7inch","bike_numbers":"24895,24881,25005,28775,28325,28140,25844,25676,25188,25147,29067","bike_types":{"4":11},"place_type":"0","rack_locks":"1"},{"uid":"2585413","lat":"52.2358704","lng":"21.0037806","name":"Plac Grzybowski","spot":"1","number":"9487","bikes":"11","bike_racks":"26","free_racks":"17","terminal_type":"7inch","bike_numbers":"24734,28529,28049,28021,27180,26934,25913,25770,25374,96032,96536","bike_types":{"4":11},"place_type":"0","rack_locks":"1"},{"uid":"2585416","lat":"52.2384853","lng":"21.0067552","name":"Marsza\u0142kowska - Kr\u00f3lewska","spot":"1","number":"9488","bikes":"8","bike_racks":"19","free_racks":"10","terminal_type":"7inch","bike_numbers":"24461,28897,28362,27629,27111,26786,26704,26695","bike_types":{"51":1,"4":7},"place_type":"0","rack_locks":"1"},{"uid":"2585417","lat":"52.2364206","lng":"21.0072407","name":"Marsza\u0142kowska - Zielna","spot":"1","number":"9489","bikes":"4","bike_racks":"30","free_racks":"26","terminal_type":"7inch","bike_numbers":"24501,27116,26970,26821","bike_types":{"4":3},"place_type":"0","rack_locks":"1"},{"uid":"2585420","lat":"52.2397008","lng":"21.0119292","name":"Plac Ma\u0142achowskiego","spot":"1","number":"9491","bikes":"4","bike_racks":"16","free_racks":"7","terminal_type":"7inch","bike_numbers":"28453,27157,26987,28853","bike_types":{"4":3},"place_type":"0","rack_locks":"1"},{"uid":"2585422","lat":"52.2359114","lng":"21.0135654","name":"Plac Powsta\u0144c\u00f3w Warszawy","spot":"1","number":"9492","bikes":"2","bike_racks":"20","free_racks":"14","terminal_type":"7inch","bike_numbers":"28133,27783","bike_types":{"4":2},"place_type":"0","rack_locks":"1"},{"uid":"2585423","lat":"52.2393559","lng":"21.016603","name":"Krakowskie Przedmie\u015bcie - Traugutta","spot":"1","number":"9493","bikes":"7","bike_racks":"24","free_racks":"17","terminal_type":"7inch","bike_numbers":"24848,24698,27503,27119,25216,29043,29280","bike_types":{"4":7},"place_type":"0","rack_locks":"1"},{"uid":"2585429","lat":"52.238298","lng":"21.0184014","name":"Obo\u017ana - Kopernika","spot":"1","number":"9495","bikes":"2","bike_racks":"22","free_racks":"17","terminal_type":"7inch","bike_numbers":"27499,29070","bike_types":{"4":3},"place_type":"0","rack_locks":"1"},{"uid":"2585430","lat":"52.24190654256","lng":"21.024259328842","name":"Lipowa - Dobra","spot":"1","number":"9496","bikes":"20","bike_racks":"19","free_racks":"0","terminal_type":"7inch","bike_numbers":"24998,28695,28139,27581,27511,27239,27222,26918,26423,26386,26284,26077,25965,25942,25651,25633,25372,29362,63602,96464","bike_types":{"4":20},"place_type":"0","rack_locks":"1"},{"uid":"2585431","lat":"52.2413087","lng":"21.0281727","name":"Centrum Nauki Kopernik","spot":"1","number":"9497","bikes":"25","bike_racks":"30","free_racks":"8","terminal_type":"7inch","bike_numbers":"24967,24576,24571,28601,27772,27589,27517,27392,26930,26589,26510,26482,25793,25658,25580,25529,25279,25093,29119,24555,28978,28993,96002,96487,96357","bike_types":{"4":24},"place_type":"0","rack_locks":"1"},{"uid":"2585432","lat":"52.2264464","lng":"20.9837164","name":"Kolejowa","spot":"1","number":"9498","bikes":"7","bike_racks":"16","free_racks":"10","terminal_type":"7inch","bike_numbers":"24706,24659,27941,27824,27774,27375,26048","bike_types":{"4":7},"place_type":"0","rack_locks":"1"},{"uid":"2585433","lat":"52.22983","lng":"20.993996","name":"\u017belazna - Sienna","spot":"1","number":"9499","bikes":"7","bike_racks":"30","free_racks":"22","terminal_type":"7inch","bike_numbers":"28391,27398,26532,96278,96276,29183,29152","bike_types":{"4":7},"place_type":"0","rack_locks":"1"},{"uid":"2585435","lat":"52.230201297582","lng":"20.999550819397","name":"al. Jana Paw\u0142a II - Z\u0142ota","spot":"1","number":"9500","bikes":"11","bike_racks":"16","free_racks":"4","terminal_type":"7inch","bike_numbers":"24560,24529,28587,28289,27597,26783,26640,26443,26088,25362,96435","bike_types":{"4":11},"place_type":"0","rack_locks":"1"},{"uid":"2585438","lat":"52.2309778","lng":"21.0036755","name":"Emilii Plater - Z\u0142ota","spot":"1","number":"9501","bikes":"29","bike_racks":"30","free_racks":"0","terminal_type":"7inch","bike_numbers":"24890,24603,28258,28003,27891,27537,27526,27383,27054,26813,26744,26187,26040,25798,25677,25597,25594,25333,25321,25278,25184,25031,28980,29449,28844,96051,96026,96181,96167","bike_types":{"4":29},"place_type":"0","rack_locks":"1"},{"uid":"2585440","lat":"52.232816601853","lng":"21.006980538368","name":"Pa\u0142ac Kultury i Nauki","spot":"1","number":"9502","bikes":"11","bike_racks":"17","free_racks":"6","terminal_type":"7inch","bike_numbers":"28719,28537,28146,27927,27447,26949,26424,25678,25422,25400,29204","bike_types":{"4":11},"place_type":"0","rack_locks":"1"},{"uid":"2585442","lat":"52.232934","lng":"21.0101791","name":"Marsza\u0142kowska - Z\u0142ota","spot":"1","number":"9503","bikes":"16","bike_racks":"22","free_racks":"5","terminal_type":"7inch","bike_numbers":"24945,24730,24527,24515,24495,24494,28562,28087,27346,26885,26850,26558,25854,25674,96252,29269","bike_types":{"4":14,"51":2},"place_type":"0","rack_locks":"1"},{"uid":"2585445","lat":"52.231987","lng":"21.016092","name":"Bracka - Krucza","spot":"1","number":"9504","bikes":"1","bike_racks":"20","free_racks":"15","terminal_type":"7inch","bike_numbers":"26540","bike_types":{"4":1},"place_type":"0","rack_locks":"1"},{"uid":"2585446","lat":"52.2355713","lng":"21.0179642","name":"Nowy \u015awiat - Warecka","spot":"1","number":"9505","bikes":"3","bike_racks":"24","free_racks":"24","terminal_type":"7inch","bike_numbers":"24621,26000,25058","bike_types":{"4":3},"place_type":"0","rack_locks":"1"},{"uid":"2585447","lat":"52.2337571","lng":"21.0202789","name":"Ga\u0142czy\u0144skiego - Foksal","spot":"1","number":"9506","bikes":"5","bike_racks":"24","free_racks":"18","terminal_type":"7inch","bike_numbers":"26671,25719,25576,25175,29448","bike_types":{"4":6},"place_type":"0","rack_locks":"1"},{"uid":"2585450","lat":"52.2375934","lng":"21.0256487","name":"Topiel - Tamka","spot":"1","number":"9507","bikes":"13","bike_racks":"20","free_racks":"8","terminal_type":"7inch","bike_numbers":"24770,28680,26871,26693,26307,26042,26024,25767,25449,63619,96442,96156,29195","bike_types":{"4":13},"place_type":"0","rack_locks":"1"},{"uid":"2585452","lat":"52.2358752","lng":"21.0317323","name":"Solec - Jaracza","spot":"1","number":"9508","bikes":"9","bike_racks":"15","free_racks":"6","terminal_type":"7inch","bike_numbers":"28678,28365,28359,26449,25997,25976,25122,29081,96091","bike_types":{"4":9},"place_type":"0","rack_locks":"1"},{"uid":"2585453","lat":"52.2218874","lng":"20.9795301","name":"al. Jerozolimskie - Niemcewicza","spot":"1","number":"9509","bikes":"5","bike_racks":"19","free_racks":"8","terminal_type":"7inch","bike_numbers":"26618,25460,25153,96044,96527","bike_types":{"4":5},"place_type":"0","rack_locks":"1"},{"uid":"2585455","lat":"52.2222155","lng":"20.9866293","name":"Ochota-Ratusz","spot":"1","number":"9510","bikes":"3","bike_racks":"23","free_racks":"18","terminal_type":"7inch","bike_numbers":"24652,28641,27170","bike_types":{"4":3},"place_type":"0","rack_locks":"1"},{"uid":"2585457","lat":"52.2249718","lng":"20.9897661","name":"Plac Zawiszy","spot":"1","number":"9511","bikes":"14","bike_racks":"24","free_racks":"7","terminal_type":"7inch","bike_numbers":"28758,28466,28011,28009,27573,27413,27187,27183,26736,26690,26488,96533,96406,96114","bike_types":{"4":15},"place_type":"0","rack_locks":"1"},{"uid":"2585460","lat":"52.22626","lng":"20.9961309","name":"al. Jerozolimskie - Lindleya","spot":"1","number":"9512","bikes":"1","bike_racks":"15","free_racks":"14","terminal_type":"7inch","bike_numbers":"26017","bike_types":{"4":1},"place_type":"0","rack_locks":"1"},{"uid":"2585462","lat":"52.2241455","lng":"20.9975244","name":"Lindleya - szpital","spot":"1","number":"9513","bikes":"20","bike_racks":"28","free_racks":"8","terminal_type":"7inch","bike_numbers":"24885,24769,24627,24585,28486,28455,27836,27670,27642,27423,27243,26758,25876,25711,25615,28910,29121,28865,96290,96084","bike_types":{"4":19,"0":1},"place_type":"0","rack_locks":"1"},{"uid":"2585464","lat":"52.227861","lng":"21.0008509","name":"Warszawa \u015ar\u00f3dmie\u015bcie WKD","spot":"1","number":"9514","bikes":"8","bike_racks":"18","free_racks":"8","terminal_type":"7inch","bike_numbers":"28035,26493,26415,26127,25227,25046,29657,96493","bike_types":{"4":8},"place_type":"0","rack_locks":"1"},{"uid":"2585466","lat":"52.2249555","lng":"21.0031664","name":"Oczki - WUM","spot":"1","number":"9515","bikes":"11","bike_racks":"19","free_racks":"8","terminal_type":"7inch","bike_numbers":"28762,27768,27608,26785,26189,26145,25268,25096,25081,29086,29215","bike_types":{"4":11},"place_type":"0","rack_locks":"1"},{"uid":"2585469","lat":"52.2290464","lng":"21.0054544","name":"Emilii Plater - Al. Jerozolimskie","spot":"1","number":"9517","bikes":"21","bike_racks":"30","free_racks":"5","terminal_type":"7inch","bike_numbers":"24792,28495,28345,28061,28024,27807,27577,27437,27082,26984,26800,26632,26123,25691,25611,25331,25080,25016,29138,28918,96481","bike_types":{"4":22,"0":1},"place_type":"0","rack_locks":"1"},{"uid":"2585470","lat":"52.2259343","lng":"21.0067537","name":"Emilii Plater - Wsp\u00f3lna","spot":"1","number":"9518","bikes":"9","bike_racks":"15","free_racks":"6","terminal_type":"7inch","bike_numbers":"28901,28539,27704,27496,27126,26139,25960,28976,29264","bike_types":{"4":8},"place_type":"0","rack_locks":"1"},{"uid":"2585472","lat":"52.23001","lng":"21.01088","name":"Metro Centrum","spot":"1","number":"9519","bikes":"17","bike_racks":"30","free_racks":"11","terminal_type":"7inch","bike_numbers":"28899,28743,28280,28132,26759,26200,26136,26115,25991,25967,25789,25657,25473,25414,25097,96284,96244","bike_types":{"4":17},"place_type":"0","rack_locks":"1"},{"uid":"2585473","lat":"52.229347019086","lng":"21.011314988136","name":"Marsza\u0142kowska - Al. Jerozolimskie","spot":"1","number":"9520","bikes":"18","bike_racks":"24","free_racks":"5","terminal_type":"7inch","bike_numbers":"24835,28712,28358,28319,27764,27545,27521,27338,26425,26396,26131,26027,26015,25974,25589,25464,29073,96294","bike_types":{"4":18},"place_type":"0","rack_locks":"1"},{"uid":"2585476","lat":"52.230418150276","lng":"21.013610959053","name":"al. Jerozolimskie - rejon Rotundy","spot":"1","number":"9521","bikes":"4","bike_racks":"24","free_racks":"21","terminal_type":"7inch","bike_numbers":"28259,27343,27160,29275","bike_types":{"4":4},"place_type":"0","rack_locks":"1"},{"uid":"2585477","lat":"52.2262882","lng":"21.0135705","name":"Marsza\u0142kowska - Ho\u017ca","spot":"1","number":"9522","bikes":"3","bike_racks":"15","free_racks":"7","terminal_type":"7inch","bike_numbers":"27896,26299,29192","bike_types":{"4":5},"place_type":"0","rack_locks":"1"},{"uid":"2585492","lat":"52.2282923","lng":"21.0178542","name":"Krucza - Wsp\u00f3lna","spot":"1","number":"9523","bikes":"0","bike_racks":"28","free_racks":"24","terminal_type":"7inch","place_type":"0","rack_locks":"1","bike_numbers":null,"bike_types":[]},{"uid":"2585684","lat":"52.23144","lng":"21.0213036","name":"Rondo de Gaulle'a","spot":"1","number":"9524","bikes":"2","bike_racks":"22","free_racks":"19","terminal_type":"7inch","bike_numbers":"27945,26544","bike_types":{"4":2},"place_type":"0","rack_locks":"1"},{"uid":"2585694","lat":"52.2278487","lng":"21.0235084","name":"Plac Trzech Krzy\u017cy","spot":"1","number":"9525","bikes":"9","bike_racks":"23","free_racks":"15","maintenance":"1","terminal_type":"7inch","bike_numbers":"24626,28459,28276,27416,26916,25701,25240,25022,96350","bike_types":{"4":9},"place_type":"0","rack_locks":"1"},{"uid":"2585695","lat":"52.23324","lng":"21.0261179","name":"Smolna - PKP Powi\u015ble","spot":"1","number":"9526","bikes":"8","bike_racks":"18","free_racks":"5","terminal_type":"7inch","bike_numbers":"28018,25862,25583,25433,25397,29015,96550,96472","bike_types":{"4":9},"place_type":"0","rack_locks":"1"},{"uid":"2585699","lat":"52.2340191","lng":"21.0300328","name":"Herberta - PKP Powi\u015ble","spot":"1","number":"9527","bikes":"31","bike_racks":"26","free_racks":"2","terminal_type":"7inch","bike_numbers":"24736,24680,28717,28385,28216,27703,27520,27386,27041,27014,26857,26808,26666,26582,26129,26113,26083,25478,25441,25379,25114,29045,28861,28895,28973,96047,96553,96549,96100,29252,29216","bike_types":{"4":31},"place_type":"0","rack_locks":"1"},{"uid":"2585704","lat":"52.2347879","lng":"21.0340991","name":"Solec - al. 3 Maja","spot":"1","number":"9528","bikes":"20","bike_racks":"24","free_racks":"5","terminal_type":"7inch","bike_numbers":"24723,24722,28598,28581,28420,27648,27452,26793,26709,26606,26596,26433,26051,26034,26019,25724,29076,29037,96046,96086","bike_types":{"4":20},"place_type":"0","rack_locks":"1"},{"uid":"2585708","lat":"52.2301405","lng":"21.0303694","name":"Ksi\u0105\u017c\u0119ca - Rozbrat","spot":"1","number":"9529","bikes":"15","bike_racks":"15","free_racks":"0","terminal_type":"7inch","bike_numbers":"24925,24902,28726,28498,27377,27069,26946,26772,26359,26137,26064,29654,96521,96151,96580","bike_types":{"4":15},"place_type":"0","rack_locks":"1"},{"uid":"2585711","lat":"52.2172177","lng":"20.9713608","name":"Szcz\u0119\u015bliwicka - APS","spot":"1","number":"9530","bikes":"5","bike_racks":"22","free_racks":"16","terminal_type":"7inch","bike_numbers":"27445,27245,27127,26193,28981","bike_types":{"4":5},"place_type":"0","rack_locks":"1"},{"uid":"2585712","lat":"52.2179474","lng":"20.9775567","name":"Kopi\u0144ska - Bia\u0142obrzeska","spot":"1","number":"9531","bikes":"6","bike_racks":"15","free_racks":"7","terminal_type":"7inch","bike_numbers":"24536,28718,27399,25953,96346,29151","bike_types":{"4":6},"place_type":"0","rack_locks":"1"},{"uid":"2585714","lat":"52.2178554","lng":"20.9828138","name":"Plac Narutowicza","spot":"1","number":"9532","bikes":"25","bike_racks":"30","free_racks":"4","terminal_type":"7inch","bike_numbers":"24801,28661,28142,27974,27965,27874,27677,27463,27274,27123,26404,26004,25723,25533,25151,25139,28847,96441,96343,96291,96275,96274,96261,29186,29242","bike_types":{"4":25},"place_type":"0","rack_locks":"1"},{"uid":"2585716","lat":"52.216641","lng":"20.9879476","name":"Raszy\u0144ska - Wawelska","spot":"1","number":"9533","bikes":"1","bike_racks":"20","free_racks":"18","terminal_type":"7inch","bike_numbers":"27166","bike_types":{"4":1},"place_type":"0","rack_locks":"1"},{"uid":"2585717","lat":"52.2191029","lng":"20.9890149","name":"Raszy\u0144ska - Filtrowa","spot":"1","number":"9534","bikes":"0","bike_racks":"22","free_racks":"20","terminal_type":"7inch","bike_numbers":null,"bike_types":{"4":1},"place_type":"0","rack_locks":"1"},{"uid":"2585720","lat":"52.220676","lng":"21.0045554","name":"al. Niepodleg\u0142o\u015bci - Nowowiejska","spot":"1","number":"9535","bikes":"4","bike_racks":"30","free_racks":"26","terminal_type":"7inch","bike_numbers":"27483,26519,26078,96115","bike_types":{"4":4},"place_type":"0","rack_locks":"1"},{"uid":"2585721","lat":"52.2174693","lng":"21.0056537","name":"Kaczy\u0144skiego - al. Niepodleg\u0142o\u015bci","spot":"1","number":"9536","bikes":"0","bike_racks":"16","free_racks":"16","terminal_type":"7inch","place_type":"0","rack_locks":"1","bike_numbers":null,"bike_types":[]},{"uid":"2585722","lat":"52.2226831","lng":"21.0081097","name":"Noakowskiego - Koszykowa","spot":"1","number":"9537","bikes":"12","bike_racks":"24","free_racks":"13","terminal_type":"7inch","bike_numbers":"28715,28442,27800,27539,27468,26988,26216,25687,25425,25082,96416,96365","bike_types":{"4":12},"place_type":"0","rack_locks":"1"},{"uid":"2585724","lat":"52.219916","lng":"21.0116824","name":"Plac Politechniki","spot":"1","number":"9538","bikes":"12","bike_racks":"27","free_racks":"14","terminal_type":"7inch","bike_numbers":"24846,24717,27112,27018,26366,26141,25409,25322,28867,96515,96194,29248","bike_types":{"4":12},"place_type":"0","rack_locks":"1"},{"uid":"2585727","lat":"52.223503","lng":"21.0128519","name":"Pozna\u0144ska - Zesp\u00f3\u0142 Szk\u00f3\u0142 Gastronomicznych","spot":"1","number":"9539","bikes":"8","bike_racks":"18","free_racks":"12","terminal_type":"7inch","bike_numbers":"28261,28062,27978,27050,27043,26223,25171,25168","bike_types":{"4":8},"place_type":"0","rack_locks":"1"},{"uid":"2585728","lat":"52.2174857","lng":"21.0142949","name":"Rondo Jazdy Polskiej","spot":"1","number":"9540","bikes":"3","bike_racks":"24","free_racks":"14","terminal_type":"7inch","bike_numbers":"28402,28778,96591","bike_types":{"4":4},"place_type":"0","rack_locks":"1"},{"uid":"2585729","lat":"52.2197435","lng":"21.0157353","name":"ul. Wary\u0144skiego-ul. Nowowiejska-Metro Politechnika ","spot":"1","number":"9541","bikes":"5","bike_racks":"20","free_racks":"17","terminal_type":"7inch","bike_numbers":"28425,27750,26500,26470,25361","bike_types":{"4":5},"place_type":"0","rack_locks":"1"},{"uid":"2585731","lat":"52.2197681","lng":"21.0172775","name":"Plac Zbawiciela","spot":"1","number":"9542","bikes":"3","bike_racks":"12","free_racks":"9","terminal_type":"7inch","bike_numbers":"26085,25298,29433","bike_types":{"4":2},"place_type":"0","rack_locks":"1"},{"uid":"2585735","lat":"52.2229427","lng":"21.0158211","name":"Plac Konstytucji","spot":"1","number":"9543","bikes":"9","bike_racks":"30","free_racks":"20","terminal_type":"7inch","bike_numbers":"28341,27611,27497,27229,26177,25244,25226,28934,29140","bike_types":{"4":8,"0":1},"place_type":"0","rack_locks":"1"},{"uid":"2585737","lat":"52.2238152","lng":"21.0207859","name":"Mokotowska - Pi\u0119kna","spot":"1","number":"9544","bikes":"14","bike_racks":"22","free_racks":"9","terminal_type":"7inch","bike_numbers":"24597,28395,27988,27753,27673,27488,27455,27203,27040,26506,25584,29101,96297,29236","bike_types":{"4":14},"place_type":"0","rack_locks":"1"},{"uid":"2585738","lat":"52.2200212","lng":"21.0256299","name":"Plac na Rozdro\u017cu","spot":"1","number":"9545","bikes":"1","bike_racks":"26","free_racks":"24","terminal_type":"7inch","bike_numbers":"63623","bike_types":{"4":1},"place_type":"0","rack_locks":"1"},{"uid":"2585742","lat":"52.2249504","lng":"21.0268155","name":"Matejki - Wiejska","spot":"1","number":"9546","bikes":"7","bike_racks":"20","free_racks":"13","terminal_type":"7inch","bike_numbers":"24951,28317,27061,26678,28913,96017,96500","bike_types":{"4":7},"place_type":"0","rack_locks":"1"},{"uid":"2585747","lat":"52.2221129","lng":"21.0343873","name":"My\u015bliwiecka - Rozbrat","spot":"1","number":"9547","bikes":"21","bike_racks":"21","free_racks":"1","terminal_type":"7inch","bike_numbers":"24809,24758,24590,24541,28544,28468,28448,27973,27693,27658,26879,26734,26325,25928,25771,25721,25452,25384,96433,96280,29206","bike_types":{"4":21},"place_type":"0","rack_locks":"1"},{"uid":"2585748","lat":"52.2277124","lng":"21.0442955","name":"Port Czerniakowski","spot":"1","number":"9548","bikes":"33","bike_racks":"30","free_racks":"0","terminal_type":"7inch","bike_numbers":"24754,24637,24620,24584,24509,24491,24455,28411,28304,28103,28054,27830,27460,27451,27319,27038,26657,26248,26178,26096,25934,25785,25732,25363,25126,25083,29647,28849,96494,96375,29153,29201,96588","bike_types":{"4":31,"51":2},"place_type":"0","rack_locks":"1"},{"uid":"2585749","lat":"52.2109711","lng":"20.9759125","name":"Gr\u00f3jecka - Bitwy Warszawskiej 1920 roku","spot":"1","number":"9549","bikes":"18","bike_racks":"20","free_racks":"2","terminal_type":"7inch","bike_numbers":"28550,28350,27812,27540,27415,27406,27250,26711,26515,26105,26073,25653,25324,25311,25283,28936,28852,96305","bike_types":{"4":18},"place_type":"0","rack_locks":"1"},{"uid":"2585750","lat":"52.2130296","lng":"20.9819985","name":"Pasteura - Winnicka - UW","spot":"1","number":"9550","bikes":"9","bike_racks":"24","free_racks":"16","terminal_type":"7inch","bike_numbers":"24780,24546,25002,27867,27268,26810,26092,28915,96217","bike_types":{"4":9},"place_type":"0","rack_locks":"1"},{"uid":"2585762","lat":"52.2107722","lng":"20.9847557","name":"Stefana Banacha - UW","spot":"1","number":"9551","bikes":"2","bike_racks":"29","free_racks":"27","terminal_type":"7inch","bike_numbers":"28271,25437","bike_types":{"4":2},"place_type":"0","rack_locks":"1"},{"uid":"2585764","lat":"52.212671","lng":"21.003437","name":"Biblioteka Narodowa","spot":"1","number":"9552","bikes":"0","bike_racks":"24","free_racks":"22","terminal_type":"7inch","bike_numbers":null,"bike_types":{"4":1},"place_type":"0","rack_locks":"1"},{"uid":"2585766","lat":"52.21691","lng":"21.01997","name":"Marsza\u0142kowska - Litewska","spot":"1","number":"9553","bikes":"0","bike_racks":"15","free_racks":"13","terminal_type":"7inch","place_type":"0","rack_locks":"1","bike_numbers":null,"bike_types":[]},{"uid":"2585770","lat":"52.2083858","lng":"20.9631103","name":"P\u0119tla Szcz\u0119\u015bliwice ","spot":"1","number":"9554","bikes":"9","bike_racks":"19","free_racks":"10","terminal_type":"7inch","bike_numbers":"24818,24044,28887,28882,28419,27810,27075,26068,96449","bike_types":{"4":8,"26":1},"place_type":"0","rack_locks":"1"},{"uid":"2585771","lat":"52.206153650625","lng":"20.970287919044","name":"Dickensa - Geodet\u00f3w","spot":"1","number":"9555","bikes":"8","bike_racks":"16","free_racks":"8","terminal_type":"7inch","bike_numbers":"24713,28112,27440,26983,26010,25256,28943,96214","bike_types":{"4":8},"place_type":"0","rack_locks":"1"},{"uid":"2585772","lat":"52.205361371875","lng":"20.984664559364","name":"\u017bwirki i Wigury - Ksi\u0119cia Trojdena","spot":"1","number":"9556","bikes":"1","bike_racks":"17","free_racks":"17","terminal_type":"7inch","bike_numbers":"28428","bike_types":{"4":1},"place_type":"0","rack_locks":"1"},{"uid":"2585774","lat":"52.205801893754","lng":"20.998928546906","name":"Rakowiecka - \u015aw. A. Boboli","spot":"1","number":"9557","bikes":"10","bike_racks":"17","free_racks":"7","terminal_type":"7inch","bike_numbers":"28052,27104,26710,25911,25493,25343,25315,29143,96059,96303","bike_types":{"4":8,"0":1},"place_type":"0","rack_locks":"1"},{"uid":"2585776","lat":"52.209916","lng":"21.0067794","name":"al. Niepodleg\u0142o\u015bci - Batorego","spot":"1","number":"9558","bikes":"38","bike_racks":"26","free_racks":"0","terminal_type":"7inch","bike_numbers":"24999,24995,24927,24581,24474,28677,28620,28576,28533,28352,28253,28208,28122,27949,27293,27279,27128,27008,26980,26886,26780,26749,26570,26497,26309,26179,26070,25996,25962,25901,25760,25559,28971,96052,63603,96463,96320,29156","bike_types":{"4":37,"51":1},"place_type":"0","rack_locks":"1"},{"uid":"2585779","lat":"52.2132375","lng":"21.0210568","name":"Plac Unii Lubelskiej","spot":"1","number":"9559","bikes":"1","bike_racks":"24","free_racks":"22","terminal_type":"7inch","bike_numbers":"29198","bike_types":{"4":1},"place_type":"0","rack_locks":"1"},{"uid":"2585781","lat":"52.2027557","lng":"20.9508951","name":"W\u0142odarzewska - Maszynowa","spot":"1","number":"9560","bikes":"10","bike_racks":"18","free_racks":"8","terminal_type":"7inch","bike_numbers":"28438,28379,27189,27042,26062,25158,25067,28986,96370,96344","bike_types":{"4":10},"place_type":"0","rack_locks":"1"},{"uid":"2585782","lat":"52.2017647","lng":"20.9820897","name":"Sanocka - Pruszkowska","spot":"1","number":"9561","bikes":"7","bike_racks":"15","free_racks":"5","terminal_type":"7inch","bike_numbers":"28650,27865,27363,27355,26371,26159,25699","bike_types":{"4":7},"place_type":"0","rack_locks":"1"},{"uid":"2585785","lat":"52.1981365","lng":"20.9833717","name":"\u017bwirki i Wigury - Rac\u0142awicka","spot":"1","number":"9562","bikes":"7","bike_racks":"18","free_racks":"11","terminal_type":"7inch","bike_numbers":"24476,28409,28322,27851,26559,25758,29244","bike_types":{"51":1,"4":6},"place_type":"0","rack_locks":"1"},{"uid":"2585787","lat":"52.20177","lng":"20.99969","name":"Wo\u0142oska - Kulskiego","spot":"1","number":"9563","bikes":"3","bike_racks":"15","free_racks":"3","terminal_type":"7inch","bike_numbers":"24914,25444,96426","bike_types":{"4":3},"place_type":"0","rack_locks":"1"},{"uid":"2585788","lat":"52.2042638","lng":"21.014428","name":"Madali\u0144skiego - Kazimierzowska","spot":"1","number":"9564","bikes":"8","bike_racks":"24","free_racks":"15","terminal_type":"7inch","bike_numbers":"28734,28547,28504,28450,27564,26836,26266,25966","bike_types":{"4":8},"place_type":"0","rack_locks":"1"},{"uid":"2585789","lat":"52.2055175","lng":"21.0231033","name":"Pu\u0142awska - Dworkowa","spot":"1","number":"9565","bikes":"2","bike_racks":"19","free_racks":"15","terminal_type":"7inch","bike_numbers":"28588,26020","bike_types":{"4":2},"place_type":"0","rack_locks":"1"},{"uid":"2585790","lat":"52.2071756","lng":"21.0312643","name":"Belwederska - Gagarina","spot":"1","number":"9566","bikes":"38","bike_racks":"30","free_racks":"0","terminal_type":"7inch","bike_numbers":"24732,24660,24582,24516,24479,28822,28731,28702,28644,28635,28435,28366,28307,28252,28143,27745,27612,27368,27071,26621,26463,26334,26226,26074,25727,25482,25245,29346,29644,28855,96501,96488,96383,96341,96316,96306,96301,96175","bike_types":{"4":37,"51":1},"place_type":"0","rack_locks":"1"},{"uid":"2585791","lat":"52.2074193","lng":"21.0479621","name":"Czerniakowska - Gagarina","spot":"1","number":"9567","bikes":"35","bike_racks":"25","free_racks":"0","terminal_type":"7inch","bike_numbers":"24938,24697,24681,24502,24489,28752,28631,28333,28278,28110,28046,27940,27853,27418,27305,27133,26802,26501,26249,25592,25407,25346,25319,25273,25215,29349,29116,29010,96484,96430,96418,96212,96174,29231,24054","bike_types":{"4":33,"51":1,"26":1},"place_type":"0","rack_locks":"1"},{"uid":"2585794","lat":"52.1938131","lng":"20.9914431","name":"Etiudy Rewolucyjnej - Mi\u0105czy\u0144ska","spot":"1","number":"9568","bikes":"9","bike_racks":"18","free_racks":"8","terminal_type":"7inch","bike_numbers":"24586,28707,28389,28026,27425,26377,25888,25404,29046","bike_types":{"4":9},"place_type":"0","rack_locks":"1"},{"uid":"2585799","lat":"52.1994156","lng":"21.0121384","name":"Metro Rac\u0142awicka","spot":"1","number":"9570","bikes":"14","bike_racks":"30","free_racks":"15","terminal_type":"7inch","bike_numbers":"28692,28397,27384,27143,26766,26660,26392,25936,25893,25881,25084,60831,63620,96556","bike_types":{"4":14},"place_type":"0","rack_locks":"1"},{"uid":"2585800","lat":"52.199505","lng":"21.0240975","name":"Pu\u0142awska - Dolna","spot":"1","number":"9571","bikes":"14","bike_racks":"18","free_racks":"0","terminal_type":"7inch","bike_numbers":"24668,24612,28584,28575,28461,28135,28092,27935,26561,26400,25860,25679,25038,28946","bike_types":{"4":14},"place_type":"0","rack_locks":"1"},{"uid":"2585802","lat":"52.2014754","lng":"21.0360047","name":"Sobieskiego - Che\u0142mska","spot":"1","number":"9572","bikes":"20","bike_racks":"15","free_racks":"1","terminal_type":"7inch","bike_numbers":"28412,28410,28126,27992,27884,27739,27716,27548,27241,26522,26479,26450,26350,26126,25392,25172,25627,28974,96234,96225","bike_types":{"4":20},"place_type":"0","rack_locks":"1"},{"uid":"2585804","lat":"52.1998446","lng":"21.05095","name":"Czerniakowska - ZUS","spot":"1","number":"9573","bikes":"12","bike_racks":"15","free_racks":"0","terminal_type":"7inch","bike_numbers":"24903,28623,28152,27100,26811,26705,26211,26076,25937,25729,96404,29276","bike_types":{"4":12},"place_type":"0","rack_locks":"1"},{"uid":"2585807","lat":"52.1916776","lng":"20.8689688","name":"PKP Ursus-Nied\u017awiadek","spot":"1","number":"9574","bikes":"11","bike_racks":"15","free_racks":"4","terminal_type":"7inch","bike_numbers":"27659,27438,26954,26797,26172,26006,25840,25768,25161,29459,96398","bike_types":{"4":11},"place_type":"0","rack_locks":"1"},{"uid":"2585808","lat":"52.1960469","lng":"20.8849347","name":"PKP Ursus","spot":"1","number":"9575","bikes":"8","bike_racks":"16","free_racks":"7","terminal_type":"7inch","bike_numbers":"28287,26976,26143,25826,25599,25380,96345,29262","bike_types":{"4":8},"place_type":"0","rack_locks":"1"},{"uid":"2585809","lat":"52.1869936","lng":"20.8906478","name":"Sosnkowskiego - OSiR Ursus","spot":"1","number":"9576","bikes":"10","bike_racks":"15","free_racks":"5","terminal_type":"7inch","bike_numbers":"28747,28460,27614,27388,26362,25500,29106,96048,96007,96363","bike_types":{"4":10},"place_type":"0","rack_locks":"1"},{"uid":"2585811","lat":"52.2005548","lng":"20.8937538","name":"Ursus-Ratusz","spot":"1","number":"9577","bikes":"8","bike_racks":"15","free_racks":"6","terminal_type":"7inch","bike_numbers":"24748,24744,28083,27720,26876,26258,96254,96187","bike_types":{"4":8},"place_type":"0","rack_locks":"1"},{"uid":"2585814","lat":"52.1906376","lng":"20.8999443","name":"Skoroszewska - Prystora","spot":"1","number":"9578","bikes":"6","bike_racks":"17","free_racks":"11","terminal_type":"7inch","bike_numbers":"24462,25340,29095,96049,96340,96251","bike_types":{"51":1,"4":5},"place_type":"0","rack_locks":"1"},{"uid":"2585817","lat":"52.1882609","lng":"20.9603771","name":"G\u0142adka - OSiR W\u0142ochy","spot":"1","number":"9579","bikes":"8","bike_racks":"16","free_racks":"8","terminal_type":"7inch","bike_numbers":"24847,28538,27269,26652,26241,25895,96060,96323","bike_types":{"4":8},"place_type":"0","rack_locks":"1"},{"uid":"2585820","lat":"52.2056441","lng":"20.9159142","name":"PKP W\u0142ochy","spot":"1","number":"9580","bikes":"6","bike_racks":"17","free_racks":"10","terminal_type":"7inch","bike_numbers":"28444,27855,26553,26455,25856,25517","bike_types":{"4":5},"place_type":"0","rack_locks":"1"},{"uid":"2585821","lat":"52.2012157","lng":"20.9353145","name":"al. Jerozolimskie - Popularna","spot":"1","number":"9581","bikes":"6","bike_racks":"19","free_racks":"14","terminal_type":"7inch","bike_numbers":"24030,28454,27837,25387,28952,29278","bike_types":{"26":1,"4":5},"place_type":"0","rack_locks":"1"},{"uid":"2585824","lat":"52.1924709","lng":"20.9596664","name":"W\u0142ochy-Ratusz","spot":"1","number":"9582","bikes":"6","bike_racks":"15","free_racks":"7","terminal_type":"7inch","bike_numbers":"24887,26769,26451,25853,25801,28939","bike_types":{"4":7},"place_type":"0","rack_locks":"1"},{"uid":"2585825","lat":"52.1946888","lng":"20.9667823","name":"1 Sierpnia - DK W\u0142ochy","spot":"1","number":"9583","bikes":"15","bike_racks":"15","free_racks":"1","terminal_type":"7inch","bike_numbers":"28551,28548,28331,28194,27939,27718,27461,26388,26069,25924,25442,25258,25232,29452,96491","bike_types":{"4":15},"place_type":"0","rack_locks":"1"},{"uid":"2585827","lat":"52.1888962","lng":"21.0175887","name":"Metro Wierzbno","spot":"1","number":"9584","bikes":"19","bike_racks":"20","free_racks":"0","terminal_type":"7inch","bike_numbers":"24605,28744,28510,28384,28217,27786,27361,27174,27117,26985,26961,26936,26713,26672,26198,25242,25105,96255,29179","bike_types":{"4":19},"place_type":"0","rack_locks":"1"},{"uid":"2585830","lat":"52.18648","lng":"21.02538","name":"Pu\u0142awska - Idzikowskiego","spot":"1","number":"9585","bikes":"1","bike_racks":"17","free_racks":"15","terminal_type":"7inch","bike_numbers":"24827","bike_types":{"4":1},"place_type":"0","rack_locks":"1"},{"uid":"2585835","lat":"52.1882861","lng":"21.0498825","name":"Sobieskiego - Mangalia","spot":"1","number":"9586","bikes":"15","bike_racks":"15","free_racks":"0","terminal_type":"7inch","bike_numbers":"24553,24522,28599,28509,28346,28315,28047,27599,27448,26719,25510,25029,96385,96300,29162","bike_types":{"4":16},"place_type":"0","rack_locks":"1"},{"uid":"2585837","lat":"52.178777","lng":"21.0016387","name":"Wo\u0142oska - Marynarska","spot":"1","number":"9588","bikes":"0","bike_racks":"26","free_racks":"26","terminal_type":"7inch","place_type":"0","rack_locks":"1","bike_numbers":null,"bike_types":[]},{"uid":"2585838","lat":"52.1800882","lng":"21.0207403","name":"al. Niepodleg\u0142o\u015bci - al. Wilanowska","spot":"1","number":"9589","bikes":"9","bike_racks":"22","free_racks":"13","terminal_type":"7inch","bike_numbers":"24661,28530,27938,27084,26784,26437,26279,25914,63615","bike_types":{"4":9},"place_type":"0","rack_locks":"1"},{"uid":"2585839","lat":"52.1779163","lng":"21.049562","name":"P\u0119tla Stegny","spot":"1","number":"9590","bikes":"30","bike_racks":"23","free_racks":"0","terminal_type":"7inch","bike_numbers":"24853,28476,27859,27832,27563,27482,27266,26982,26712,25932,25873,25761,25595,25556,25412,25169,25152,25100,25012,29003,60863,28833,28877,96465,96424,96413,96342,96299,96245,29208","bike_types":{"4":30},"place_type":"0","rack_locks":"1"},{"uid":"2585843","lat":"52.1818472","lng":"21.0562822","name":"Sobieskiego - \u015bw. Bonifacego","spot":"1","number":"9591","bikes":"14","bike_racks":"22","free_racks":"0","terminal_type":"7inch","bike_numbers":"24463,27154,27039,26858,26496,26037,25865,25756,25178,25174,25015,28977,96043,96205","bike_types":{"51":1,"4":13},"place_type":"0","rack_locks":"1"},{"uid":"2585844","lat":"52.1702836","lng":"20.9959132","name":"P\u0119tla Bokserska","spot":"1","number":"9592","bikes":"3","bike_racks":"15","free_racks":"12","terminal_type":"7inch","bike_numbers":"25522,25465,28811","bike_types":{"4":3},"place_type":"0","rack_locks":"1"},{"uid":"2585846","lat":"52.1710498","lng":"21.0059144","name":"Gintrowskiego - Gotarda","spot":"1","number":"9593","bikes":"16","bike_racks":"15","free_racks":"0","terminal_type":"7inch","bike_numbers":"24518,24459,24031,28818,28377,28264,28012,27236,27015,26219,25585,25371,25295,96474,96355,96135","bike_types":{"4":16,"51":1,"26":1},"place_type":"0","rack_locks":"1"},{"uid":"2585848","lat":"52.174435","lng":"21.0128814","name":"al. Lotnik\u00f3w - Kaczmarskiego","spot":"1","number":"9594","bikes":"24","bike_racks":"30","free_racks":"3","terminal_type":"7inch","bike_numbers":"24691,24629,24481,24033,28639,28582,27789,27208,26752,26599,26567,26364,25992,25686,25683,25377,25144,28879,28987,96006,96004,96478,96428,96378","bike_types":{"4":23,"51":1,"26":1},"place_type":"0","rack_locks":"1"},{"uid":"2585850","lat":"52.1733132","lng":"21.0257305","name":"Metro S\u0142u\u017cew","spot":"1","number":"9595","bikes":"3","bike_racks":"24","free_racks":"18","terminal_type":"7inch","bike_numbers":"27333,96352,96145","bike_types":{"4":3},"place_type":"0","rack_locks":"1"},{"uid":"2585853","lat":"52.17343","lng":"21.03179","name":"Wa\u0142brzyska - Wr\u00f3bla","spot":"1","number":"9596","bikes":"2","bike_racks":"30","free_racks":"27","terminal_type":"7inch","bike_numbers":"25423,29339","bike_types":{"4":2},"place_type":"0","rack_locks":"1"},{"uid":"2585856","lat":"52.170135","lng":"21.0685748","name":"Jana III Sobieskiego - al. Wilanowska","spot":"1","number":"9597","bikes":"9","bike_racks":"15","free_racks":"2","terminal_type":"7inch","bike_numbers":"28439,28045,27970,27780,27227,26960,25476,28805,28868","bike_types":{"4":9},"place_type":"0","rack_locks":"1"},{"uid":"2585860","lat":"52.1655879","lng":"21.0839331","name":"al. Wilanowska - Przycz\u00f3\u0142kowa","spot":"1","number":"9598","bikes":"9","bike_racks":"16","free_racks":"11","terminal_type":"7inch","bike_numbers":"24640,27925,26966,26420,26245,25754,25111,29136,28826","bike_types":{"4":8,"0":1},"place_type":"0","rack_locks":"1"},{"uid":"2585863","lat":"52.16479","lng":"21.10925","name":"Vogla - Syta","spot":"1","number":"9599","bikes":"13","bike_racks":"16","free_racks":"2","terminal_type":"7inch","bike_numbers":"24778,27993,27781,26637,26434,26180,26011,25910,25816,25664,25287,28999,96325","bike_types":{"4":13},"place_type":"0","rack_locks":"1"},{"uid":"2585868","lat":"52.1606257","lng":"21.0723245","name":"al. Rzeczypospolitej - Klimczaka","spot":"1","number":"9600","bikes":"26","bike_racks":"16","free_racks":"0","terminal_type":"7inch","bike_numbers":"24976,24873,24764,24709,24670,24611,28817,28675,28303,28048,27903,27702,27419,27096,26345,26114,25725,25410,25050,25025,29144,96358,96333,96307,96256,29158","bike_types":{"4":25,"0":1},"place_type":"0","rack_locks":"1"},{"uid":"2585871","lat":"52.1569168","lng":"21.0760903","name":"al. Rzeczypospolitej - Branickiego","spot":"1","number":"9601","bikes":"14","bike_racks":"16","free_racks":"2","terminal_type":"7inch","bike_numbers":"24747,24646,24610,24591,28660,28490,28256,26458,26057,25418,25320,29092,28906,63605","bike_types":{"4":14},"place_type":"0","rack_locks":"1"},{"uid":"2585872","lat":"52.1593735","lng":"21.086449","name":"Przycz\u00f3\u0142kowa - Branickiego","spot":"1","number":"9602","bikes":"6","bike_racks":"16","free_racks":"11","terminal_type":"7inch","bike_numbers":"24762,28464,27842,25431,96513,96216","bike_types":{"4":6},"place_type":"0","rack_locks":"1"},{"uid":"2585873","lat":"52.1618136","lng":"21.0277355","name":"Metro Ursyn\u00f3w II","spot":"1","number":"9603","bikes":"10","bike_racks":"30","free_racks":"20","terminal_type":"7inch","bike_numbers":"24946,28756,28626,27631,26883,26507,25978,25814,60842,28829","bike_types":{"4":10},"place_type":"0","rack_locks":"1"},{"uid":"2585875","lat":"52.1622579","lng":"21.0280761","name":"Metro Ursyn\u00f3w I","spot":"1","number":"9604","bikes":"20","bike_racks":"30","free_racks":"10","terminal_type":"7inch","bike_numbers":"24888,24878,24850,24604,28301,27953,27909,27027,26454,26323,26195,25401,25365,25133,25109,25049,96554,96512,96437,96088","bike_types":{"4":20},"place_type":"0","rack_locks":"1"},{"uid":"2585876","lat":"52.162401","lng":"21.0383811","name":"Jastrz\u0119bowskiego - SGGW","spot":"1","number":"9605","bikes":"1","bike_racks":"28","free_racks":"26","terminal_type":"7inch","place_type":"0","rack_locks":"1","bike_numbers":"27957","bike_types":[]},{"uid":"2585880","lat":"52.1557534","lng":"21.0232776","name":"Romera - Pieciolinii","spot":"1","number":"9606","bikes":"24","bike_racks":"16","free_racks":"0","terminal_type":"7inch","bike_numbers":"24828,24619,25003,28630,28360,28326,28015,27622,27591,27240,27159,26878,26426,26205,25581,25560,25557,25117,29096,29035,63618,63606,96541,96289","bike_types":{"4":23},"place_type":"0","rack_locks":"1"},{"uid":"2585883","lat":"52.1568674","lng":"21.0338401","name":"Metro Stok\u0142osy","spot":"1","number":"9607","bikes":"22","bike_racks":"27","free_racks":"4","terminal_type":"7inch","bike_numbers":"24915,24705,24701,24617,24524,28086,27519,27506,26965,26912,26905,26739,26605,26411,26306,26008,25964,25223,29554,96293,96218,29170","bike_types":{"4":22},"place_type":"0","rack_locks":"1"},{"uid":"2585885","lat":"52.1572887","lng":"21.0440084","name":"Roso\u0142a - Ciszewskiego - SGGW","spot":"1","number":"9608","bikes":"16","bike_racks":"30","free_racks":"14","terminal_type":"7inch","bike_numbers":"28821,28700,28400,28136,27760,27139,27025,27011,26944,26146,25394,28881,63614,96226,96164,29194","bike_types":{"4":16},"place_type":"0","rack_locks":"1"},{"uid":"2585888","lat":"52.1521429","lng":"21.0181224","name":"Pu\u0142awska - Pileckiego","spot":"1","number":"9609","bikes":"4","bike_racks":"22","free_racks":"16","terminal_type":"7inch","bike_numbers":"24021,24015,26405,25757","bike_types":{"26":2,"4":2},"place_type":"0","rack_locks":"1"},{"uid":"2585893","lat":"52.1495064","lng":"21.0332527","name":"Ciszewskiego - Pileckiego","spot":"1","number":"9610","bikes":"7","bike_racks":"22","free_racks":"13","terminal_type":"7inch","bike_numbers":"24942,28557,27524,26487,29053,28836,29268","bike_types":{"4":5},"place_type":"0","rack_locks":"1"},{"uid":"2585894","lat":"52.1549453","lng":"21.0492977","name":"Roso\u0142a - Gandhi","spot":"1","number":"9611","bikes":"6","bike_racks":"22","free_racks":"16","terminal_type":"7inch","bike_numbers":"27141,26616,26207,25706,96544,96395","bike_types":{"4":6},"place_type":"0","rack_locks":"1"},{"uid":"2585897","lat":"52.1493105","lng":"21.0453361","name":"Metro Imielin","spot":"1","number":"9612","bikes":"26","bike_racks":"22","free_racks":"0","terminal_type":"7inch","bike_numbers":"24997,24892,24696,28272,27831,27655,27637,27205,26716,26557,26468,26376,26341,26246,26176,25923,25602,25575,25462,25104,25045,29098,60836,29141,63629,96579","bike_types":{"4":25,"0":1},"place_type":"0","rack_locks":"1"},{"uid":"2585899","lat":"52.1522333","lng":"21.0563922","name":"Roso\u0142a - Weso\u0142a","spot":"1","number":"9613","bikes":"2","bike_racks":"23","free_racks":"19","terminal_type":"7inch","bike_numbers":"27498,25548","bike_types":{"4":2},"place_type":"0","rack_locks":"1"},{"uid":"2585901","lat":"52.1427201","lng":"21.0383624","name":"Pileckiego - Alternatywy","spot":"1","number":"9614","bikes":"8","bike_racks":"30","free_racks":"22","terminal_type":"7inch","bike_numbers":"24575,24001,28434,27032,26428,25020,29361,25628","bike_types":{"4":7,"26":1},"place_type":"0","rack_locks":"1"},{"uid":"2585902","lat":"52.142735","lng":"21.0448131","name":"Dereniowa - P\u0142askowickiej","spot":"1","number":"9615","bikes":"9","bike_racks":"22","free_racks":"13","terminal_type":"7inch","bike_numbers":"24543,28215,27793,27103,26898,26609,25899,28809,63628","bike_types":{"4":9},"place_type":"0","rack_locks":"1"},{"uid":"2585904","lat":"52.1376039","lng":"21.0505531","name":"Stryje\u0144skich - Belgradzka","spot":"1","number":"9616","bikes":"7","bike_racks":"15","free_racks":"8","terminal_type":"7inch","bike_numbers":"24017,28689,27913,27207,27056,25927,28870","bike_types":{"26":1,"4":6},"place_type":"0","rack_locks":"1"},{"uid":"2585905","lat":"52.1403909","lng":"21.0568187","name":"Metro Natolin","spot":"1","number":"9617","bikes":"23","bike_racks":"30","free_racks":"11","terminal_type":"7inch","bike_numbers":"24909,24712,24038,28069,27981,26928,26818,26288,25832,25737,25553,25491,25490,25310,25054,28800,96567,96525,96399,96304,96231,96144,29150","bike_types":{"4":22,"26":1},"place_type":"0","rack_locks":"1"},{"uid":"2585906","lat":"52.1420749","lng":"21.0659905","name":"Belgradzka - Roso\u0142a","spot":"1","number":"9618","bikes":"19","bike_racks":"23","free_racks":"2","terminal_type":"7inch","bike_numbers":"24985,25007,28696,27880,27829,27407,27223,26584,26512,25892,25728,25646,29342,60867,96243,96241,96184,96141,29258","bike_types":{"4":20},"place_type":"0","rack_locks":"1"},{"uid":"2585908","lat":"52.1314333","lng":"21.0561562","name":"Stryje\u0144skich - W\u0105wozowa","spot":"1","number":"9619","bikes":"22","bike_racks":"23","free_racks":"1","terminal_type":"7inch","bike_numbers":"24973,24803,24554,28383,28068,28027,27613,27525,27485,27308,27299,27135,26612,26499,26075,25648,25269,60855,96561,96444,96140,29210","bike_types":{"4":22},"place_type":"0","rack_locks":"1"},{"uid":"2585911","lat":"52.3326052","lng":"20.9418404","name":"Ordon\u00f3wny - \u015awiatowida","spot":"1","number":"9620","bikes":"16","bike_racks":"22","free_racks":"10","terminal_type":"7inch","bike_numbers":"27982,27847,27806,27787,27721,27529,27514,27486,27176,26651,26620,25608,29077,28938,28966,96257","bike_types":{"4":16},"place_type":"0","rack_locks":"1"},{"uid":"2585913","lat":"52.1310925","lng":"21.0654795","name":"Metro Kabaty","spot":"1","number":"9621","bikes":"16","bike_racks":"22","free_racks":"5","terminal_type":"7inch","bike_numbers":"24960,24632,24625,28361,28316,27804,27578,26569,26407,26036,25898,25519,25467,60828,60815,96037","bike_types":{"4":16},"place_type":"0","rack_locks":"1"},{"uid":"2585916","lat":"52.1332642","lng":"21.0747962","name":"W\u0105wozowa - Roso\u0142a","spot":"1","number":"9622","bikes":"14","bike_racks":"18","free_racks":"4","terminal_type":"7inch","bike_numbers":"24866,28298,28294,28260,28251,27975,26149,26098,26001,25955,25917,25703,28997,96040","bike_types":{"4":14},"place_type":"0","rack_locks":"1"},{"uid":"2585917","lat":"52.324116","lng":"21.05663","name":"Skarbka z G\u00f3r - Berensona","spot":"1","number":"9623","bikes":"9","bike_racks":"26","free_racks":"16","terminal_type":"7inch","bike_numbers":"28657,28526,28277,27882,26413,26259,26142,96431,96204","bike_types":{"4":9},"place_type":"0","rack_locks":"1"},{"uid":"2585919","lat":"52.3485329","lng":"20.9418336","name":"Aluzyjna - Tr\u0105by","spot":"1","number":"9624","bikes":"6","bike_racks":"16","free_racks":"10","terminal_type":"7inch","bike_numbers":"24896,24854,27158,26655,96401,96317","bike_types":{"4":6},"place_type":"0","rack_locks":"1"},{"uid":"2585920","lat":"52.3226982","lng":"20.9448107","name":"\u015awiatowida - Mehoffera","spot":"1","number":"9625","bikes":"13","bike_racks":"16","free_racks":"2","terminal_type":"7inch","bike_numbers":"24882,24859,28652,27895,26986,26575,26408,26338,26030,28950,28850,96005,96531","bike_types":{"4":13},"place_type":"0","rack_locks":"1"},{"uid":"2585921","lat":"52.3212548","lng":"20.9477347","name":"Bia\u0142o\u0142\u0119cki O\u015brodek Sportu","spot":"1","number":"9626","bikes":"20","bike_racks":"30","free_racks":"10","terminal_type":"7inch","bike_numbers":"24993,24886,28749,28642,28431,27833,27664,27327,26941,26893,26667,26265,25900,25859,25480,29105,28864,96010,96516,96137","bike_types":{"4":20},"place_type":"0","rack_locks":"1"},{"uid":"2585922","lat":"52.3211272","lng":"20.9712964","name":"Bia\u0142o\u0142\u0119ka-Ratusz","spot":"1","number":"9627","bikes":"16","bike_racks":"19","free_racks":"3","terminal_type":"7inch","bike_numbers":"28154,27986,27219,27172,27165,26953,26915,26834,26735,26623,26472,26263,25905,25609,96434,96138","bike_types":{"4":16},"place_type":"0","rack_locks":"1"},{"uid":"2585924","lat":"52.3132981","lng":"20.9655324","name":"My\u015bliborska - al. Kukli\u0144skiego","spot":"1","number":"9628","bikes":"11","bike_racks":"22","free_racks":"12","terminal_type":"7inch","bike_numbers":"24486,24470,28404,28390,27912,27004,26210,26018,29023,28995,96185","bike_types":{"51":2,"4":9},"place_type":"0","rack_locks":"1"},{"uid":"2585925","lat":"52.3031984","lng":"20.9891666","name":"Modli\u0144ska - \u017bera\u0144ska","spot":"1","number":"9629","bikes":"26","bike_racks":"30","free_racks":"4","terminal_type":"7inch","bike_numbers":"24918,24743,24622,28590,28195,28127,27868,27284,27108,26763,26760,26738,26692,26489,26269,26236,26033,25738,25528,25479,25408,29135,29133,96263,96247,96094","bike_types":{"4":24,"0":2},"place_type":"0","rack_locks":"1"},{"uid":"2585926","lat":"52.3150181","lng":"21.0610807","name":"Skarbka z G\u00f3r - Magiczna","spot":"1","number":"9630","bikes":"19","bike_racks":"30","free_racks":"11","terminal_type":"7inch","bike_numbers":"24562,28745,28645,28583,28456,27870,27626,27487,27321,26815,26757,26707,26669,26641,26346,25376,25071,28878,28994","bike_types":{"4":19},"place_type":"0","rack_locks":"1"},{"uid":"2585928","lat":"52.3000268","lng":"21.0425266","name":"P\u0119tla Br\u00f3dno - Podgrodzie","spot":"1","number":"9631","bikes":"6","bike_racks":"20","free_racks":"12","terminal_type":"7inch","bike_numbers":"28610,27916,27354,27300,26281,26086","bike_types":{"4":6},"place_type":"0","rack_locks":"1"},{"uid":"2585929","lat":"52.2939957","lng":"21.0272258","name":"Rembieli\u0144ska - Kondratowicza","spot":"1","number":"9632","bikes":"9","bike_racks":"23","free_racks":"14","terminal_type":"7inch","bike_numbers":"28607,27908,27663,27378,27020,25938,96376,96369,96132","bike_types":{"4":9},"place_type":"0","rack_locks":"1"},{"uid":"2585931","lat":"52.2917236","lng":"21.0481189","name":"Targ\u00f3wek-Ratusz","spot":"1","number":"9633","bikes":"14","bike_racks":"28","free_racks":"13","terminal_type":"7inch","bike_numbers":"24813,28686,28617,27871,27729,27681,27022,26264,25040,29019,28992,29127,96193,96103","bike_types":{"4":13,"0":1},"place_type":"0","rack_locks":"1"},{"uid":"2585932","lat":"52.292208","lng":"21.0419554","name":"Kondratowicza - Chodecka","spot":"1","number":"9634","bikes":"21","bike_racks":"23","free_racks":"2","terminal_type":"7inch","bike_numbers":"24956,28595,28505,28153,28073,28001,27697,27282,27077,26958,26457,26153,26054,25985,25916,25285,29090,29084,29047,96482,96353","bike_types":{"4":21},"place_type":"0","rack_locks":"1"},{"uid":"2585934","lat":"52.2925145","lng":"21.0573949","name":"Kondratowicza - Przy Grodzisku","spot":"1","number":"9635","bikes":"16","bike_racks":"18","free_racks":"1","terminal_type":"7inch","bike_numbers":"24987,24790,28627,27616,27357,27124,26718,26290,26152,26103,25263,29040,96020,96224,96119,96078","bike_types":{"4":16},"place_type":"0","rack_locks":"1"},{"uid":"2585936","lat":"52.2878069","lng":"21.0213829","name":"Wysockiego - Poborza\u0144ska","spot":"1","number":"9636","bikes":"17","bike_racks":"23","free_racks":"6","terminal_type":"7inch","bike_numbers":"28496,27918,27835,27288,26979,26453,26335,26151,25470,25170,28935,25625,28969,96407,96392,29161,29222","bike_types":{"4":17},"place_type":"0","rack_locks":"1"},{"uid":"2585937","lat":"52.2885915","lng":"21.0310087","name":"Rembieli\u0144ska - Wyszogrodzka","spot":"1","number":"9637","bikes":"18","bike_racks":"30","free_racks":"12","terminal_type":"7inch","bike_numbers":"24565,24484,28772,28671,28606,28137,28120,27960,27740,27725,26685,26125,25483,25075,29359,96497,96148,29203","bike_types":{"4":17,"51":1},"place_type":"0","rack_locks":"1"},{"uid":"2585938","lat":"52.2864841","lng":"21.0401998","name":"Chodecka - \u017buromi\u0144ska","spot":"1","number":"9638","bikes":"13","bike_racks":"15","free_racks":"0","terminal_type":"7inch","bike_numbers":"24898,28736,27360,27220,27051,26841,25243,29039,29146,96538,96259,96182,29209","bike_types":{"4":12,"0":1},"place_type":"0","rack_locks":"1"},{"uid":"2585939","lat":"52.281231017533","lng":"21.025852560997","name":"Wysockiego - Matki Teresy z Kalkuty","spot":"1","number":"9639","bikes":"9","bike_racks":"17","free_racks":"8","terminal_type":"7inch","bike_numbers":"24820,24811,27216,27199,25572,25488,25213,96200,96121","bike_types":{"4":9},"place_type":"0","rack_locks":"1"},{"uid":"2585941","lat":"52.2835693","lng":"21.0720858","name":"Blokowa - DK Zacisze","spot":"1","number":"9640","bikes":"27","bike_racks":"18","free_racks":"0","terminal_type":"7inch","bike_numbers":"24728,24682,24574,28628,28567,28265,28123,28084,27951,27370,27090,26643,26397,26229,25926,25621,25620,25579,25511,25468,25455,25270,96054,96023,63601,96203,29191","bike_types":{"4":27},"place_type":"0","rack_locks":"1"},{"uid":"2585942","lat":"52.276259","lng":"21.0530748","name":"P\u0119tla Targ\u00f3wek","spot":"1","number":"9641","bikes":"21","bike_racks":"22","free_racks":"1","terminal_type":"7inch","bike_numbers":"28869,27717,27672,27660,27462,27342,27035,26809,26491,26435,26369,26214,26188,26104,26009,25828,25448,25445,25124,28907,96158","bike_types":{"4":21},"place_type":"0","rack_locks":"1"},{"uid":"2585943","lat":"52.27139","lng":"21.01566","name":"Jagiello\u0144ska - ALK","spot":"1","number":"9642","bikes":"12","bike_racks":"16","free_racks":"3","terminal_type":"7inch","bike_numbers":"24692,24657,24534,24530,28611,28493,27877,27359,26504,26441,28912,96420","bike_types":{"4":11},"place_type":"0","rack_locks":"1"},{"uid":"2585947","lat":"52.2694683","lng":"21.0499817","name":"Ossowskiego","spot":"1","number":"9644","bikes":"11","bike_racks":"17","free_racks":"8","terminal_type":"7inch","bike_numbers":"25006,28774,28516,27776,27547,26527,26239,25855,25544,25235,29082","bike_types":{"4":11},"place_type":"0","rack_locks":"1"},{"uid":"2585951","lat":"52.272602123161","lng":"21.063210368156","name":"Radzymi\u0144ska -Trocka","spot":"1","number":"9645","bikes":"16","bike_racks":"20","free_racks":"4","terminal_type":"7inch","bike_numbers":"24614,24482,28722,28491,27998,27990,27922,27828,27700,27224,26932,26754,26007,25070,29137,96081","bike_types":{"4":13,"51":1,"0":1},"place_type":"0","rack_locks":"1"},{"uid":"2585953","lat":"52.27347","lng":"21.07698","name":"Bukowiecka - Zamkowa","spot":"1","number":"9646","bikes":"9","bike_racks":"15","free_racks":"6","terminal_type":"7inch","bike_numbers":"24911,26963,26868,26787,26529,26041,25060,29373,29443","bike_types":{"4":9},"place_type":"0","rack_locks":"1"},{"uid":"2585954","lat":"52.2668885","lng":"21.0585675","name":"Radzymi\u0144ska - Piotra Skargi","spot":"1","number":"9647","bikes":"10","bike_racks":"20","free_racks":"10","terminal_type":"7inch","bike_numbers":"24832,24016,28268,27946,26722,26581,26356,25882,96529,96354","bike_types":{"4":9,"26":1},"place_type":"0","rack_locks":"1"},{"uid":"2585955","lat":"52.2614369","lng":"21.0155744","name":"Wybrze\u017ce Helskie - ZOO","spot":"1","number":"9648","bikes":"2","bike_racks":"22","free_racks":"22","terminal_type":"7inch","bike_numbers":"26572,29185","bike_types":{"4":2},"place_type":"0","rack_locks":"1"},{"uid":"2585956","lat":"52.2632492","lng":"21.0212231","name":"Rondo Starzy\u0144skiego","spot":"1","number":"9649","bikes":"19","bike_racks":"24","free_racks":"4","terminal_type":"7inch","bike_numbers":"28724,28624,28616,28356,28117,28082,27856,27625,27211,26874,26768,26192,25912,25564,25360,25267,25192,28839,96125","bike_types":{"4":18},"place_type":"0","rack_locks":"1"},{"uid":"2585958","lat":"52.26421","lng":"21.02618","name":"Darwina - Nusbauma-Hilarowicza","spot":"1","number":"9650","bikes":"10","bike_racks":"21","free_racks":"10","terminal_type":"7inch","bike_numbers":"24737,27779,27654,26094,25935,25632,96438,96233,96163,29205","bike_types":{"4":10,"26":1},"place_type":"0","rack_locks":"1"},{"uid":"2585960","lat":"52.26554","lng":"21.03122","name":"Namys\u0142owska - Darwina","spot":"1","number":"9651","bikes":"14","bike_racks":"15","free_racks":"1","terminal_type":"7inch","bike_numbers":"24831,28578,28560,28128,27444,27255,26633,26630,26154,26097,25364,25224,96031,96334","bike_types":{"4":14},"place_type":"0","rack_locks":"1"},{"uid":"2585961","lat":"52.2690405","lng":"21.0379493","name":"Rondo \u017baba","spot":"1","number":"9652","bikes":"18","bike_racks":"22","free_racks":"3","terminal_type":"7inch","bike_numbers":"24916,24714,28378,28041,27632,27619,27541,27058,26791,26564,25835,25415,25180,29347,29130,96552,29176,24053","bike_types":{"4":16,"0":1,"26":1},"place_type":"0","rack_locks":"1"},{"uid":"2585963","lat":"52.2591682","lng":"21.0262224","name":"Jagiello\u0144ska - Plac Hallera","spot":"1","number":"9653","bikes":"17","bike_racks":"20","free_racks":"4","terminal_type":"7inch","bike_numbers":"28568,28484,28408,28398,28102,28077,27676,27356,27131,26872,25944,25896,25778,29012,28951,96267,29228","bike_types":{"4":17},"place_type":"0","rack_locks":"1"},{"uid":"2585964","lat":"52.2613811","lng":"21.0305437","name":"Plac Hallera - Sawinkowa","spot":"1","number":"9654","bikes":"14","bike_racks":"28","free_racks":"12","terminal_type":"7inch","bike_numbers":"24924,24816,24456,24006,25000,28656,28647,28074,27434,26696,26327,26199,25730,29097","bike_types":{"4":12,"51":1,"26":1},"place_type":"0","rack_locks":"1"},{"uid":"2585967","lat":"52.263","lng":"21.03418","name":"Namys\u0142owska - Szymanowskiego","spot":"1","number":"9655","bikes":"7","bike_racks":"16","free_racks":"9","terminal_type":"7inch","bike_numbers":"27087,26174,26156,25631,28880,96425,29225","bike_types":{"4":7},"place_type":"0","rack_locks":"1"},{"uid":"2585968","lat":"52.2538188","lng":"21.0231542","name":"Ratuszowa - ZOO","spot":"1","number":"9656","bikes":"15","bike_racks":"23","free_racks":"8","terminal_type":"7inch","bike_numbers":"24708,24702,24589,24022,27653,27595,27551,26261,25877,25851,25792,25667,29048,96099,29202","bike_types":{"4":14,"26":1},"place_type":"0","rack_locks":"1"},{"uid":"2585971","lat":"52.256355","lng":"21.029538","name":"Jagiello\u0144ska - Ratuszowa","spot":"1","number":"9657","bikes":"7","bike_racks":"16","free_racks":"9","terminal_type":"7inch","bike_numbers":"27997,27995,27994,25586,25121,28933,29120","bike_types":{"4":6,"0":1},"place_type":"0","rack_locks":"1"},{"uid":"2585972","lat":"52.261449","lng":"21.037614","name":"11 Listopada - Ratuszowa","spot":"1","number":"9658","bikes":"14","bike_racks":"30","free_racks":"16","terminal_type":"7inch","bike_numbers":"24978,24844,28467,28270,27744,27574,27163,26781,29104,63625,96510,96283,96136,96118","bike_types":{"4":14},"place_type":"0","rack_locks":"1"},{"uid":"2585974","lat":"52.263109","lng":"21.0381895","name":"11 listopada - \u015arodkowa","spot":"1","number":"9659","bikes":"13","bike_racks":"18","free_racks":"4","terminal_type":"7inch","bike_numbers":"28570,28446,27454,26919,26732,26464,26275,25795,25561,25398,25146,28909,29218","bike_types":{"4":13},"place_type":"0","rack_locks":"1"},{"uid":"2585975","lat":"52.25839","lng":"21.03537","name":"Stalowa - 11 Listopada","spot":"1","number":"9660","bikes":"18","bike_racks":"24","free_racks":"6","terminal_type":"7inch","bike_numbers":"24783,24556,28672,28382,27634,27137,26109,25925,25788,25567,25495,25127,25110,25106,29124,25958,96315,96124","bike_types":{"4":17,"0":1},"place_type":"0","rack_locks":"1"},{"uid":"2585978","lat":"52.234791","lng":"21.07905","name":"al. Stan\u00f3w Zjednoczonych - Ostrobramska","spot":"1","number":"9661","bikes":"4","bike_racks":"20","free_racks":"16","terminal_type":"7inch","bike_numbers":"24731,28902,28614,28511","bike_types":{"4":4},"place_type":"0","rack_locks":"1"},{"uid":"2585981","lat":"52.2524758","lng":"21.0303479","name":"Floria\u0144ska - Park Praski","spot":"1","number":"9662","bikes":"17","bike_racks":"23","free_racks":"7","terminal_type":"7inch","bike_numbers":"28452,28405,28010,27803,27515,26552,26250,25929,25918,25405,60862,28843,96016,96240,96161,96110,29277","bike_types":{"4":17},"place_type":"0","rack_locks":"1"},{"uid":"2585982","lat":"52.2549757","lng":"21.0339005","name":"Plac Wile\u0144ski","spot":"1","number":"9663","bikes":"40","bike_racks":"30","free_racks":"0","terminal_type":"7inch","bike_numbers":"24623,24566,24557,24471,28760,28558,28275,28053,28023,27844,27705,27582,27580,27550,27443,27411,27390,27313,26964,26902,26698,26687,26592,26549,25933,25890,25878,25843,25805,25736,25642,25555,25249,25163,25125,25101,96526,96477,96412,29214","bike_types":{"4":39,"51":1},"place_type":"0","rack_locks":"1"},{"uid":"2585983","lat":"52.2579576","lng":"21.0399804","name":"Wile\u0144ska - Rzeszotarskiej","spot":"1","number":"9664","bikes":"15","bike_racks":"16","free_racks":"1","terminal_type":"7inch","bike_numbers":"24961,27792,27372,27331,27312,26991,26610,26167,26161,26117,25820,25716,28972,96443,96336","bike_types":{"4":15},"place_type":"0","rack_locks":"1"},{"uid":"2585984","lat":"52.2475848","lng":"20.9568001","name":"al. Prymasa Tysi\u0105clecia - Obozowa","spot":"1","number":"9665","bikes":"9","bike_racks":"13","free_racks":"5","terminal_type":"7inch","bike_numbers":"28703,28013,26859,26663,25718,25228,28883,96096,29254","bike_types":{"4":9},"place_type":"0","rack_locks":"1"},{"uid":"2585985","lat":"52.248607","lng":"21.029647","name":"Okrzei - Panie\u0144ska","spot":"1","number":"9666","bikes":"12","bike_racks":"16","free_racks":"3","terminal_type":"7inch","bike_numbers":"24907,24845,24638,24002,28050,27330,27213,26996,25746,96456,96133,24055","bike_types":{"4":10,"26":2},"place_type":"0","rack_locks":"1"},{"uid":"2585987","lat":"52.2506334","lng":"21.0311174","name":"Sierakowskiego - K\u0142opotowskiego","spot":"1","number":"9667","bikes":"13","bike_racks":"25","free_racks":"11","terminal_type":"7inch","bike_numbers":"24913,28114,28099,28072,27275,26649,26556,25943,25780,25696,25334,28834,96166","bike_types":{"4":13},"place_type":"0","rack_locks":"1"},{"uid":"2585990","lat":"52.2520876","lng":"21.0381368","name":"Targowa - Z\u0105bkowska","spot":"1","number":"9668","bikes":"23","bike_racks":"18","free_racks":"0","terminal_type":"7inch","bike_numbers":"24753,24602,25009,28892,28646,28629,28585,28401,28089,27962,27755,27530,27477,27217,25327,25069,25035,96540,96322,96281,96147,96127,29237","bike_types":{"4":23},"place_type":"0","rack_locks":"1"},{"uid":"2585992","lat":"52.2544855","lng":"21.0433458","name":"Fabryka W\u00f3dek Koneser","spot":"1","number":"9669","bikes":"27","bike_racks":"25","free_racks":"10","terminal_type":"7inch","bike_numbers":"24928,24861,24771,28714,28683,28520,28190,28098,27936,27848,27362,27262,27046,26714,26634,26530,26378,26296,26166,25968,25570,25523,25357,96039,96555,96468,96170","bike_types":{"4":27},"place_type":"0","rack_locks":"1"},{"uid":"2585994","lat":"52.2559027","lng":"21.0495613","name":"Radzymi\u0144ska - Wiosenna","spot":"1","number":"9670","bikes":"10","bike_racks":"26","free_racks":"17","terminal_type":"7inch","bike_numbers":"24787,24725,28436,27727,27246,27064,26837,26638,26282,29168","bike_types":{"4":10},"place_type":"0","rack_locks":"1"},{"uid":"2585995","lat":"52.25965","lng":"21.0529","name":"Radzymi\u0144ska - \u0141om\u017cy\u0144ska","spot":"1","number":"9671","bikes":"15","bike_racks":"24","free_racks":"12","terminal_type":"7inch","bike_numbers":"24630,24010,27586,27417,27212,26717,26603,26594,26587,26028,25182,25159,25018,29132,29193","bike_types":{"4":12,"26":1,"0":1},"place_type":"0","rack_locks":"1"},{"uid":"2585996","lat":"52.2583512","lng":"21.0585337","name":"P\u0119tla Kaw\u0119czy\u0144ska-Bazylika","spot":"1","number":"9672","bikes":"17","bike_racks":"26","free_racks":"9","terminal_type":"7inch","bike_numbers":"24921,24893,24814,24788,24583,28347,28115,27650,27344,27007,26554,26440,26315,25802,25368,96469,96176","bike_types":{"4":17},"place_type":"0","rack_locks":"1"},{"uid":"2585997","lat":"52.249864871462","lng":"21.042911410332","name":"Targowa - Kijowska","spot":"1","number":"9673","bikes":"7","bike_racks":"18","free_racks":"10","terminal_type":"7inch","bike_numbers":"28554,27031,26805,26059,26058,25064,96361","bike_types":{"4":7},"place_type":"0","rack_locks":"1"},{"uid":"2586000","lat":"52.252745","lng":"21.0510331","name":"Dworzec Wschodni - Kijowska","spot":"1","number":"9674","bikes":"22","bike_racks":"27","free_racks":"3","terminal_type":"7inch","bike_numbers":"24826,25008,28603,28211,27902,27813,27731,27669,27421,27249,27068,26795,26473,26204,25634,25447,25366,25345,25128,28949,29281,29245","bike_types":{"4":22},"place_type":"0","rack_locks":"1"},{"uid":"2586001","lat":"52.247314","lng":"21.042731","name":"Metro Stadion Narodowy","spot":"1","number":"9675","bikes":"12","bike_racks":"15","free_racks":"5","terminal_type":"7inch","bike_numbers":"24768,28574,27604,27387,27380,27201,27155,27024,26517,25849,25787,96191","bike_types":{"4":12},"place_type":"0","rack_locks":"1"},{"uid":"2586003","lat":"52.2472308","lng":"21.0476456","name":"al. Zieleniecka - Teatr Powszechny","spot":"1","number":"9676","bikes":"19","bike_racks":"14","free_racks":"0","terminal_type":"7inch","bike_numbers":"24677,24648,24613,28502,28148,28108,27621,26914,26866,26854,25980,25610,25525,25039,29032,96452,96197,96157,29174","bike_types":{"4":19},"place_type":"0","rack_locks":"1"},{"uid":"2586005","lat":"52.247136","lng":"21.056658","name":"Grochowska - Mi\u0144ska","spot":"1","number":"9677","bikes":"22","bike_racks":"30","free_racks":"3","terminal_type":"7inch","bike_numbers":"24796,24761,24508,28802,28632,28515,28308,27798,27353,27209,27173,27045,26588,26583,25512,25439,25200,25148,25129,60830,29446,28990","bike_types":{"4":22},"place_type":"0","rack_locks":"1"},{"uid":"2586009","lat":"52.2464","lng":"21.06868","name":"Praga-Po\u0142udnie-Ratusz","spot":"1","number":"9678","bikes":"0","bike_racks":"15","free_racks":"15","terminal_type":"7inch","place_type":"0","rack_locks":"1","bike_numbers":null,"bike_types":[]},{"uid":"2586011","lat":"52.2501129","lng":"21.0772011","name":"Dwernickiego - Siennicka","spot":"1","number":"9679","bikes":"28","bike_racks":"25","free_racks":"0","terminal_type":"7inch","bike_numbers":"24880,24729,24577,24539,28697,28295,28014,27858,27827,27770,27714,27441,27314,27194,26387,26383,25969,25836,25303,25299,25186,25167,28958,96422,96120,29149,29263,29249","bike_types":{"4":28},"place_type":"0","rack_locks":"1"},{"uid":"2586012","lat":"52.260428882956","lng":"21.041538119316","name":"Stalowa - Czynszowa","spot":"1","number":"9680","bikes":"1","bike_racks":"15","free_racks":"14","terminal_type":"7inch","bike_numbers":"25831","bike_types":{"4":1},"place_type":"0","rack_locks":"1"},{"uid":"2586014","lat":"52.2372419","lng":"21.0437644","name":"Wybrze\u017ce Szczeci\u0144skie - Stadion Narodowy","spot":"1","number":"9681","bikes":"26","bike_racks":"23","free_racks":"0","terminal_type":"7inch","bike_numbers":"24694,24644,24032,28592,28274,28051,27641,27480,27426,27371,26701,26653,26361,26358,26155,26101,25894,25453,25355,25275,25233,25062,29126,28837,96014,96356","bike_types":{"4":24,"26":1,"0":1},"place_type":"0","rack_locks":"1"},{"uid":"2586018","lat":"52.2387103","lng":"21.0507515","name":"Rondo Waszyngtona - Stadion Narodowy","spot":"1","number":"9682","bikes":"20","bike_racks":"27","free_racks":"1","terminal_type":"7inch","bike_numbers":"24798,28691,28488,28373,28286,27914,27393,27367,27272,27188,27130,26790,26579,25688,25618,25451,29038,29372,28894,96042","bike_types":{"4":20},"place_type":"0","rack_locks":"1"},{"uid":"2586019","lat":"52.242281006874","lng":"21.071160435677","name":"Waszyngtona - Kinowa","spot":"1","number":"9683","bikes":"6","bike_racks":"15","free_racks":"8","terminal_type":"7inch","bike_numbers":"24817,26531,25745,25524,25293,25622","bike_types":{"4":6},"place_type":"0","rack_locks":"1"},{"uid":"2586021","lat":"52.2445639","lng":"21.0838057","name":"Rondo Wiatraczna","spot":"1","number":"9684","bikes":"18","bike_racks":"30","free_racks":"13","terminal_type":"7inch","bike_numbers":"24969,24593,28118,27671,27276,27145,26839,26196,25956,25378,25338,25284,25255,25210,25089,96514,96271,96269","bike_types":{"4":18},"place_type":"0","rack_locks":"1"},{"uid":"2586022","lat":"52.2347451","lng":"21.053651","name":"Francuska - Walecznych","spot":"1","number":"9685","bikes":"24","bike_racks":"15","free_racks":"0","terminal_type":"7inch","bike_numbers":"24908,24606,28732,28368,27775,27692,27562,27484,27424,27122,26938,26845,26565,26525,26295,26173,25697,29386,29552,96408,96329,96229,96117,96586","bike_types":{"4":24},"place_type":"0","rack_locks":"1"},{"uid":"2586024","lat":"52.236598","lng":"21.064774","name":"Mi\u0119dzynarodowa - Walecznych","spot":"1","number":"9686","bikes":"10","bike_racks":"15","free_racks":"4","terminal_type":"7inch","bike_numbers":"24496,24012,28348,27542,26580,25776,25619,25341,25176,96476","bike_types":{"51":1,"26":1,"4":8},"place_type":"0","rack_locks":"1"},{"uid":"2586026","lat":"52.243020071904","lng":"21.102375984192","name":"Plac Szembeka","spot":"1","number":"9687","bikes":"13","bike_racks":"15","free_racks":"2","terminal_type":"7inch","bike_numbers":"24669,24596,28727,28254,27615,27053,26505,25808,29103,28954,28856,96337,96123","bike_types":{"4":13},"place_type":"0","rack_locks":"1"},{"uid":"2586028","lat":"52.237559","lng":"21.120087","name":"P\u0119tla Goc\u0142awek","spot":"1","number":"9688","bikes":"15","bike_racks":"16","free_racks":"0","terminal_type":"7inch","bike_numbers":"28477,28465,27860,27709,27088,26796,26728,25824,25359,29364,29659,28827,96009,96543,29267","bike_types":{"4":15},"place_type":"0","rack_locks":"1"},{"uid":"2586030","lat":"52.2258359","lng":"21.0600907","name":"Brukselska - PROM","spot":"1","number":"9689","bikes":"9","bike_racks":"15","free_racks":"6","terminal_type":"7inch","bike_numbers":"24490,28116,27533,26617,25427,25332,25211,25119,29083","bike_types":{"51":1,"4":8},"place_type":"0","rack_locks":"1"},{"uid":"2586031","lat":"52.260205610017","lng":"21.046854257584","name":"al. Solidarno\u015bci - Szwedzka","spot":"1","number":"9690","bikes":"11","bike_racks":"18","free_racks":"8","terminal_type":"7inch","bike_numbers":"24739,28369,26827,26509,26354,26224,26002,25088,25052,29436,28859","bike_types":{"4":11},"place_type":"0","rack_locks":"1"},{"uid":"2586032","lat":"52.230088","lng":"21.067948","name":"al. Stan\u00f3w Zjednoczonych - Mi\u0119dzynarodowa","spot":"1","number":"9691","bikes":"21","bike_racks":"26","free_racks":"4","terminal_type":"7inch","bike_numbers":"24665,28766,28636,28037,27815,27747,27733,27593,27162,27072,26773,26343,26181,25885,25499,25300,25260,29071,96558,96518,29217","bike_types":{"4":21},"place_type":"0","rack_locks":"1"},{"uid":"2586034","lat":"52.23483","lng":"21.09975","name":"Ostrobramska - Zamieniecka","spot":"1","number":"9692","bikes":"10","bike_racks":"23","free_racks":"13","terminal_type":"7inch","bike_numbers":"27422,27225,26906,26817,26720,26292,26203,25021,96359,96196","bike_types":{"4":9},"place_type":"0","rack_locks":"1"},{"uid":"2586037","lat":"52.2251969","lng":"21.0712892","name":"Afryka\u0144ska - Egipska","spot":"1","number":"9693","bikes":"17","bike_racks":"16","free_racks":"0","terminal_type":"7inch","bike_numbers":"24972,24649,28803,27640,27382,26398,26148,26067,26052,25984,25946,25639,25130,28845,28914,96566,29274","bike_types":{"4":17},"place_type":"0","rack_locks":"1"},{"uid":"2586039","lat":"52.22837","lng":"21.08581","name":"Abrahama - Kapelan\u00f3w AK","spot":"1","number":"9694","bikes":"12","bike_racks":"15","free_racks":"3","terminal_type":"7inch","bike_numbers":"24700,24009,28418,27920,26414,26385,25977,25972,25722,25513,25458,25217","bike_types":{"4":11,"26":1},"place_type":"0","rack_locks":"1"},{"uid":"2586042","lat":"52.2296088","lng":"21.0945572","name":"Fieldorfa - Bukowskiego","spot":"1","number":"9695","bikes":"16","bike_racks":"20","free_racks":"4","terminal_type":"7inch","bike_numbers":"28819,28615,28532,28290,28144,28094,27797,27732,26691,26344,25971,25748,25604,28838,96565,96198","bike_types":{"4":16},"place_type":"0","rack_locks":"1"},{"uid":"2586044","lat":"52.22974","lng":"21.10624","name":"Rechniewskiego - Nowaka-Jeziora\u0144skiego","spot":"1","number":"9696","bikes":"17","bike_racks":"30","free_racks":"14","terminal_type":"7inch","bike_numbers":"28332,28212,28106,28032,27849,27802,27464,27394,26446,25829,25438,25238,28970,96480,96450,96262,96108","bike_types":{"4":17},"place_type":"0","rack_locks":"1"},{"uid":"2586045","lat":"52.2223071","lng":"21.0907259","name":"Meissnera - Fieldorfa","spot":"1","number":"9697","bikes":"16","bike_racks":"15","free_racks":"3","terminal_type":"7inch","bike_numbers":"24964,24884,24517,24004,28380,28310,27889,27657,27164,27129,26830,26291,25821,25419,96332,96228","bike_types":{"4":15,"26":1},"place_type":"0","rack_locks":"1"},{"uid":"2586268","lat":"52.23938046828","lng":"21.016716957092","name":"Krakowskie Przedmie\u015bcie - Traugutta 2","spot":"1","number":"94931","bikes":"7","bike_racks":"24","free_racks":"15","terminal_type":"7inch","bike_numbers":"24786,24676,27910,27544,26465,25578,29365","bike_types":{"4":7},"place_type":"0","rack_locks":"1"},{"uid":"2586270","lat":"52.241814568386","lng":"21.024039387703","name":"Lipowa - Dobra 2","spot":"1","number":"94961","bikes":"20","bike_racks":"19","free_racks":"1","terminal_type":"7inch","bike_numbers":"24663,28653,28426,27730,27584,27115,26852,26585,26514,25950,25772,25056,29338,29114,29102,29057,29011,96492,96211,29177","bike_types":{"4":20},"place_type":"0","rack_locks":"1"},{"uid":"2586272","lat":"52.219916006513","lng":"21.011733412743","name":"Plac Politechniki 2","spot":"1","number":"95381","bikes":"9","bike_racks":"27","free_racks":"18","terminal_type":"7inch","bike_numbers":"24996,28720,28085,27315,26880,26864,26474,96411,24050","bike_types":{"4":8,"26":1},"place_type":"0","rack_locks":"1"},{"uid":"2675985","lat":"52.21759","lng":"21.0096855","name":"Kaczy\u0144skiego - Rektorska","spot":"1","number":"9587","bikes":"1","bike_racks":"19","free_racks":"18","terminal_type":"7inch","place_type":"0","rack_locks":"1","bike_numbers":"26302","bike_types":[]},{"uid":"2676298","lat":"52.255871","lng":"21.010043","name":"Veturilko - Sanguszki - Wybrze\u017ce Gda\u0144skie","spot":"1","number":"9716","bikes":"11","bike_racks":"14","free_racks":"4","terminal_type":"7inch","bike_numbers":"24377,24372,24367,24358,24264,24254,24395,24299,24292,24288,24282","bike_types":{"35":5,"34":6},"place_type":"11","rack_locks":"1"},{"uid":"2685255","lat":"52.278754","lng":"20.991692","name":"Veturilko - K\u0119pa Potocka","spot":"1","number":"9711","bikes":"10","bike_racks":"14","free_racks":"4","terminal_type":"7inch","bike_numbers":"24354,24280,24277,24269,24253,24387,24385,24400,24301,24290","bike_types":{"35":4,"34":6},"place_type":"11","rack_locks":"1"},{"uid":"2685262","lat":"52.2918548","lng":"21.0354469","name":"Veturilko - Park Br\u00f3dnowski","spot":"1","number":"9712","bikes":"10","bike_racks":"14","free_racks":"4","terminal_type":"7inch","bike_numbers":"24359,24355,24275,24268,24257,24389,24388,24386,24382,24283","bike_types":{"35":6,"34":4},"place_type":"11","rack_locks":"1"},{"uid":"2685263","lat":"52.252572","lng":"21.02896","name":"Veturilko - Park Praski","spot":"1","number":"9713","bikes":"12","bike_racks":"14","free_racks":"2","terminal_type":"7inch","bike_numbers":"24378,24369,24351,24258,24390,24381,24399,24396,24296,24295,24287,24285","bike_types":{"35":7,"34":5},"place_type":"11","rack_locks":"1"},{"uid":"2685269","lat":"52.210565168555","lng":"20.998365283012","name":"Veturilko - Pole Mokotowskie","spot":"1","number":"9714","bikes":"11","bike_racks":"14","free_racks":"2","terminal_type":"7inch","bike_numbers":"24376,24375,24371,24366,24360,28036,24281,24391,24294,24293,24289","bike_types":{"35":6,"4":1,"34":4},"place_type":"11","rack_locks":"1"},