[{"region_info":{"lat":"52.2345","lng":"21.0024","zoom":"11","name":"VETURILO Poland","hotline":"+4819115","domain":"vp","country":"PL","country_name":"Poland","terms":"http:\/\/www.veturilo.waw.pl\/terms\/?v=201701","policy":"","website":"http:\/\/www.veturilo.waw.pl\/","show_free_racks":"1","booked_bikes":"0","set_point_bikes":"5279","available_bikes":"3993"},"places_summary":{"lngMin":20.8689688,"lngMax":21.120087,"latMin":52.117285,"latMax":52.3485329,"lngAvg":21.007811803367,"latAvg":52.230676667704},"places":[{"uid":"2585259","lat":"52.296298","lng":"20.9583575","name":"Dewajtis - UKSW","spot":"1","number":"9402","bikes":"27","bike_racks":"30","free_racks":"3","terminal_type":"7inch","bike_numbers":"24731,24557,27609,27449,27097,26963,26925,26923,26774,26558,26554,26546,26477,26446,26217,26017,25991,25956,25472,25407,25358,25297,25077,29068,28935,96002,96524","bike_types":{"4":27},"place_type":"0","rack_locks":"1"},{"uid":"2585263","lat":"52.2909738","lng":"20.9295559","name":"Metro M\u0142ociny","spot":"1","number":"9403","bikes":"20","bike_racks":"30","free_racks":"8","terminal_type":"7inch","bike_numbers":"24614,28094,27847,27843,27784,27517,27098,26991,26846,26651,26645,26118,25722,25355,25292,25091,25052,29072,29033,96350","bike_types":{"4":20},"place_type":"0","rack_locks":"1"},{"uid":"2585265","lat":"52.2901732","lng":"20.9503698","name":"Marymoncka - Dewajtis","spot":"1","number":"9404","bikes":"20","bike_racks":"30","free_racks":"9","terminal_type":"7inch","bike_numbers":"24843,28442,27701,27563,27158,26860,26632,26330,25842,25734,25248,25080,25044,29010,29428,28878,28913,96379,96170,96110","bike_types":{"4":20},"place_type":"0","rack_locks":"1"},{"uid":"2585267","lat":"52.285914","lng":"20.940561","name":"Metro Wawrzyszew","spot":"1","number":"9405","bikes":"1","bike_racks":"20","free_racks":"18","terminal_type":"7inch","bike_numbers":"26296","bike_types":{"4":1},"place_type":"0","rack_locks":"1"},{"uid":"2585269","lat":"52.2336142","lng":"21.0146353","name":"G\u00f3rskiego - Szpitalna","spot":"1","number":"9406","bikes":"10","bike_racks":"16","free_racks":"7","terminal_type":"7inch","bike_numbers":"24616,24507,28712,28446,27700,26313,26287,25820,29646,28996","bike_types":{"4":10},"place_type":"0","rack_locks":"1"},{"uid":"2585271","lat":"52.2816265","lng":"20.9498871","name":"Metro Stare Bielany","spot":"1","number":"9407","bikes":"13","bike_racks":"30","free_racks":"19","terminal_type":"7inch","bike_numbers":"24898,28260,27950,27713,27040,27037,26798,26679,26575,29002,28986,96502,96376","bike_types":{"4":13},"place_type":"0","rack_locks":"1"},{"uid":"2585272","lat":"52.2361217","lng":"21.0219096","name":"Ordynacka - Uniwersytet Muzyczny","spot":"1","number":"9408","bikes":"12","bike_racks":"20","free_racks":"6","terminal_type":"7inch","bike_numbers":"24611,27868,27812,26787,26307,26192,26006,25920,25620,25020,96389,96303","bike_types":{"4":12},"place_type":"0","rack_locks":"1"},{"uid":"2585273","lat":"52.2768774","lng":"20.9481302","name":"Bielany-Ratusz","spot":"1","number":"9409","bikes":"16","bike_racks":"28","free_racks":"12","terminal_type":"7inch","bike_numbers":"24882,24846,24553,24492,28217,27683,26297,26253,26100,25857,25612,25544,25436,25239,25081,29061","bike_types":{"4":15,"51":1},"place_type":"0","rack_locks":"1"},{"uid":"2585275","lat":"52.2761569","lng":"20.9616673","name":"Metro S\u0142odowiec","spot":"1","number":"9410","bikes":"1","bike_racks":"30","free_racks":"29","terminal_type":"7inch","bike_numbers":"26926","bike_types":{"4":1},"place_type":"0","rack_locks":"1"},{"uid":"2585278","lat":"52.2777751","lng":"20.9856999","name":"Potocka - OSiR \u017boliborz","spot":"1","number":"9411","bikes":"11","bike_racks":"15","free_racks":"7","terminal_type":"7inch","bike_numbers":"24891,27182,27072,26841,26608,26607,26599,26250,25895,25604,28815","bike_types":{"4":11},"place_type":"0","rack_locks":"1"},{"uid":"2585280","lat":"52.273527782989","lng":"20.994186401367","name":"Gwia\u017adzista - Promyka","spot":"1","number":"9412","bikes":"10","bike_racks":"16","free_racks":"10","terminal_type":"7inch","bike_numbers":"24864,24532,24513,24491,28478,28212,26443,26222,26199,29090","bike_types":{"4":9,"51":1},"place_type":"0","rack_locks":"1"},{"uid":"2585281","lat":"52.270941","lng":"20.9326269","name":"al. Reymonta - Conrada","spot":"1","number":"9413","bikes":"31","bike_racks":"30","free_racks":"1","terminal_type":"7inch","bike_numbers":"24972,24934,24707,24574,24004,28822,28703,28680,28374,28120,27871,27646,27151,26692,26475,26286,26090,26076,25511,25433,25322,25220,25201,25115,25114,29101,29657,28859,28831,96174,96171","bike_types":{"4":30,"26":1},"place_type":"0","rack_locks":"1"},{"uid":"2585283","lat":"52.2706441","lng":"20.9504181","name":"Broniewskiego - Perzy\u0144skiego","spot":"1","number":"9414","bikes":"7","bike_racks":"16","free_racks":"9","terminal_type":"7inch","bike_numbers":"24978,28316,26834,25970,25767,96511,24047","bike_types":{"4":6,"26":1},"place_type":"0","rack_locks":"1"},{"uid":"2585284","lat":"52.2714203","lng":"20.9727099","name":"Metro Marymont","spot":"1","number":"9415","bikes":"13","bike_racks":"30","free_racks":"17","terminal_type":"7inch","bike_numbers":"24750,27760,27629,27161,26829,26432,25766,25756,25268,29338,96431,29193,96582","bike_types":{"4":13},"place_type":"0","rack_locks":"1"},{"uid":"2585285","lat":"52.2694081","lng":"20.9833664","name":"Metro Plac Wilsona","spot":"1","number":"9416","bikes":"7","bike_racks":"21","free_racks":"14","terminal_type":"7inch","bike_numbers":"28056,27222,26971,26482,26405,25726,25456","bike_types":{"4":7},"place_type":"0","rack_locks":"1"},{"uid":"2585286","lat":"52.2668623","lng":"20.9637032","name":"Broniewskiego - W\u0142o\u015bcia\u0144ska","spot":"1","number":"9417","bikes":"10","bike_racks":"19","free_racks":"11","terminal_type":"7inch","bike_numbers":"28775,27464,27196,26965,26729,26606,25520,96419,96335,29191","bike_types":{"4":10},"place_type":"0","rack_locks":"1"},{"uid":"2585288","lat":"52.2643984","lng":"20.9723179","name":"Broniewskiego - Krasi\u0144skiego","spot":"1","number":"9418","bikes":"2","bike_racks":"16","free_racks":"13","maintenance":"1","terminal_type":"7inch","bike_numbers":"26511,25400","bike_types":{"4":2},"place_type":"0","rack_locks":"1"},{"uid":"2585289","lat":"52.267875","lng":"21.0020667","name":"Wybrze\u017ce Gdy\u0144skie - KS Sp\u00f3jnia","spot":"1","number":"9419","bikes":"11","bike_racks":"15","free_racks":"0","terminal_type":"7inch","bike_numbers":"24926,24783,24735,28560,28047,28011,26847,25776,25222,25147,96241","bike_types":{"4":11},"place_type":"0","rack_locks":"1"},{"uid":"2585291","lat":"52.2624054","lng":"20.9802551","name":"Plac Grunwaldzki","spot":"1","number":"9420","bikes":"20","bike_racks":"30","free_racks":"12","terminal_type":"7inch","bike_numbers":"28635,28600,28296,28191,27655,27638,27447,27436,27236,26946,26181,26168,26095,25605,25176,25170,28875,28911,96121,96591","bike_types":{"4":20},"place_type":"0","rack_locks":"1"},{"uid":"2585296","lat":"52.2612575","lng":"20.9863191","name":"Zaj\u0105czka - Bitwy Pod Rokitn\u0105","spot":"1","number":"9421","bikes":"9","bike_racks":"15","free_racks":"6","terminal_type":"7inch","bike_numbers":"28555,25802,25415,29038,28842,28832,96021,96474,96267","bike_types":{"4":9},"place_type":"0","rack_locks":"1"},{"uid":"2585297","lat":"52.2645018","lng":"20.9895998","name":"Plac Inwalid\u00f3w","spot":"1","number":"9422","bikes":"7","bike_racks":"15","free_racks":"8","terminal_type":"7inch","bike_numbers":"28022,28014,27308,26900,26519,28962,96462","bike_types":{"4":7},"place_type":"0","rack_locks":"1"},{"uid":"2585299","lat":"52.258245356688","lng":"20.898613929749","name":"P\u0119tla Stare Bemowo","spot":"1","number":"9423","bikes":"14","bike_racks":"21","free_racks":"6","terminal_type":"7inch","bike_numbers":"24658,28333,26997,26852,26468,26213,26049,25889,25729,25340,25216,96518,96315,96192","bike_types":{"4":14},"place_type":"0","rack_locks":"1"},{"uid":"2585301","lat":"52.260895125763","lng":"20.923923254013","name":"P\u0119tla Nowe Bemowo","spot":"1","number":"9424","bikes":"23","bike_racks":"25","free_racks":"1","terminal_type":"7inch","bike_numbers":"24930,24559,28514,27771,27133,26449,26317,26292,25633,25519,24555,96384,96375,96374,96321,96314,96285,96233,96232,96227,96206,96111,29231","bike_types":{"4":23},"place_type":"0","rack_locks":"1"},{"uid":"2585304","lat":"52.2575903","lng":"20.9323374","name":"Obro\u0144c\u00f3w Tobruku - Pieni\u0105\u017cka","spot":"1","number":"9425","bikes":"5","bike_racks":"12","free_racks":"7","terminal_type":"7inch","bike_numbers":"27438,26815,26036,25018,96293","bike_types":{"4":5},"place_type":"0","rack_locks":"1"},{"uid":"2585305","lat":"52.2593225","lng":"20.9605511","name":"Pow\u0105zkowska - Krasi\u0144skiego","spot":"1","number":"9426","bikes":"18","bike_racks":"23","free_racks":"8","terminal_type":"7inch","bike_numbers":"24539,28902,28101,27860,27617,27459,26673,26667,26279,26098,25854,25306,25207,25019,29066,29039,29654,29199","bike_types":{"4":18},"place_type":"0","rack_locks":"1"},{"uid":"2585306","lat":"52.2563145","lng":"20.9682307","name":"Pow\u0105zkowska - Plac Niemena","spot":"1","number":"9427","bikes":"9","bike_racks":"16","free_racks":"7","terminal_type":"7inch","bike_numbers":"24680,28665,28534,27470,26463,29648,28816,96140,29176","bike_types":{"4":9},"place_type":"0","rack_locks":"1"},{"uid":"2585307","lat":"52.258524460024","lng":"20.970931649208","name":"Przasnyska - Rydygiera","spot":"1","number":"9428","bikes":"7","bike_racks":"15","free_racks":"5","terminal_type":"7inch","bike_numbers":"24944,24520,28315,27431,25698,28950,96392","bike_types":{"4":7},"place_type":"0","rack_locks":"1"},{"uid":"2585308","lat":"52.253594","lng":"20.9798744","name":"Pow\u0105zkowska - Burakowska","spot":"1","number":"9429","bikes":"10","bike_racks":"20","free_racks":"10","terminal_type":"7inch","bike_numbers":"24971,24967,24800,24528,28561,28351,28275,28196,26592,96032","bike_types":{"4":10},"place_type":"0","rack_locks":"1"},{"uid":"2585311","lat":"52.2576018","lng":"20.9944975","name":"Metro Dworzec Gda\u0144ski","spot":"1","number":"9430","bikes":"25","bike_racks":"30","free_racks":"4","terminal_type":"7inch","bike_numbers":"24776,24672,24580,28093,28021,27912,27705,27479,27383,27124,26974,26888,26757,26658,26553,26154,26137,26117,26083,26031,25798,25498,25301,29054,96499","bike_types":{"4":25},"place_type":"0","rack_locks":"1"},{"uid":"2585315","lat":"52.2465952","lng":"20.9429216","name":"Obozowa - Cio\u0142ka","spot":"1","number":"9432","bikes":"9","bike_racks":"13","free_racks":"3","terminal_type":"7inch","bike_numbers":"28098,27752,26761,26024,25621,25425,25156,96245,96147","bike_types":{"4":9},"place_type":"0","rack_locks":"1"},{"uid":"2585317","lat":"52.227621983552","lng":"20.956758856773","name":"al. Prymasa Tysi\u0105clecia - Kasprzaka","spot":"1","number":"9433","bikes":"11","bike_racks":"23","free_racks":"15","terminal_type":"7inch","bike_numbers":"24790,24742,24659,28687,28208,28133,26980,26705,96013,96400,96268","bike_types":{"4":11},"place_type":"0","rack_locks":"1"},{"uid":"2585319","lat":"52.246037","lng":"20.962463","name":"Obozowa - Radziwie","spot":"1","number":"9434","bikes":"3","bike_racks":"13","free_racks":"10","terminal_type":"7inch","bike_numbers":"28544,27264,27031","bike_types":{"4":3},"place_type":"0","rack_locks":"1"},{"uid":"2585321","lat":"52.2514708","lng":"20.9857053","name":"al. Jana Paw\u0142a II - Stawki","spot":"1","number":"9435","bikes":"10","bike_racks":"23","free_racks":"9","terminal_type":"7inch","bike_numbers":"24717,27968,27594,26544,26518,25488,25250,96520,96428,96288","bike_types":{"4":10},"place_type":"0","rack_locks":"1"},{"uid":"2585323","lat":"52.2535305","lng":"20.9924922","name":"Stawki - Dubois","spot":"1","number":"9436","bikes":"4","bike_racks":"13","free_racks":"7","terminal_type":"7inch","bike_numbers":"24643,24549,27768,96337","bike_types":{"4":4},"place_type":"0","rack_locks":"1"},{"uid":"2585326","lat":"52.2541702","lng":"20.9980649","name":"Andersa - Muranowska","spot":"1","number":"9437","bikes":"22","bike_racks":"30","free_racks":"2","terminal_type":"7inch","bike_numbers":"24723,28738,28441,28213,27794,27633,27038,26788,26767,26704,26133,25684,25579,25578,25526,25267,29086,96554,96479,96080,29190,29257","bike_types":{"4":22},"place_type":"0","rack_locks":"1"},{"uid":"2585327","lat":"52.255877","lng":"21.0099819","name":"Sanguszki - Wybrze\u017ce Gda\u0144skie","spot":"1","number":"9438","bikes":"27","bike_racks":"28","free_racks":"0","terminal_type":"7inch","bike_numbers":"24907,28897,28542,28438,28153,27827,27657,27557,27425,27351,26451,26338,26319,26131,26054,25987,25930,25790,25338,25186,25167,96489,96444,96369,96330,96325,96193","bike_types":{"4":27},"place_type":"0","rack_locks":"1"},{"uid":"2585328","lat":"52.252175","lng":"20.923692","name":"Wroc\u0142awska \u2013 Bailly","spot":"1","number":"9439","bikes":"23","bike_racks":"27","free_racks":"4","terminal_type":"7inch","bike_numbers":"28717,28710,28638,27996,27058,26780,26508,26380,25931,25401,29111,96031,96007,96569,96519,96332,96290,96256,96242,96217,96168,96160,96153","bike_types":{"4":23},"place_type":"0","rack_locks":"1"},{"uid":"2585330","lat":"52.24418","lng":"20.97794","name":"Okopowa - Anielewicza","spot":"1","number":"9440","bikes":"3","bike_racks":"20","free_racks":"15","terminal_type":"7inch","bike_numbers":"28481,27218,25435","bike_types":{"4":3},"place_type":"0","rack_locks":"1"},{"uid":"2585333","lat":"52.2486","lng":"20.98352","name":"Smocza - Mi\u0142a","spot":"1","number":"9441","bikes":"4","bike_racks":"15","free_racks":"8","terminal_type":"7inch","bike_numbers":"24529,28462,28293,27893","bike_types":{"4":4},"place_type":"0","rack_locks":"1"},{"uid":"2585334","lat":"52.24616","lng":"20.98538","name":"Smocza - Anielewicza","spot":"1","number":"9442","bikes":"2","bike_racks":"17","free_racks":"14","terminal_type":"7inch","bike_numbers":"24949,26291","bike_types":{"4":2},"place_type":"0","rack_locks":"1"},{"uid":"2585335","lat":"52.247226","lng":"20.9893155","name":"al. Jana Paw\u0142a II - Anielewicza","spot":"1","number":"9443","bikes":"8","bike_racks":"22","free_racks":"14","terminal_type":"7inch","bike_numbers":"24631,28766,27849,26701,29107,29103,96026,29164","bike_types":{"4":8},"place_type":"0","rack_locks":"1"},{"uid":"2585337","lat":"52.249052","lng":"20.9948923","name":"Anielewicza - Zamenhofa","spot":"1","number":"9444","bikes":"10","bike_racks":"15","free_racks":"3","terminal_type":"7inch","bike_numbers":"24684,28695,28566,27314,26241,25522,25399,25090,28840,96412","bike_types":{"4":10},"place_type":"0","rack_locks":"1"},{"uid":"2585338","lat":"52.2492196","lng":"20.9971878","name":"Anielewicza - Andersa","spot":"1","number":"9445","bikes":"12","bike_racks":"18","free_racks":"3","terminal_type":"7inch","bike_numbers":"28263,28103,27867,27113,26994,25882,25659,29126,28970,96044,96477,29156","bike_types":{"4":11,"0":1},"place_type":"0","rack_locks":"1"},{"uid":"2585340","lat":"52.251549","lng":"21.002749","name":"Bonifraterska - Franciszka\u0144ska","spot":"1","number":"9446","bikes":"13","bike_racks":"16","free_racks":"3","terminal_type":"7inch","bike_numbers":"28633,28590,27153,26648,26643,26495,26439,26354,26130,26065,25872,25151,29388","bike_types":{"4":13},"place_type":"0","rack_locks":"1"},{"uid":"2585342","lat":"52.2541119","lng":"21.0093342","name":"Ko\u015bcielna - Piesza","spot":"1","number":"9448","bikes":"4","bike_racks":"26","free_racks":"21","terminal_type":"7inch","bike_numbers":"28207,27966,26691,96478","bike_types":{"4":4},"place_type":"0","rack_locks":"1"},{"uid":"2585344","lat":"52.2392622","lng":"20.8987641","name":"P\u0119tla Os. G\u00f3rczewska","spot":"1","number":"9449","bikes":"2","bike_racks":"15","free_racks":"12","terminal_type":"7inch","bike_numbers":"25446,28992","bike_types":{"4":2},"place_type":"0","rack_locks":"1"},{"uid":"2585345","lat":"52.2389287","lng":"20.9139535","name":"Bemowo-Ratusz","spot":"1","number":"9450","bikes":"1","bike_racks":"20","free_racks":"19","terminal_type":"7inch","bike_numbers":"25372","bike_types":{"4":1},"place_type":"0","rack_locks":"1"},{"uid":"2585346","lat":"52.2387861","lng":"20.9424946","name":"Okocimska - Olbrachta","spot":"1","number":"9451","bikes":"4","bike_racks":"18","free_racks":"13","terminal_type":"7inch","bike_numbers":"27832,27796,27710,27282","bike_types":{"4":4},"place_type":"0","rack_locks":"1"},{"uid":"2585349","lat":"52.2506241","lng":"21.0533611","name":"Dworzec Wschodni - Lubelska","spot":"1","number":"9452","bikes":"6","bike_racks":"15","free_racks":"9","terminal_type":"7inch","bike_numbers":"28603,28100,27565,26956,26480,25942","bike_types":{"4":6},"place_type":"0","rack_locks":"1"},{"uid":"2585351","lat":"52.2369249","lng":"20.9723559","name":"Leszno - M\u0142ynarska","spot":"1","number":"9453","bikes":"7","bike_racks":"30","free_racks":"20","terminal_type":"7inch","bike_numbers":"24536,24023,27949,27199,27004,26136,96114","bike_types":{"4":6,"26":1},"place_type":"0","rack_locks":"1"},{"uid":"2585352","lat":"52.2430451","lng":"20.9803864","name":"Dzielna - Bellottiego","spot":"1","number":"9454","bikes":"2","bike_racks":"13","free_racks":"11","terminal_type":"7inch","bike_numbers":"25873,28850","bike_types":{"4":2},"place_type":"0","rack_locks":"1"},{"uid":"2585353","lat":"52.24108","lng":"20.98316","name":"Wolno\u015b\u0107 - Bellottiego","spot":"1","number":"9455","bikes":"8","bike_racks":"16","free_racks":"8","terminal_type":"7inch","bike_numbers":"27695,26033,25728,25277,96001,96538,96463,96436","bike_types":{"4":8},"place_type":"0","rack_locks":"1"},{"uid":"2585354","lat":"52.2435448","lng":"20.9873507","name":"Smocza - Nowolipki","spot":"1","number":"9456","bikes":"0","bike_racks":"16","free_racks":"15","terminal_type":"7inch","place_type":"0","rack_locks":"1","bike_numbers":null,"bike_types":[]},{"uid":"2585356","lat":"52.2445767","lng":"20.99177","name":"al. Jana Paw\u0142a II - Nowolipki","spot":"1","number":"9457","bikes":"2","bike_racks":"16","free_racks":"14","terminal_type":"7inch","bike_numbers":"28688,25030","bike_types":{"4":2},"place_type":"0","rack_locks":"1"},{"uid":"2585358","lat":"52.22868","lng":"20.91509","name":"Powsta\u0144c\u00f3w \u015al\u0105skich - Cz\u0142uchowska","spot":"1","number":"9458","bikes":"9","bike_racks":"16","free_racks":"8","terminal_type":"7inch","bike_numbers":"24730,28718,26452,25976,25694,25073,96253,96101,96077","bike_types":{"4":9},"place_type":"0","rack_locks":"1"},{"uid":"2585360","lat":"52.2342032","lng":"20.934689","name":"Jana Olbrachta - Antka Rozpylacza","spot":"1","number":"9459","bikes":"4","bike_racks":"13","free_racks":"9","terminal_type":"7inch","bike_numbers":"27750,27534,25727,29149","bike_types":{"4":4},"place_type":"0","rack_locks":"1"},{"uid":"2585364","lat":"52.2401623","lng":"20.9877277","name":"Wola-Ratusz","spot":"1","number":"9460","bikes":"13","bike_racks":"15","free_racks":"3","terminal_type":"7inch","bike_numbers":"27939,27658,27540,26858,26837,26523,26357,26109,25478,25295,25221,96411,29250","bike_types":{"4":13},"place_type":"0","rack_locks":"1"},{"uid":"2585368","lat":"52.2445326","lng":"20.99998","name":"Plac Bankowy - Kino Muran\u00f3w","spot":"1","number":"9462","bikes":"12","bike_racks":"17","free_racks":"2","terminal_type":"7inch","bike_numbers":"24745,28899,28596,27973,27566,27106,26265,25614,25525,96454,96385,96358","bike_types":{"4":12},"place_type":"0","rack_locks":"1"},{"uid":"2585369","lat":"52.2449465","lng":"21.0012943","name":"Andersa - D\u0142uga","spot":"1","number":"9463","bikes":"17","bike_racks":"30","free_racks":"12","terminal_type":"7inch","bike_numbers":"24997,24602,28681,28539,28448,28116,28073,28039,27947,27296,27017,26101,25689,25023,29070,28855,96056","bike_types":{"4":17},"place_type":"0","rack_locks":"1"},{"uid":"2585370","lat":"52.2442666","lng":"21.0015893","name":"Marsza\u0142kowska - al. Solidarno\u015bci","spot":"1","number":"9464","bikes":"23","bike_racks":"30","free_racks":"7","terminal_type":"7inch","bike_numbers":"28874,28517,28193,27870,27604,27523,27460,27416,26639,26465,26408,26343,26244,25762,25683,25539,25347,29080,29135,28865,96292,96238,29159","bike_types":{"4":22,"0":1},"place_type":"0","rack_locks":"1"},{"uid":"2585371","lat":"52.2431975","lng":"21.0016603","name":"Plac Bankowy - Ratusz","spot":"1","number":"9465","bikes":"16","bike_racks":"30","free_racks":"11","terminal_type":"7inch","bike_numbers":"24773,24652,27729,27696,27370,27171,27063,26762,26328,26171,26014,25746,25643,29200,96429,96423","bike_types":{"4":16},"place_type":"0","rack_locks":"1"},{"uid":"2585373","lat":"52.2435719","lng":"21.0066801","name":"Senatorska - Biela\u0144ska","spot":"1","number":"9466","bikes":"5","bike_racks":"17","free_racks":"10","terminal_type":"7inch","bike_numbers":"24663,26842,25449,25105,25012","bike_types":{"4":5},"place_type":"0","rack_locks":"1"},{"uid":"2585377","lat":"52.246314509834","lng":"21.0113042593","name":"Miodowa","spot":"1","number":"9467","bikes":"6","bike_racks":"24","free_racks":"16","terminal_type":"7inch","bike_numbers":"24508,26360,26075,28972,96521,96244","bike_types":{"4":6},"place_type":"0","rack_locks":"1"},{"uid":"2585378","lat":"52.2435965","lng":"21.0140803","name":"Krakowskie Przedmie\u015bcie - Tr\u0119backa","spot":"1","number":"9468","bikes":"21","bike_racks":"14","free_racks":"0","terminal_type":"7inch","bike_numbers":"24462,28887,27942,27810,27548,26502,26390,26266,26110,26062,25761,25753,25654,25575,25543,25477,25383,29652,28851,28979,96204","bike_types":{"51":1,"4":20},"place_type":"0","rack_locks":"1"},{"uid":"2585379","lat":"52.2465625","lng":"21.0174345","name":"Mariensztat","spot":"1","number":"9469","bikes":"15","bike_racks":"15","free_racks":"0","terminal_type":"7inch","bike_numbers":"24482,28507,28036,27853,27542,27269,27262,26716,26278,25945,25905,25412,25188,29647,96048","bike_types":{"51":1,"4":14},"place_type":"0","rack_locks":"1"},{"uid":"2585381","lat":"52.224934","lng":"20.945489","name":"Jana Kazimierza - Giz\u00f3w","spot":"1","number":"9471","bikes":"2","bike_racks":"13","free_racks":"13","terminal_type":"7inch","bike_numbers":"27239,26363","bike_types":{"4":2},"place_type":"0","rack_locks":"1"},{"uid":"2585385","lat":"52.2299137","lng":"20.9508179","name":"Wolska - Elekcyjna","spot":"1","number":"9472","bikes":"18","bike_racks":"20","free_racks":"2","terminal_type":"7inch","bike_numbers":"24945,24931,28658,27824,27672,27396,26859,26754,26545,26365,26185,25917,25613,25485,25387,25113,28808,96279","bike_types":{"4":18},"place_type":"0","rack_locks":"1"},{"uid":"2585387","lat":"52.237662392829","lng":"20.955492854118","name":"al. Prymasa Tysi\u0105clecia - G\u00f3rczewska","spot":"1","number":"9473","bikes":"15","bike_racks":"20","free_racks":"6","terminal_type":"7inch","bike_numbers":"24928,28768,28347,28320,27957,27948,27809,27556,27482,27446,26962,26886,25619,29022,96016","bike_types":{"4":15},"place_type":"0","rack_locks":"1"},{"uid":"2585389","lat":"52.2333374","lng":"20.9652776","name":"Wolska - P\u0142ocka","spot":"1","number":"9474","bikes":"1","bike_racks":"15","free_racks":"13","terminal_type":"7inch","bike_numbers":"25357","bike_types":{"4":1},"place_type":"0","rack_locks":"1"},{"uid":"2585391","lat":"52.228522296173","lng":"20.969638824463","name":"Kasprzaka - Skierniewicka","spot":"1","number":"9475","bikes":"9","bike_racks":"21","free_racks":"11","terminal_type":"7inch","bike_numbers":"24917,24885,24876,24469,27065,26871,26290,25914,96139","bike_types":{"4":8,"51":1},"place_type":"0","rack_locks":"1"},{"uid":"2585394","lat":"52.22898","lng":"20.97843","name":"Kasprzaka - Karolkowa","spot":"1","number":"9476","bikes":"3","bike_racks":"15","free_racks":"12","terminal_type":"7inch","bike_numbers":"27146,26483,96127","bike_types":{"4":3},"place_type":"0","rack_locks":"1"},{"uid":"2585396","lat":"52.2328752","lng":"20.9805411","name":"Muzeum Powstania Warszawskiego","spot":"1","number":"9477","bikes":"4","bike_racks":"10","free_racks":"5","terminal_type":"7inch","bike_numbers":"24502,25373,25210,25168","bike_types":{"4":4},"place_type":"0","rack_locks":"1"},{"uid":"2585398","lat":"52.22983","lng":"20.983123","name":"Metro Rondo Daszy\u0144skiego","spot":"1","number":"9478","bikes":"11","bike_racks":"26","free_racks":"16","terminal_type":"7inch","bike_numbers":"27497,26977,26773,26720,26257,25831,25462,25259,29067,96200,29204","bike_types":{"4":11},"place_type":"0","rack_locks":"1"},{"uid":"2585400","lat":"52.23145","lng":"20.98869","name":"Prosta - Wronia","spot":"1","number":"9479","bikes":"4","bike_racks":"15","free_racks":"10","terminal_type":"7inch","bike_numbers":"24987,28332,28325,26796","bike_types":{"4":4},"place_type":"0","rack_locks":"1"},{"uid":"2585401","lat":"52.2373141","lng":"20.9888488","name":"\u017belazna - Ch\u0142odna","spot":"1","number":"9480","bikes":"2","bike_racks":"15","free_racks":"13","terminal_type":"7inch","bike_numbers":"28715,28304","bike_types":{"4":2},"place_type":"0","rack_locks":"1"},{"uid":"2585402","lat":"52.2344946","lng":"20.9905117","name":"\u017belazna - Grzybowska","spot":"1","number":"9481","bikes":"15","bike_racks":"20","free_racks":"0","terminal_type":"7inch","bike_numbers":"24916,28384,27989,27437,27160,26839,26695,26104,26048,26044,26039,29063,25961,28871,96183","bike_types":{"4":15},"place_type":"0","rack_locks":"1"},{"uid":"2585405","lat":"52.238666","lng":"20.9957314","name":"al. Jana Paw\u0142a II - Plac Mirowski","spot":"1","number":"9482","bikes":"11","bike_racks":"16","free_racks":"5","terminal_type":"7inch","bike_numbers":"28677,27885,27735,26981,25191,29213,28891,63601,96513,96443,96152","bike_types":{"4":11},"place_type":"0","rack_locks":"1"},{"uid":"2585406","lat":"52.2357151","lng":"20.9966071","name":"al. Jana Paw\u0142a II - Grzybowska","spot":"1","number":"9483","bikes":"1","bike_racks":"23","free_racks":"22","terminal_type":"7inch","bike_numbers":"27413","bike_types":{"4":1},"place_type":"0","rack_locks":"1"},{"uid":"2585410","lat":"52.23958","lng":"21.00027","name":"Ptasia - Zimna","spot":"1","number":"9485","bikes":"7","bike_racks":"16","free_racks":"8","terminal_type":"7inch","bike_numbers":"24636,28290,26674,25913,25483,28995,96295","bike_types":{"4":7},"place_type":"0","rack_locks":"1"},{"uid":"2585412","lat":"52.2336314","lng":"21.0028795","name":"Emilii Plater - \u015awi\u0119tokrzyska","spot":"1","number":"9486","bikes":"16","bike_racks":"26","free_racks":"11","terminal_type":"7inch","bike_numbers":"28453,28139,27965,27086,26922,26526,26470,26040,25681,25465,29121,28988,96371,96336,96166,29183","bike_types":{"4":15,"0":1},"place_type":"0","rack_locks":"1"},{"uid":"2585413","lat":"52.2358704","lng":"21.0037806","name":"Plac Grzybowski","spot":"1","number":"9487","bikes":"6","bike_racks":"26","free_racks":"19","terminal_type":"7inch","bike_numbers":"24830,24029,28819,28060,96439,96361","bike_types":{"4":5,"26":1},"place_type":"0","rack_locks":"1"},{"uid":"2585416","lat":"52.2384853","lng":"21.0067552","name":"Marsza\u0142kowska - Kr\u00f3lewska","spot":"1","number":"9488","bikes":"3","bike_racks":"19","free_racks":"13","terminal_type":"7inch","bike_numbers":"24463,29445,96124","bike_types":{"51":1,"4":2},"place_type":"0","rack_locks":"1"},{"uid":"2585417","lat":"52.2364206","lng":"21.0072407","name":"Marsza\u0142kowska - Zielna","spot":"1","number":"9489","bikes":"17","bike_racks":"30","free_racks":"12","terminal_type":"7inch","bike_numbers":"24832,28323,27898,26770,26428,26172,26103,26045,26000,25972,25934,25925,25169,96057,96172,96169,29265","bike_types":{"4":17},"place_type":"0","rack_locks":"1"},{"uid":"2585420","lat":"52.2397008","lng":"21.0119292","name":"Plac Ma\u0142achowskiego","spot":"1","number":"9491","bikes":"16","bike_racks":"16","free_racks":"0","terminal_type":"7inch","bike_numbers":"24918,24722,24501,24471,28630,27640,27572,27082,26498,26068,25441,25120,96558,96515,96507,96362","bike_types":{"4":15,"51":1},"place_type":"0","rack_locks":"1"},{"uid":"2585422","lat":"52.2359114","lng":"21.0135654","name":"Plac Powsta\u0144c\u00f3w Warszawy","spot":"1","number":"9492","bikes":"8","bike_racks":"20","free_racks":"11","terminal_type":"7inch","bike_numbers":"28747,28697,28268,27921,27907,27515,26957,26424","bike_types":{"4":8},"place_type":"0","rack_locks":"1"},{"uid":"2585423","lat":"52.2393559","lng":"21.016603","name":"Krakowskie Przedmie\u015bcie - Traugutta","spot":"1","number":"9493","bikes":"17","bike_racks":"24","free_racks":"6","terminal_type":"7inch","bike_numbers":"24734,24638,24512,25000,28024,27061,26989,26790,26686,26407,26128,25430,25231,25103,28985,96516,29221","bike_types":{"4":17},"place_type":"0","rack_locks":"1"},{"uid":"2585429","lat":"52.238298","lng":"21.0184014","name":"Obo\u017ana - Kopernika","spot":"1","number":"9495","bikes":"9","bike_racks":"22","free_racks":"13","terminal_type":"7inch","bike_numbers":"24545,28080,26702,26243,25764,25438,25381,96573,96133","bike_types":{"4":9},"place_type":"0","rack_locks":"1"},{"uid":"2585430","lat":"52.2418852","lng":"21.0241279","name":"Lipowa - Dobra","spot":"1","number":"9496","bikes":"7","bike_racks":"19","free_racks":"12","terminal_type":"7inch","bike_numbers":"24982,28801,27982,25282,29461,96311,29216","bike_types":{"4":7},"place_type":"0","rack_locks":"1"},{"uid":"2585431","lat":"52.2413087","lng":"21.0281727","name":"Centrum Nauki Kopernik","spot":"1","number":"9497","bikes":"40","bike_racks":"30","free_racks":"0","terminal_type":"7inch","bike_numbers":"24908,24858,24701,25009,28720,28523,28405,27910,27469,27341,27066,26933,26843,26597,26384,26219,26187,25843,25595,25403,25334,25106,29082,29027,28951,29447,29436,29146,28841,28826,96550,96503,96359,96186,96097,96076,29161,29201,29205,29244","bike_types":{"4":39,"0":1},"place_type":"0","rack_locks":"1"},{"uid":"2585432","lat":"52.2264464","lng":"20.9837164","name":"Kolejowa","spot":"1","number":"9498","bikes":"4","bike_racks":"16","free_racks":"12","terminal_type":"7inch","bike_numbers":"28409,28148,27579,27355","bike_types":{"4":4},"place_type":"0","rack_locks":"1"},{"uid":"2585433","lat":"52.22983","lng":"20.993996","name":"\u017belazna - Sienna","spot":"1","number":"9499","bikes":"10","bike_racks":"24","free_racks":"14","terminal_type":"7inch","bike_numbers":"24500,28654,28142,27699,26867,25844,25418,25254,29117,28974","bike_types":{"51":1,"4":9},"place_type":"0","rack_locks":"1"},{"uid":"2585435","lat":"52.230201297582","lng":"20.999550819397","name":"al. Jana Paw\u0142a II - Z\u0142ota","spot":"1","number":"9500","bikes":"11","bike_racks":"16","free_racks":"7","terminal_type":"7inch","bike_numbers":"24693,24543,28363,27844,27188,26739,25827,25253,29446,96484,96395","bike_types":{"4":11},"place_type":"0","rack_locks":"1"},{"uid":"2585438","lat":"52.2309778","lng":"21.0036755","name":"Emilii Plater - Z\u0142ota","spot":"1","number":"9501","bikes":"0","bike_racks":"30","free_racks":"29","terminal_type":"7inch","place_type":"0","rack_locks":"1","bike_numbers":null,"bike_types":[]},{"uid":"2585440","lat":"52.232816601853","lng":"21.006980538368","name":"Pa\u0142ac Kultury i Nauki","spot":"1","number":"9502","bikes":"1","bike_racks":"17","free_racks":"14","terminal_type":"7inch","bike_numbers":"24801","bike_types":{"4":1},"place_type":"0","rack_locks":"1"},{"uid":"2585442","lat":"52.232934","lng":"21.0101791","name":"Marsza\u0142kowska - Z\u0142ota","spot":"1","number":"9503","bikes":"6","bike_racks":"22","free_racks":"16","terminal_type":"7inch","bike_numbers":"27062,26814,26515,26191,28825,96143","bike_types":{"4":6},"place_type":"0","rack_locks":"1"},{"uid":"2585445","lat":"52.231987","lng":"21.016092","name":"Bracka - Krucza","spot":"1","number":"9504","bikes":"18","bike_racks":"20","free_racks":"4","terminal_type":"7inch","bike_numbers":"24747,24619,24564,28769,28748,27997,27698,27686,27441,27129,27128,27012,26252,26119,25860,25782,25749,29449","bike_types":{"4":18},"place_type":"0","rack_locks":"1"},{"uid":"2585446","lat":"52.2355713","lng":"21.0179642","name":"Nowy \u015awiat - Warecka","spot":"1","number":"9505","bikes":"4","bike_racks":"24","free_racks":"19","terminal_type":"7inch","bike_numbers":"28269,25540,25524,96058","bike_types":{"4":4},"place_type":"0","rack_locks":"1"},{"uid":"2585447","lat":"52.2337571","lng":"21.0202789","name":"Ga\u0142czy\u0144skiego - Foksal","spot":"1","number":"9506","bikes":"19","bike_racks":"24","free_racks":"5","terminal_type":"7inch","bike_numbers":"24604,28368,28154,27979,27665,26947,26747,26613,26211,26179,25939,25500,25359,25071,96432,29196,29195,29227,29218","bike_types":{"4":19},"place_type":"0","rack_locks":"1"},{"uid":"2585450","lat":"52.2375934","lng":"21.0256487","name":"Topiel - Tamka","spot":"1","number":"9507","bikes":"31","bike_racks":"20","free_racks":"2","terminal_type":"7inch","bike_numbers":"24828,24655,24625,28734,28272,27661,27608,27600,27551,27440,27365,27202,27130,27087,26884,26807,26718,26435,26281,26259,26240,26002,25822,25670,25294,25013,29367,25630,28998,96014,96386","bike_types":{"4":31},"place_type":"0","rack_locks":"1"},{"uid":"2585452","lat":"52.2358752","lng":"21.0317323","name":"Solec - Jaracza","spot":"1","number":"9508","bikes":"16","bike_racks":"15","free_racks":"0","terminal_type":"7inch","bike_numbers":"28460,28265,28257,27946,27846,27427,27376,26874,26811,26273,25933,25555,96036,96528,96260,29202","bike_types":{"4":16},"place_type":"0","rack_locks":"1"},{"uid":"2585453","lat":"52.2218874","lng":"20.9795301","name":"al. Jerozolimskie - Niemcewicza","spot":"1","number":"9509","bikes":"1","bike_racks":"19","free_racks":"18","terminal_type":"7inch","bike_numbers":"25303","bike_types":{"4":1},"place_type":"0","rack_locks":"1"},{"uid":"2585455","lat":"52.2222155","lng":"20.9866293","name":"Ochota-Ratusz","spot":"1","number":"9510","bikes":"2","bike_racks":"23","free_racks":"20","terminal_type":"7inch","bike_numbers":"26517,96365","bike_types":{"4":2},"place_type":"0","rack_locks":"1"},{"uid":"2585457","lat":"52.2249718","lng":"20.9897661","name":"Plac Zawiszy","spot":"1","number":"9511","bikes":"19","bike_racks":"24","free_racks":"7","terminal_type":"7inch","bike_numbers":"28537,28458,28371,26917,26826,26561,26520,26488,26073,25875,25723,25517,25279,25016,28912,96505,96493,96449,96105","bike_types":{"4":19},"place_type":"0","rack_locks":"1"},{"uid":"2585460","lat":"52.22626","lng":"20.9961309","name":"al. Jerozolimskie - Lindleya","spot":"1","number":"9512","bikes":"5","bike_racks":"15","free_racks":"10","terminal_type":"7inch","bike_numbers":"26644,25851,25177,25107,96529","bike_types":{"4":5},"place_type":"0","rack_locks":"1"},{"uid":"2585462","lat":"52.2241455","lng":"20.9975244","name":"Lindleya - szpital","spot":"1","number":"9513","bikes":"13","bike_racks":"28","free_racks":"15","terminal_type":"7inch","bike_numbers":"28563,28547,27477,26916,26662,26503,26289,25978,25800,29113,29387,28839,96182","bike_types":{"4":13},"place_type":"0","rack_locks":"1"},{"uid":"2585464","lat":"52.227861","lng":"21.0008509","name":"Warszawa \u015ar\u00f3dmie\u015bcie WKD","spot":"1","number":"9514","bikes":"14","bike_racks":"18","free_racks":"4","terminal_type":"7inch","bike_numbers":"24816,24794,24683,24617,28479,28069,28019,27876,27045,25263,25041,28809,28827,29214","bike_types":{"4":14},"place_type":"0","rack_locks":"1"},{"uid":"2585466","lat":"52.2249555","lng":"21.0031664","name":"Oczki - WUM","spot":"1","number":"9515","bikes":"14","bike_racks":"19","free_racks":"5","terminal_type":"7inch","bike_numbers":"24732,24720,24455,28152,27506,27384,27181,27071,27008,26988,25464,25226,96099,96095","bike_types":{"4":13,"51":1},"place_type":"0","rack_locks":"1"},{"uid":"2585469","lat":"52.2290464","lng":"21.0054544","name":"Emilii Plater - Al. Jerozolimskie","spot":"1","number":"9517","bikes":"13","bike_racks":"30","free_racks":"14","terminal_type":"7inch","bike_numbers":"24479,28496,27536,26733,26688,26552,26522,26397,25560,25163,25118,29048,96407","bike_types":{"51":1,"4":12},"place_type":"0","rack_locks":"1"},{"uid":"2585470","lat":"52.2259343","lng":"21.0067537","name":"Emilii Plater - Wsp\u00f3lna","spot":"1","number":"9518","bikes":"8","bike_racks":"15","free_racks":"7","terminal_type":"7inch","bike_numbers":"28759,28380,27716,27429,26581,26342,25655,29361","bike_types":{"4":8},"place_type":"0","rack_locks":"1"},{"uid":"2585472","lat":"52.23001","lng":"21.01088","name":"Metro Centrum","spot":"1","number":"9519","bikes":"20","bike_racks":"30","free_racks":"10","terminal_type":"7inch","bike_numbers":"24996,24921,24531,28685,28490,28414,27797,27245,27090,27050,26395,26225,25966,25652,25419,25230,29057,28965,96531,29177","bike_types":{"4":20},"place_type":"0","rack_locks":"1"},{"uid":"2585473","lat":"52.229347019086","lng":"21.011314988136","name":"Marsza\u0142kowska - Al. Jerozolimskie","spot":"1","number":"9520","bikes":"11","bike_racks":"20","free_racks":"10","terminal_type":"7inch","bike_numbers":"24780,28253,27767,27653,27611,27179,27036,26585,25644,25304,25088","bike_types":{"4":11},"place_type":"0","rack_locks":"1"},{"uid":"2585476","lat":"52.230418150276","lng":"21.013610959053","name":"al. Jerozolimskie - rejon Rotundy","spot":"1","number":"9521","bikes":"13","bike_racks":"24","free_racks":"5","terminal_type":"7inch","bike_numbers":"24929,28149,28109,27390,26665,25712,25572,25310,29119,29102,96259,96214,96109","bike_types":{"4":13},"place_type":"0","rack_locks":"1"},{"uid":"2585477","lat":"52.2262882","lng":"21.0135705","name":"Marsza\u0142kowska - Ho\u017ca","spot":"1","number":"9522","bikes":"3","bike_racks":"15","free_racks":"9","terminal_type":"7inch","bike_numbers":"24020,27795,25998","bike_types":{"26":1,"4":2},"place_type":"0","rack_locks":"1"},{"uid":"2585492","lat":"52.2282923","lng":"21.0178542","name":"Krucza - Wsp\u00f3lna","spot":"1","number":"9523","bikes":"15","bike_racks":"28","free_racks":"12","terminal_type":"7inch","bike_numbers":"28136,28095,28055,28031,27745,27693,27273,27009,26379,26270,26089,25481,25452,25137,29255","bike_types":{"4":15},"place_type":"0","rack_locks":"1"},{"uid":"2585684","lat":"52.23144","lng":"21.0213036","name":"Rondo de Gaulle'a","spot":"1","number":"9524","bikes":"15","bike_racks":"22","free_racks":"8","terminal_type":"7inch","bike_numbers":"28612,28509,28050,27749,27669,27203,27016,26093,25697,25333,25240,25624,96081,29174,29224","bike_types":{"4":15},"place_type":"0","rack_locks":"1"},{"uid":"2585694","lat":"52.2278487","lng":"21.0235084","name":"Plac Trzech Krzy\u017cy","spot":"1","number":"9525","bikes":"12","bike_racks":"23","free_racks":"12","maintenance":"1","terminal_type":"7inch","bike_numbers":"24999,24716,28648,28404,27707,27399,27266,26200,25350,25327,25215,28838","bike_types":{"4":12},"place_type":"0","rack_locks":"1"},{"uid":"2585695","lat":"52.23324","lng":"21.0261179","name":"Smolna - PKP Powi\u015ble","spot":"1","number":"9526","bikes":"13","bike_racks":"18","free_racks":"3","terminal_type":"7inch","bike_numbers":"24642,28650,28330,28052,27952,27235,26932,26630,25223,25112,29105,28946,96177","bike_types":{"4":13},"place_type":"0","rack_locks":"1"},{"uid":"2585699","lat":"52.2340191","lng":"21.0300328","name":"Herberta - PKP Powi\u015ble","spot":"1","number":"9527","bikes":"29","bike_racks":"26","free_racks":"7","terminal_type":"7inch","bike_numbers":"24973,24875,24859,24459,28639,28528,27757,27615,27590,27486,27418,27007,26999,26851,26573,25725,25532,25142,25132,29106,29036,29448,29554,28888,28918,96304,96191,29153,96589","bike_types":{"4":28,"51":1},"place_type":"0","rack_locks":"1"},{"uid":"2585704","lat":"52.2347879","lng":"21.0340991","name":"Solec - al. 3 Maja","spot":"1","number":"9528","bikes":"21","bike_racks":"24","free_racks":"5","terminal_type":"7inch","bike_numbers":"24015,24009,28741,28472,28342,28312,28123,27828,27473,27424,27319,26734,26145,25911,25704,25034,29431,96487,96122,29168,24049","bike_types":{"26":3,"4":18},"place_type":"0","rack_locks":"1"},{"uid":"2585708","lat":"52.2301405","lng":"21.0303694","name":"Ksi\u0105\u017c\u0119ca - Rozbrat","spot":"1","number":"9529","bikes":"7","bike_racks":"15","free_racks":"6","terminal_type":"7inch","bike_numbers":"28750,28565,28020,26784,25409,25342,28879","bike_types":{"4":7},"place_type":"0","rack_locks":"1"},{"uid":"2585711","lat":"52.2172177","lng":"20.9713608","name":"Szcz\u0119\u015bliwicka - APS","spot":"1","number":"9530","bikes":"8","bike_racks":"22","free_racks":"13","terminal_type":"7inch","bike_numbers":"24805,28674,28150,27463,26736,25866,25583,25563","bike_types":{"4":8},"place_type":"0","rack_locks":"1"},{"uid":"2585712","lat":"52.2179474","lng":"20.9775567","name":"Kopi\u0144ska - Bia\u0142obrzeska","spot":"1","number":"9531","bikes":"3","bike_racks":"15","free_racks":"12","terminal_type":"7inch","bike_numbers":"27312,25487,29203","bike_types":{"4":3},"place_type":"0","rack_locks":"1"},{"uid":"2585714","lat":"52.2178554","lng":"20.9828138","name":"Plac Narutowicza","spot":"1","number":"9532","bikes":"11","bike_racks":"30","free_racks":"18","terminal_type":"7inch","bike_numbers":"28449,25784,25748,25082,25021,29344,29078,28806,28833,28830,96319","bike_types":{"4":11},"place_type":"0","rack_locks":"1"},{"uid":"2585716","lat":"52.216641","lng":"20.9879476","name":"Raszy\u0144ska - Wawelska","spot":"1","number":"9533","bikes":"6","bike_racks":"12","free_racks":"5","terminal_type":"7inch","bike_numbers":"24927,28538,27802,27107,29659,96452","bike_types":{"4":6},"place_type":"0","rack_locks":"1"},{"uid":"2585717","lat":"52.2191029","lng":"20.9890149","name":"Raszy\u0144ska - Filtrowa","spot":"1","number":"9534","bikes":"9","bike_racks":"18","free_racks":"8","terminal_type":"7inch","bike_numbers":"24775,28608,27714,26066,25660,25508,28798,96254,29210","bike_types":{"4":9},"place_type":"0","rack_locks":"1"},{"uid":"2585720","lat":"52.220676","lng":"21.0045554","name":"al. Niepodleg\u0142o\u015bci - Nowowiejska","spot":"1","number":"9535","bikes":"17","bike_racks":"30","free_racks":"13","terminal_type":"7inch","bike_numbers":"27156,27022,26795,26749,26586,26437,26412,26216,26141,26124,25760,25309,25302,96012,96009,96243,96137","bike_types":{"4":17},"place_type":"0","rack_locks":"1"},{"uid":"2585721","lat":"52.2174693","lng":"21.0056537","name":"Kaczy\u0144skiego - al. Niepodleg\u0142o\u015bci","spot":"1","number":"9536","bikes":"6","bike_racks":"16","free_racks":"10","terminal_type":"7inch","bike_numbers":"28764,27788,26828,26786,28849,96472","bike_types":{"4":6},"place_type":"0","rack_locks":"1"},{"uid":"2585722","lat":"52.2226831","lng":"21.0081097","name":"Noakowskiego - Koszykowa","spot":"1","number":"9537","bikes":"17","bike_racks":"24","free_racks":"7","terminal_type":"7inch","bike_numbers":"24920,24739,28664,28398,28083,28008,27883,27297,26913,26369,26308,26028,25474,25313,25064,29032,96115","bike_types":{"4":17},"place_type":"0","rack_locks":"1"},{"uid":"2585724","lat":"52.219916","lng":"21.0116824","name":"Plac Politechniki","spot":"1","number":"9538","bikes":"5","bike_racks":"27","free_racks":"22","terminal_type":"7inch","bike_numbers":"25001,27626,26069,25375,96100","bike_types":{"4":5},"place_type":"0","rack_locks":"1"},{"uid":"2585727","lat":"52.223503","lng":"21.0128519","name":"Pozna\u0144ska - Zesp\u00f3\u0142 Szk\u00f3\u0142 Gastronomicznych","spot":"1","number":"9539","bikes":"2","bike_racks":"18","free_racks":"15","terminal_type":"7inch","bike_numbers":"25197,96586","bike_types":{"4":2},"place_type":"0","rack_locks":"1"},{"uid":"2585728","lat":"52.2174857","lng":"21.0142949","name":"Rondo Jazdy Polskiej","spot":"1","number":"9540","bikes":"7","bike_racks":"24","free_racks":"16","terminal_type":"7inch","bike_numbers":"24831,28598,27586,27348,26696,25283,96082","bike_types":{"4":7},"place_type":"0","rack_locks":"1"},{"uid":"2585729","lat":"52.2197435","lng":"21.0157353","name":"Metro Politechnika - Nowowiejska","spot":"1","number":"9541","bikes":"3","bike_racks":"18","free_racks":"13","terminal_type":"7inch","bike_numbers":"24998,29073,96566","bike_types":{"4":3},"place_type":"0","rack_locks":"1"},{"uid":"2585731","lat":"52.2197681","lng":"21.0172775","name":"Plac Zbawiciela","spot":"1","number":"9542","bikes":"13","bike_racks":"12","free_racks":"0","terminal_type":"7inch","bike_numbers":"24960,24577,28210,28156,27935,27675,27159,27131,26830,26772,26725,96142,96128","bike_types":{"4":13},"place_type":"0","rack_locks":"1"},{"uid":"2585735","lat":"52.2229427","lng":"21.0158211","name":"Plac Konstytucji","spot":"1","number":"9543","bikes":"12","bike_racks":"30","free_racks":"18","terminal_type":"7inch","bike_numbers":"24913,24694,24612,28033,27945,27070,26740,25278,25161,25083,29060,96482","bike_types":{"4":12},"place_type":"0","rack_locks":"1"},{"uid":"2585737","lat":"52.2238152","lng":"21.0207859","name":"Mokotowska - Pi\u0119kna","spot":"1","number":"9544","bikes":"16","bike_racks":"20","free_racks":"4","terminal_type":"7inch","bike_numbers":"24862,24523,28558,28554,28471,28406,28003,27369,26660,26420,26320,25935,25888,25825,25641,96298","bike_types":{"4":16},"place_type":"0","rack_locks":"1"},{"uid":"2585738","lat":"52.2200212","lng":"21.0256299","name":"Plac na Rozdro\u017cu","spot":"1","number":"9545","bikes":"28","bike_racks":"26","free_racks":"0","terminal_type":"7inch","bike_numbers":"24569,24518,28457,28005,27915,27406,27309,27088,26893,26509,26203,26160,26003,25812,25678,25413,25361,25332,25173,28909,29458,25629,28862,28973,96356,96263,96126,29186","bike_types":{"4":28},"place_type":"0","rack_locks":"1"},{"uid":"2585742","lat":"52.2249504","lng":"21.0268155","name":"Matejki - Wiejska","spot":"1","number":"9546","bikes":"6","bike_racks":"20","free_racks":"17","terminal_type":"7inch","bike_numbers":"24026,26563,29347,96211,29182,29223","bike_types":{"26":1,"4":5},"place_type":"0","rack_locks":"1"},{"uid":"2585747","lat":"52.2221129","lng":"21.0343873","name":"My\u015bliwiecka - Rozbrat","spot":"1","number":"9547","bikes":"27","bike_racks":"21","free_racks":"0","terminal_type":"7inch","bike_numbers":"24827,24654,28595,28195,28066,28040,27889,27775,27774,27363,27165,27134,27084,26934,26742,26638,26493,26205,25788,25695,25686,25554,25244,28805,96544,96491,96281","bike_types":{"4":27},"place_type":"0","rack_locks":"1"},{"uid":"2585748","lat":"52.2277124","lng":"21.0442955","name":"Port Czerniakowski","spot":"1","number":"9548","bikes":"13","bike_racks":"30","free_racks":"16","terminal_type":"7inch","bike_numbers":"24699,28723,28660,27803,27732,27610,27521,27328,25773,25384,25051,29128,29251","bike_types":{"4":12,"0":1},"place_type":"0","rack_locks":"1"},{"uid":"2585749","lat":"52.2109711","lng":"20.9759125","name":"Gr\u00f3jecka - Bitwy Warszawskiej 1920 roku","spot":"1","number":"9549","bikes":"6","bike_racks":"20","free_racks":"10","terminal_type":"7inch","bike_numbers":"24542,27525,26910,26898,96024,96527","bike_types":{"4":6},"place_type":"0","rack_locks":"1"},{"uid":"2585750","lat":"52.2130296","lng":"20.9819985","name":"Pasteura - Winnicka - UW","spot":"1","number":"9550","bikes":"3","bike_racks":"24","free_racks":"21","terminal_type":"7inch","bike_numbers":"25969,96498,96459","bike_types":{"4":3},"place_type":"0","rack_locks":"1"},{"uid":"2585762","lat":"52.2107722","lng":"20.9847557","name":"Stefana Banacha - UW","spot":"1","number":"9551","bikes":"7","bike_racks":"29","free_racks":"20","terminal_type":"7inch","bike_numbers":"24753,24475,28708,27064,26878,25983,60854","bike_types":{"4":6,"51":1},"place_type":"0","rack_locks":"1"},{"uid":"2585764","lat":"52.212671","lng":"21.003437","name":"Biblioteka Narodowa","spot":"1","number":"9552","bikes":"6","bike_racks":"24","free_racks":"14","terminal_type":"7inch","bike_numbers":"24806,24664,28121,27811,26885,25255","bike_types":{"4":6},"place_type":"0","rack_locks":"1"},{"uid":"2585766","lat":"52.21691","lng":"21.01997","name":"Marsza\u0142kowska - Litewska","spot":"1","number":"9553","bikes":"6","bike_racks":"15","free_racks":"9","terminal_type":"7inch","bike_numbers":"24940,28390,25982,25476,25451,25074","bike_types":{"4":6},"place_type":"0","rack_locks":"1"},{"uid":"2585770","lat":"52.2083858","lng":"20.9631103","name":"P\u0119tla Szcz\u0119\u015bliwice","spot":"1","number":"9554","bikes":"4","bike_racks":"19","free_racks":"10","terminal_type":"7inch","bike_numbers":"24668,24033,28757,28624","bike_types":{"4":3,"26":1},"place_type":"0","rack_locks":"1"},{"uid":"2585771","lat":"52.206153650625","lng":"20.970287919044","name":"Dickensa - Geodet\u00f3w","spot":"1","number":"9555","bikes":"1","bike_racks":"16","free_racks":"14","terminal_type":"7inch","bike_numbers":"26490","bike_types":{"4":1},"place_type":"0","rack_locks":"1"},{"uid":"2585772","lat":"52.205361371875","lng":"20.984664559364","name":"\u017bwirki i Wigury - Ksi\u0119cia Trojdena","spot":"1","number":"9556","bikes":"7","bike_racks":"17","free_racks":"11","terminal_type":"7inch","bike_numbers":"27639,27081,25640,25634,25398,29123,96092","bike_types":{"4":6,"0":1},"place_type":"0","rack_locks":"1"},{"uid":"2585774","lat":"52.205801893754","lng":"20.998928546906","name":"Rakowiecka - \u015aw. A. Boboli","spot":"1","number":"9557","bikes":"5","bike_racks":"17","free_racks":"12","terminal_type":"7inch","bike_numbers":"24961,24850,26895,26322,26046","bike_types":{"4":5},"place_type":"0","rack_locks":"1"},{"uid":"2585776","lat":"52.209916","lng":"21.0067794","name":"al. Niepodleg\u0142o\u015bci - Batorego","spot":"1","number":"9558","bikes":"10","bike_racks":"26","free_racks":"16","terminal_type":"7inch","bike_numbers":"24905,28413,28216,28038,27726,27283,26007,25938,28916,28813","bike_types":{"4":10},"place_type":"0","rack_locks":"1"},{"uid":"2585779","lat":"52.2132375","lng":"21.0210568","name":"Plac Unii Lubelskiej","spot":"1","number":"9559","bikes":"18","bike_racks":"24","free_racks":"5","terminal_type":"7inch","bike_numbers":"24844,24758,28604,28127,27869,27271,26271,25898,25793,25573,25444,25315,25175,25022,28860,28856,96490,96117","bike_types":{"4":18},"place_type":"0","rack_locks":"1"},{"uid":"2585781","lat":"52.2027557","lng":"20.9508951","name":"W\u0142odarzewska - Maszynowa","spot":"1","number":"9560","bikes":"3","bike_racks":"18","free_racks":"14","terminal_type":"7inch","bike_numbers":"27057,26178,29076","bike_types":{"4":3},"place_type":"0","rack_locks":"1"},{"uid":"2585782","lat":"52.2017647","lng":"20.9820897","name":"Sanocka - Pruszkowska","spot":"1","number":"9561","bikes":"3","bike_racks":"15","free_racks":"13","terminal_type":"7inch","bike_numbers":"27748,26975,26894","bike_types":{"4":3},"place_type":"0","rack_locks":"1"},{"uid":"2585785","lat":"52.1981365","lng":"20.9833717","name":"\u017bwirki i Wigury - Rac\u0142awicka","spot":"1","number":"9562","bikes":"1","bike_racks":"18","free_racks":"15","terminal_type":"7inch","bike_numbers":"25354","bike_types":{"4":1},"place_type":"0","rack_locks":"1"},{"uid":"2585787","lat":"52.20177","lng":"20.99969","name":"Wo\u0142oska - Kulskiego","spot":"1","number":"9563","bikes":"4","bike_racks":"15","free_racks":"9","terminal_type":"7inch","bike_numbers":"27368,27046,25308,25199","bike_types":{"4":4},"place_type":"0","rack_locks":"1"},{"uid":"2585788","lat":"52.2042638","lng":"21.014428","name":"Madali\u0144skiego - Kazimierzowska","spot":"1","number":"9564","bikes":"8","bike_racks":"24","free_racks":"12","terminal_type":"7inch","bike_numbers":"24534,27091,26875,26809,26753,26580,25484,25072","bike_types":{"4":8},"place_type":"0","rack_locks":"1"},{"uid":"2585789","lat":"52.2055175","lng":"21.0231033","name":"Pu\u0142awska - Dworkowa","spot":"1","number":"9565","bikes":"14","bike_racks":"19","free_racks":"10","terminal_type":"7inch","bike_numbers":"24526,28802,27926,27468,27410,27362,27132,26982,26218,26077,25837,25720,29081,96523","bike_types":{"4":14},"place_type":"0","rack_locks":"1"},{"uid":"2585790","lat":"52.2071756","lng":"21.0312643","name":"Belwederska - Gagarina","spot":"1","number":"9566","bikes":"37","bike_racks":"30","free_racks":"5","terminal_type":"7inch","bike_numbers":"24795,24627,24601,24524,28752,28713,28615,28586,28546,28469,28375,28360,28324,28140,27637,27391,27382,27318,27288,27251,26724,26714,26603,26598,26512,26406,26057,25824,25754,25703,25337,25331,29065,28895,96033,96270,96209","bike_types":{"4":37},"place_type":"0","rack_locks":"1"},{"uid":"2585791","lat":"52.2074193","lng":"21.0479621","name":"Czerniakowska - Gagarina","spot":"1","number":"9567","bikes":"42","bike_racks":"25","free_racks":"6","terminal_type":"7inch","bike_numbers":"24854,24811,24767,24645,24607,24031,28668,28570,28355,28341,27932,27866,27826,27801,27711,27660,27510,27496,27483,27343,27302,26889,26732,26710,26462,26167,26042,26030,25990,25870,25589,25523,25454,25212,25086,29083,29362,63613,96426,96316,96225,96094","bike_types":{"4":41,"26":1},"place_type":"0","rack_locks":"1"},{"uid":"2585794","lat":"52.1938131","lng":"20.9914431","name":"Etiudy Rewolucyjnej - Mi\u0105czy\u0144ska","spot":"1","number":"9568","bikes":"9","bike_racks":"18","free_racks":"7","terminal_type":"7inch","bike_numbers":"24754,27549,27164,27125,26382,26356,26170,25775,25011","bike_types":{"4":9},"place_type":"0","rack_locks":"1"},{"uid":"2585799","lat":"52.1994156","lng":"21.0121384","name":"Metro Rac\u0142awicka","spot":"1","number":"9570","bikes":"15","bike_racks":"30","free_racks":"15","terminal_type":"7inch","bike_numbers":"24853,24718,24622,24584,28589,28504,28443,28422,27841,27787,26919,26208,26125,26113,25059","bike_types":{"4":15},"place_type":"0","rack_locks":"1"},{"uid":"2585800","lat":"52.199505","lng":"21.0240975","name":"Pu\u0142awska - Dolna","spot":"1","number":"9571","bikes":"7","bike_racks":"18","free_racks":"9","terminal_type":"7inch","bike_numbers":"24953,27555,26571,26239,25408,25178,28924","bike_types":{"4":7},"place_type":"0","rack_locks":"1"},{"uid":"2585802","lat":"52.2014754","lng":"21.0360047","name":"Sobieskiego - Che\u0142mska","spot":"1","number":"9572","bikes":"14","bike_racks":"15","free_racks":"6","terminal_type":"7inch","bike_numbers":"24873,24671,24042,28729,27941,27582,27398,27392,26299,26264,25015,29129,29137,96447","bike_types":{"4":11,"26":1,"0":2},"place_type":"0","rack_locks":"1"},{"uid":"2585804","lat":"52.1998446","lng":"21.05095","name":"Czerniakowska - ZUS","spot":"1","number":"9573","bikes":"4","bike_racks":"15","free_racks":"10","terminal_type":"7inch","bike_numbers":"28659,28030,96457,29158","bike_types":{"4":4},"place_type":"0","rack_locks":"1"},{"uid":"2585807","lat":"52.1916776","lng":"20.8689688","name":"PKP Ursus-Nied\u017awiadek","spot":"1","number":"9574","bikes":"3","bike_racks":"15","free_racks":"13","terminal_type":"7inch","bike_numbers":"24016,27598,29452","bike_types":{"26":1,"4":2},"place_type":"0","rack_locks":"1"},{"uid":"2585808","lat":"52.1960469","lng":"20.8849347","name":"PKP Ursus","spot":"1","number":"9575","bikes":"8","bike_racks":"16","free_racks":"8","terminal_type":"7inch","bike_numbers":"28287,28122,27569,27485,27205,26805,25256,29110","bike_types":{"4":8},"place_type":"0","rack_locks":"1"},{"uid":"2585809","lat":"52.1869936","lng":"20.8906478","name":"Sosnkowskiego - OSiR Ursus","spot":"1","number":"9576","bikes":"9","bike_racks":"15","free_racks":"6","terminal_type":"7inch","bike_numbers":"24576,28336,28037,27247,27217,27118,25786,28921,96236","bike_types":{"4":9},"place_type":"0","rack_locks":"1"},{"uid":"2585811","lat":"52.2005548","lng":"20.8937538","name":"Ursus-Ratusz","spot":"1","number":"9577","bikes":"9","bike_racks":"15","free_racks":"3","terminal_type":"7inch","bike_numbers":"24866,24541,28905,27116,26602,25533,25165,96116,29240","bike_types":{"4":9},"place_type":"0","rack_locks":"1"},{"uid":"2585814","lat":"52.1906376","lng":"20.8999443","name":"Skoroszewska - Prystora","spot":"1","number":"9578","bikes":"9","bike_racks":"17","free_racks":"5","terminal_type":"7inch","bike_numbers":"28704,28387,28258,28211,27825,26708,25924,25794,25189","bike_types":{"4":9},"place_type":"0","rack_locks":"1"},{"uid":"2585817","lat":"52.1882609","lng":"20.9603771","name":"G\u0142adka - OSiR W\u0142ochy","spot":"1","number":"9579","bikes":"3","bike_racks":"16","free_racks":"12","terminal_type":"7inch","bike_numbers":"28110,26778,25194","bike_types":{"4":3},"place_type":"0","rack_locks":"1"},{"uid":"2585820","lat":"52.2056441","lng":"20.9159142","name":"PKP W\u0142ochy","spot":"1","number":"9580","bikes":"11","bike_racks":"17","free_racks":"6","terminal_type":"7inch","bike_numbers":"24935,24036,28591,28491,27139,27092,26715,96422,96390,96345,29173","bike_types":{"4":10,"54":1},"place_type":"0","rack_locks":"1"},{"uid":"2585821","lat":"52.2012157","lng":"20.9353145","name":"al. Jerozolimskie - Popularna","spot":"1","number":"9581","bikes":"7","bike_racks":"17","free_racks":"10","terminal_type":"7inch","bike_numbers":"24724,28135,27624,25193,25117,28848,96246","bike_types":{"4":7},"place_type":"0","rack_locks":"1"},{"uid":"2585824","lat":"52.1924709","lng":"20.9596664","name":"W\u0142ochy-Ratusz","spot":"1","number":"9582","bikes":"13","bike_racks":"14","free_racks":"5","terminal_type":"7inch","bike_numbers":"24496,28582,28417,28112,27142,27093,26583,26474,26209,25962,25708,28914,96542","bike_types":{"51":1,"4":12},"place_type":"0","rack_locks":"1"},{"uid":"2585825","lat":"52.1946888","lng":"20.9667823","name":"1 Sierpnia - DK W\u0142ochy","spot":"1","number":"9583","bikes":"8","bike_racks":"15","free_racks":"8","terminal_type":"7inch","bike_numbers":"24666,28572,28115,26399,26164,26001,25859,25420","bike_types":{"4":8},"place_type":"0","rack_locks":"1"},{"uid":"2585827","lat":"52.1888962","lng":"21.0175887","name":"Metro Wierzbno","spot":"1","number":"9584","bikes":"3","bike_racks":"20","free_racks":"10","terminal_type":"7inch","bike_numbers":"24744,27597,25669","bike_types":{"4":3},"place_type":"0","rack_locks":"1"},{"uid":"2585830","lat":"52.18648","lng":"21.02538","name":"Pu\u0142awska - Idzikowskiego","spot":"1","number":"9585","bikes":"9","bike_racks":"17","free_racks":"8","terminal_type":"7inch","bike_numbers":"24956,24868,24593,28892,26587,26436,26422,26309,25378","bike_types":{"4":9},"place_type":"0","rack_locks":"1"},{"uid":"2585835","lat":"52.1882861","lng":"21.0498825","name":"Sobieskiego - Mangalia","spot":"1","number":"9586","bikes":"14","bike_racks":"15","free_racks":"4","terminal_type":"7inch","bike_numbers":"28018,27951,27891,27246,27244,26409,26190,26146,25823,25701,25395,28872,28975,96562","bike_types":{"4":14},"place_type":"0","rack_locks":"1"},{"uid":"2585837","lat":"52.178777","lng":"21.0016387","name":"Wo\u0142oska - Marynarska","spot":"1","number":"9588","bikes":"15","bike_racks":"26","free_racks":"11","terminal_type":"7inch","bike_numbers":"24719,24571,28869,28817,27964,27913,27909,27409,27252,26387,26367,25314,25098,28981,28933","bike_types":{"4":15},"place_type":"0","rack_locks":"1"},{"uid":"2585838","lat":"52.1800882","lng":"21.0207403","name":"al. Niepodleg\u0142o\u015bci - al. Wilanowska","spot":"1","number":"9589","bikes":"10","bike_racks":"22","free_racks":"10","terminal_type":"7inch","bike_numbers":"24781,28412,28107,26294,25501,25235,28941,29454,28778,29275","bike_types":{"4":10},"place_type":"0","rack_locks":"1"},{"uid":"2585839","lat":"52.1779163","lng":"21.049562","name":"P\u0119tla Stegny","spot":"1","number":"9590","bikes":"11","bike_racks":"23","free_racks":"16","terminal_type":"7inch","bike_numbers":"28903,28520,28010,27878,26905,26711,26184,25546,28938,28969,29206","bike_types":{"4":11},"place_type":"0","rack_locks":"1"},{"uid":"2585843","lat":"52.1818472","lng":"21.0562822","name":"Sobieskiego - \u015bw. Bonifacego","spot":"1","number":"9591","bikes":"8","bike_racks":"22","free_racks":"12","terminal_type":"7inch","bike_numbers":"28698,28535,27243,26441,25944,25234,96533,96157","bike_types":{"4":8},"place_type":"0","rack_locks":"1"},{"uid":"2585844","lat":"52.1702836","lng":"20.9959132","name":"P\u0119tla Bokserska","spot":"1","number":"9592","bikes":"9","bike_racks":"15","free_racks":"9","terminal_type":"7inch","bike_numbers":"24974,24954,28666,28048,26728,26019,25988,25491,29055","bike_types":{"4":9},"place_type":"0","rack_locks":"1"},{"uid":"2585846","lat":"52.1710498","lng":"21.0059144","name":"Gintrowskiego - Gotarda","spot":"1","number":"9593","bikes":"4","bike_racks":"15","free_racks":"10","terminal_type":"7inch","bike_numbers":"24674,24582,28334,26386","bike_types":{"4":4},"place_type":"0","rack_locks":"1"},{"uid":"2585848","lat":"52.174435","lng":"21.0128814","name":"al. Lotnik\u00f3w - Kaczmarskiego","spot":"1","number":"9594","bikes":"23","bike_racks":"30","free_racks":"5","terminal_type":"7inch","bike_numbers":"24515,24489,28621,28495,27880,27829,27806,27656,27621,27117,26507,26311,26087,26072,25833,25584,25482,25273,25171,25124,29084,28945,96261","bike_types":{"4":22,"51":1},"place_type":"0","rack_locks":"1"},{"uid":"2585850","lat":"52.1733132","lng":"21.0257305","name":"Metro S\u0142u\u017cew","spot":"1","number":"9595","bikes":"3","bike_racks":"24","free_racks":"21","terminal_type":"7inch","bike_numbers":"28400,26818,96049","bike_types":{"4":3},"place_type":"0","rack_locks":"1"},{"uid":"2585853","lat":"52.17343","lng":"21.03179","name":"Wa\u0142brzyska - Wr\u00f3bla","spot":"1","number":"9596","bikes":"10","bike_racks":"30","free_racks":"19","terminal_type":"7inch","bike_numbers":"24851,24546,28634,28580,26914,26904,26280,25849,25576,28847","bike_types":{"4":10},"place_type":"0","rack_locks":"1"},{"uid":"2585856","lat":"52.170135","lng":"21.0685748","name":"Jana III Sobieskiego - al. Wilanowska","spot":"1","number":"9597","bikes":"11","bike_racks":"15","free_racks":"1","terminal_type":"7inch","bike_numbers":"28631,27524,27407,26624,26418,26038,25377,25242,29024,96104,29170","bike_types":{"4":11},"place_type":"0","rack_locks":"1"},{"uid":"2585860","lat":"52.1655879","lng":"21.0839331","name":"al. Wilanowska - Przycz\u00f3\u0142kowa","spot":"1","number":"9598","bikes":"1","bike_racks":"16","free_racks":"15","terminal_type":"7inch","bike_numbers":"26646","bike_types":{"4":1},"place_type":"0","rack_locks":"1"},{"uid":"2585863","lat":"52.16479","lng":"21.10925","name":"Vogla - Syta","spot":"1","number":"9599","bikes":"9","bike_racks":"16","free_racks":"6","terminal_type":"7inch","bike_numbers":"24791,28497,27227,27095,26668,26434,26389,28810,28881","bike_types":{"4":9},"place_type":"0","rack_locks":"1"},{"uid":"2585868","lat":"52.1606257","lng":"21.0723245","name":"al. Rzeczypospolitej - Klimczaka","spot":"1","number":"9600","bikes":"15","bike_racks":"16","free_racks":"7","terminal_type":"7inch","bike_numbers":"24792,28640,28349,27676,27402,27228,26899,26324,25839,25818,25291,25024,28967,96403,96175","bike_types":{"4":15},"place_type":"0","rack_locks":"1"},{"uid":"2585871","lat":"52.1569168","lng":"21.0760903","name":"al. Rzeczypospolitej - Branickiego","spot":"1","number":"9601","bikes":"7","bike_racks":"16","free_racks":"13","terminal_type":"7inch","bike_numbers":"24690,27923,27618,27389,25699,25225,29131","bike_types":{"4":6,"0":1},"place_type":"0","rack_locks":"1"},{"uid":"2585872","lat":"52.1593735","lng":"21.086449","name":"Przycz\u00f3\u0142kowa - Branickiego","spot":"1","number":"9602","bikes":"7","bike_racks":"16","free_racks":"8","terminal_type":"7inch","bike_numbers":"28901,27988,27306,27241,26230,25094,29349","bike_types":{"4":7},"place_type":"0","rack_locks":"1"},{"uid":"2585873","lat":"52.1618136","lng":"21.0277355","name":"Metro Ursyn\u00f3w II","spot":"1","number":"9603","bikes":"28","bike_racks":"30","free_racks":"2","terminal_type":"7inch","bike_numbers":"24697,24626,24605,24540,28803,28489,28433,28051,27364,26873,26609,26532,26499,26403,26376,26304,26258,26180,26108,25885,25806,25556,25550,29040,29035,28877,96038,96405","bike_types":{"4":28},"place_type":"0","rack_locks":"1"},{"uid":"2585875","lat":"52.1622579","lng":"21.0280761","name":"Metro Ursyn\u00f3w I","spot":"1","number":"9604","bikes":"21","bike_racks":"30","free_racks":"12","terminal_type":"7inch","bike_numbers":"28389,28251,27276,27192,27104,27075,27055,27027,26760,25649,25272,25228,25153,25111,29346,96053,96526,96399,96388,96282,96251","bike_types":{"4":21},"place_type":"0","rack_locks":"1"},{"uid":"2585876","lat":"52.162401","lng":"21.0383811","name":"Jastrz\u0119bowskiego - SGGW","spot":"1","number":"9605","bikes":"22","bike_racks":"28","free_racks":"5","terminal_type":"7inch","bike_numbers":"24748,28696,28663,28505,28468,28376,28361,28359,27851,27739,27648,27352,26935,26845,26713,26364,25796,25439,25326,25319,25027,96465","bike_types":{"4":22},"place_type":"0","rack_locks":"1"},{"uid":"2585880","lat":"52.1557534","lng":"21.0232776","name":"Romera - Pieciolinii","spot":"1","number":"9606","bikes":"14","bike_racks":"16","free_racks":"0","terminal_type":"7inch","bike_numbers":"24981,24894,28622,28403,27919,27855,27559,27547,26669,26155,26008,28896,28966,96220","bike_types":{"4":14},"place_type":"0","rack_locks":"1"},{"uid":"2585883","lat":"52.1568674","lng":"21.0338401","name":"Metro Stok\u0142osy","spot":"1","number":"9607","bikes":"18","bike_racks":"27","free_racks":"12","terminal_type":"7inch","bike_numbers":"24892,24702,24656,24554,28377,28144,27987,27761,27373,25850,25789,25610,25582,25109,29064,28939,63629,96338","bike_types":{"4":18},"place_type":"0","rack_locks":"1"},{"uid":"2585885","lat":"52.1572887","lng":"21.0440084","name":"Roso\u0142a - Ciszewskiego - SGGW","spot":"1","number":"9608","bikes":"14","bike_racks":"30","free_racks":"16","terminal_type":"7inch","bike_numbers":"24975,24887,24817,24708,24517,28343,28092,27927,27495,26776,26004,25494,28835,96435","bike_types":{"4":14},"place_type":"0","rack_locks":"1"},{"uid":"2585888","lat":"52.1521429","lng":"21.0181224","name":"Pu\u0142awska - Pileckiego","spot":"1","number":"9609","bikes":"21","bike_racks":"22","free_racks":"3","terminal_type":"7inch","bike_numbers":"24922,24741,24624,28445,28416,28001,27938,27896,27879,26664,26637,26589,26053,25817,25495,25174,25138,29114,28994,96504,96106","bike_types":{"4":21},"place_type":"0","rack_locks":"1"},{"uid":"2585893","lat":"52.1495064","lng":"21.0332527","name":"Ciszewskiego - Pileckiego","spot":"1","number":"9610","bikes":"10","bike_racks":"22","free_racks":"11","terminal_type":"7inch","bike_numbers":"28749,28298,28214,26156,25561,25489,29053,28983,96312,96195","bike_types":{"4":10},"place_type":"0","rack_locks":"1"},{"uid":"2585894","lat":"52.1549453","lng":"21.0492977","name":"Roso\u0142a - Gandhi","spot":"1","number":"9611","bikes":"4","bike_racks":"22","free_racks":"15","terminal_type":"7inch","bike_numbers":"24640,24021,28311,29660","bike_types":{"4":3,"26":1},"place_type":"0","rack_locks":"1"},{"uid":"2585897","lat":"52.1493105","lng":"21.0453361","name":"Metro Imielin","spot":"1","number":"9612","bikes":"21","bike_racks":"22","free_racks":"0","terminal_type":"7inch","bike_numbers":"24698,24011,28689,28383,28340,28338,28131,27961,27741,27599,27529,27211,27053,26285,26186,26070,25528,25251,29359,96010,96552","bike_types":{"4":20,"26":1},"place_type":"0","rack_locks":"1"},{"uid":"2585899","lat":"52.1522333","lng":"21.0563922","name":"Roso\u0142a - Weso\u0142a","spot":"1","number":"9613","bikes":"7","bike_racks":"23","free_racks":"16","terminal_type":"7inch","bike_numbers":"24544,27068,26748,26652,25010,29096,63615","bike_types":{"4":7},"place_type":"0","rack_locks":"1"},{"uid":"2585901","lat":"52.1427201","lng":"21.0383624","name":"Pileckiego - Alternatywy","spot":"1","number":"9614","bikes":"33","bike_racks":"30","free_racks":"3","terminal_type":"7inch","bike_numbers":"24985,24886,28683,28645,28466,28002,27992,27897,27831,27823,27694,27583,27154,27043,27025,26993,26726,26574,26494,26345,26333,26126,26094,25867,25718,25692,25502,25426,25285,25045,25628,96230,96226","bike_types":{"4":33},"place_type":"0","rack_locks":"1"},{"uid":"2585902","lat":"52.142735","lng":"21.0448131","name":"Dereniowa - P\u0142askowickiej","spot":"1","number":"9615","bikes":"17","bike_racks":"22","free_racks":"4","terminal_type":"7inch","bike_numbers":"24803,24691,28818,28613,28436,28366,28326,28015,27719,27588,26341,26114,25954,25908,25274,96394,96234","bike_types":{"4":17},"place_type":"0","rack_locks":"1"},{"uid":"2585904","lat":"52.1376039","lng":"21.0505531","name":"Stryje\u0144skich - Belgradzka","spot":"1","number":"9616","bikes":"13","bike_racks":"15","free_racks":"1","terminal_type":"7inch","bike_numbers":"24984,28722,28059,27981,27770,27353,27032,26557,25901,25665,25224,25065,63628","bike_types":{"4":13},"place_type":"0","rack_locks":"1"},{"uid":"2585905","lat":"52.1403909","lng":"21.0568187","name":"Metro Natolin","spot":"1","number":"9617","bikes":"5","bike_racks":"30","free_racks":"23","terminal_type":"7inch","bike_numbers":"28592,26421,26344,28893,96184","bike_types":{"4":5},"place_type":"0","rack_locks":"1"},{"uid":"2585906","lat":"52.1420749","lng":"21.0659905","name":"Belgradzka - Roso\u0142a","spot":"1","number":"9618","bikes":"10","bike_racks":"23","free_racks":"11","terminal_type":"7inch","bike_numbers":"24715,28282,27635,27434,26504,25981,25557,60867,96421,96162","bike_types":{"4":10},"place_type":"0","rack_locks":"1"},{"uid":"2585908","lat":"52.1314333","lng":"21.0561562","name":"Stryje\u0144skich - W\u0105wozowa","spot":"1","number":"9619","bikes":"18","bike_racks":"23","free_racks":"0","terminal_type":"7inch","bike_numbers":"24942,28372,28221,28099,27585,27507,26427,26212,26074,25964,25735,25636,25490,25424,25246,25236,29141,96040","bike_types":{"4":17,"0":1},"place_type":"0","rack_locks":"1"},{"uid":"2585911","lat":"52.3326052","lng":"20.9418404","name":"Ordon\u00f3wny - \u015awiatowida","spot":"1","number":"9620","bikes":"5","bike_racks":"22","free_racks":"19","terminal_type":"7inch","bike_numbers":"24743,24713,27450,26954,96481","bike_types":{"4":5},"place_type":"0","rack_locks":"1"},{"uid":"2585913","lat":"52.1310925","lng":"21.0654795","name":"Metro Kabaty","spot":"1","number":"9621","bikes":"0","bike_racks":"22","free_racks":"22","terminal_type":"7inch","place_type":"0","rack_locks":"1","bike_numbers":null,"bike_types":[]},{"uid":"2585916","lat":"52.1332642","lng":"21.0747962","name":"W\u0105wozowa - Roso\u0142a","spot":"1","number":"9622","bikes":"10","bike_racks":"18","free_racks":"7","terminal_type":"7inch","bike_numbers":"27905,26350,26096,26051,25893,25874,25392,25185,29656,96364","bike_types":{"4":10},"place_type":"0","rack_locks":"1"},{"uid":"2585917","lat":"52.324116","lng":"21.05663","name":"Skarbka z G\u00f3r - Berensona","spot":"1","number":"9623","bikes":"15","bike_racks":"26","free_racks":"11","terminal_type":"7inch","bike_numbers":"28657,28587,28440,28350,28277,28090,28067,27821,27680,26881,25591,25587,25146,29130,29246","bike_types":{"4":14,"0":1},"place_type":"0","rack_locks":"1"},{"uid":"2585919","lat":"52.3485329","lng":"20.9418336","name":"Aluzyjna - Tr\u0105by","spot":"1","number":"9624","bikes":"5","bike_racks":"16","free_racks":"11","terminal_type":"7inch","bike_numbers":"24833,28653,27167,25841,25506","bike_types":{"4":5},"place_type":"0","rack_locks":"1"},{"uid":"2585920","lat":"52.3226982","lng":"20.9448107","name":"\u015awiatowida - Mehoffera","spot":"1","number":"9625","bikes":"7","bike_racks":"16","free_racks":"6","terminal_type":"7inch","bike_numbers":"28628,27412,27335,26802,25986,96372,96327","bike_types":{"4":7},"place_type":"0","rack_locks":"1"},{"uid":"2585921","lat":"52.3212548","lng":"20.9477347","name":"Bia\u0142o\u0142\u0119cki O\u015brodek Sportu","spot":"1","number":"9626","bikes":"13","bike_racks":"30","free_racks":"16","terminal_type":"7inch","bike_numbers":"24597,28606,28524,28426,27895,27721,27519,27415,26551,26489,26461,29373,96078","bike_types":{"4":13},"place_type":"0","rack_locks":"1"},{"uid":"2585922","lat":"52.3211272","lng":"20.9712964","name":"Bia\u0142o\u0142\u0119ka-Ratusz","spot":"1","number":"9627","bikes":"16","bike_racks":"19","free_racks":"5","terminal_type":"7inch","bike_numbers":"24993,24950,24900,24504,28771,28562,27986,27359,27168,26835,26759,25646,29045,96257,96249,96138","bike_types":{"4":16},"place_type":"0","rack_locks":"1"},{"uid":"2585924","lat":"52.3132981","lng":"20.9655324","name":"My\u015bliborska - al. Kukli\u0144skiego","spot":"1","number":"9628","bikes":"15","bike_racks":"22","free_racks":"0","terminal_type":"7inch","bike_numbers":"24677,28308,27902,27673,27587,27357,26967,26763,25592,25577,25564,96522,96190,29181,29270","bike_types":{"4":15},"place_type":"0","rack_locks":"1"},{"uid":"2585925","lat":"52.3031984","lng":"20.9891666","name":"Modli\u0144ska - \u017bera\u0144ska","spot":"1","number":"9629","bikes":"18","bike_racks":"30","free_racks":"9","terminal_type":"7inch","bike_numbers":"24849,24560,28651,28533,27854,27704,27080,26941,26678,26445,26188,25092,29125,29139,96480,96396,96129,29254","bike_types":{"4":16,"0":2},"place_type":"0","rack_locks":"1"},{"uid":"2585926","lat":"52.3150181","lng":"21.0610807","name":"Skarbka z G\u00f3r - Magiczna","spot":"1","number":"9630","bikes":"9","bike_racks":"30","free_racks":"20","terminal_type":"7inch","bike_numbers":"24573,28699,28583,27360,27115,26827,26163,25376,96103","bike_types":{"4":9},"place_type":"0","rack_locks":"1"},{"uid":"2585928","lat":"52.3000268","lng":"21.0425266","name":"P\u0119tla Br\u00f3dno - Podgrodzie","spot":"1","number":"9631","bikes":"8","bike_racks":"16","free_racks":"7","terminal_type":"7inch","bike_numbers":"28484,28420,27954,27914,27323,26505,26396,25821","bike_types":{"4":8},"place_type":"0","rack_locks":"1"},{"uid":"2585929","lat":"52.2939957","lng":"21.0272258","name":"Rembieli\u0144ska - Kondratowicza","spot":"1","number":"9632","bikes":"5","bike_racks":"23","free_racks":"18","terminal_type":"7inch","bike_numbers":"24700,27962,27367,26027,29144","bike_types":{"4":4,"0":1},"place_type":"0","rack_locks":"1"},{"uid":"2585931","lat":"52.2917236","lng":"21.0481189","name":"Targ\u00f3wek-Ratusz","spot":"1","number":"9633","bikes":"3","bike_racks":"22","free_racks":"19","terminal_type":"7inch","bike_numbers":"26820,25552,96577","bike_types":{"4":3},"place_type":"0","rack_locks":"1"},{"uid":"2585932","lat":"52.292208","lng":"21.0419554","name":"Kondratowicza - Chodecka","spot":"1","number":"9634","bikes":"11","bike_racks":"23","free_racks":"8","terminal_type":"7inch","bike_numbers":"28378,27872,27454,27439,27249,26824,26362,25356,29046,29243,29241","bike_types":{"4":11},"place_type":"0","rack_locks":"1"},{"uid":"2585934","lat":"52.2925145","lng":"21.0573949","name":"Kondratowicza - Przy Grodzisku","spot":"1","number":"9635","bikes":"9","bike_racks":"18","free_racks":"8","terminal_type":"7inch","bike_numbers":"24842,28402,28278,27342,26866,26106,25815,29075,96212","bike_types":{"4":9},"place_type":"0","rack_locks":"1"},{"uid":"2585936","lat":"52.2878069","lng":"21.0213829","name":"Wysockiego - Poborza\u0144ska","spot":"1","number":"9636","bikes":"18","bike_racks":"23","free_racks":"10","terminal_type":"7inch","bike_numbers":"24600,28758,28064,28016,27574,27300,27290,27127,27122,26879,26305,25997,25738,25601,25551,29112,29043,29219","bike_types":{"4":18},"place_type":"0","rack_locks":"1"},{"uid":"2585937","lat":"52.2885915","lng":"21.0310087","name":"Rembieli\u0144ska - Wyszogrodzka","spot":"1","number":"9637","bikes":"18","bike_racks":"30","free_racks":"6","terminal_type":"7inch","bike_numbers":"24977,24490,28461,28352,28075,27929,27576,27546,27498,26527,26152,26058,25928,96030,96536,96368,29178,29280","bike_types":{"4":17,"51":1},"place_type":"0","rack_locks":"1"},{"uid":"2585938","lat":"52.2864841","lng":"21.0401998","name":"Chodecka - \u017buromi\u0144ska","spot":"1","number":"9638","bikes":"5","bike_racks":"15","free_racks":"9","terminal_type":"7inch","bike_numbers":"24606,27584,26854,29108,96539","bike_types":{"4":5},"place_type":"0","rack_locks":"1"},{"uid":"2585939","lat":"52.281231017533","lng":"21.025852560997","name":"Wysockiego - Matki Teresy z Kalkuty","spot":"1","number":"9639","bikes":"18","bike_racks":"17","free_racks":"0","terminal_type":"7inch","bike_numbers":"24761,24676,28529,28302,28078,27805,27366,27333,27294,26940,26221,26173,24498,29132,96023,96291,29276,29238","bike_types":{"4":16,"51":1,"0":1},"place_type":"0","rack_locks":"1"},{"uid":"2585941","lat":"52.2835693","lng":"21.0720858","name":"Blokowa - DK Zacisze","spot":"1","number":"9640","bikes":"13","bike_racks":"18","free_racks":"4","terminal_type":"7inch","bike_numbers":"24516,28085,27862,27443,27261,27024,26973,25513,96574,96161,96132,29247,29234","bike_types":{"4":13},"place_type":"0","rack_locks":"1"},{"uid":"2585942","lat":"52.276259","lng":"21.0530748","name":"P\u0119tla Targ\u00f3wek","spot":"1","number":"9641","bikes":"8","bike_racks":"22","free_racks":"13","terminal_type":"7inch","bike_numbers":"28267,27550,27493,26642,26352,26275,25968,25724","bike_types":{"4":8},"place_type":"0","rack_locks":"1"},{"uid":"2585943","lat":"52.27139","lng":"21.01566","name":"Jagiello\u0144ska - ALK","spot":"1","number":"9642","bikes":"12","bike_racks":"16","free_racks":"7","terminal_type":"7inch","bike_numbers":"24675,28584,28569,28218,27616,27018,26590,26143,25075,29422,96037,29180","bike_types":{"4":12},"place_type":"0","rack_locks":"1"},{"uid":"2585947","lat":"52.2694683","lng":"21.0499817","name":"Ossowskiego","spot":"1","number":"9644","bikes":"8","bike_racks":"17","free_racks":"10","terminal_type":"7inch","bike_numbers":"24695,28158,28138,26530,26115,25906,25553,29030","bike_types":{"4":8},"place_type":"0","rack_locks":"1"},{"uid":"2585951","lat":"52.272602123161","lng":"21.063210368156","name":"Radzymi\u0144ska -Trocka","spot":"1","number":"9645","bikes":"15","bike_racks":"20","free_racks":"6","terminal_type":"7inch","bike_numbers":"24845,28585,27316,26936,26801,26622,26237,26032,25507,29434,29120,28863,96320,96240,29274","bike_types":{"4":14,"0":1},"place_type":"0","rack_locks":"1"},{"uid":"2585953","lat":"52.27347","lng":"21.07698","name":"Bukowiecka - Zamkowa","spot":"1","number":"9646","bikes":"11","bike_racks":"15","free_racks":"4","terminal_type":"7inch","bike_numbers":"24514,24487,28673,28000,27119,26808,26140,25985,25527,25154,96453","bike_types":{"4":10,"51":1},"place_type":"0","rack_locks":"1"},{"uid":"2585954","lat":"52.2668885","lng":"21.0585675","name":"Radzymi\u0144ska - Piotra Skargi","spot":"1","number":"9647","bikes":"4","bike_racks":"20","free_racks":"16","terminal_type":"7inch","bike_numbers":"28522,27848,27187,24051","bike_types":{"4":3,"26":1},"place_type":"0","rack_locks":"1"},{"uid":"2585955","lat":"52.2614369","lng":"21.0155744","name":"Wybrze\u017ce Helskie - ZOO","spot":"1","number":"9648","bikes":"16","bike_racks":"22","free_racks":"5","terminal_type":"7inch","bike_numbers":"24897,24855,24729,28724,28678,28297,27835,27404,26862,26555,26458,26194,25076,29034,29136,96146","bike_types":{"4":15,"0":1},"place_type":"0","rack_locks":"1"},{"uid":"2585956","lat":"52.2632492","lng":"21.0212231","name":"Rondo Starzy\u0144skiego","spot":"1","number":"9649","bikes":"12","bike_racks":"24","free_racks":"14","terminal_type":"7inch","bike_numbers":"24661,28465,27331,27195,27162,27033,26730,26588,26183,26037,25352,96486","bike_types":{"4":12},"place_type":"0","rack_locks":"1"},{"uid":"2585958","lat":"52.26421","lng":"21.02618","name":"Darwina - Nusbauma-Hilarowicza","spot":"1","number":"9650","bikes":"15","bike_racks":"21","free_racks":"8","terminal_type":"7inch","bike_numbers":"24938,28745,26816,26777,26584,26567,25783,25471,25466,25238,25099,96564,96483,96286,29148","bike_types":{"4":15},"place_type":"0","rack_locks":"1"},{"uid":"2585960","lat":"52.26554","lng":"21.03122","name":"Namys\u0142owska - Darwina","spot":"1","number":"9651","bikes":"4","bike_racks":"15","free_racks":"11","terminal_type":"7inch","bike_numbers":"24874,28279,26346,28836","bike_types":{"4":4},"place_type":"0","rack_locks":"1"},{"uid":"2585961","lat":"52.2690405","lng":"21.0379493","name":"Rondo \u017baba","spot":"1","number":"9652","bikes":"3","bike_racks":"22","free_racks":"19","terminal_type":"7inch","bike_numbers":"27520,26440,25368","bike_types":{"4":3},"place_type":"0","rack_locks":"1"},{"uid":"2585963","lat":"52.2591682","lng":"21.0262224","name":"Jagiello\u0144ska - Plac Hallera","spot":"1","number":"9653","bikes":"9","bike_racks":"20","free_racks":"10","terminal_type":"7inch","bike_numbers":"24901,27541,27219,27010,25674,29097,28954,96202,96588","bike_types":{"4":9},"place_type":"0","rack_locks":"1"},{"uid":"2585964","lat":"52.2613811","lng":"21.0305437","name":"Plac Hallera - Sawinkowa","spot":"1","number":"9654","bikes":"28","bike_racks":"28","free_racks":"0","terminal_type":"7inch","bike_numbers":"24769,24728,28647,28556,28421,28354,28271,28145,27864,27858,26666,26594,26478,26454,26353,26331,26327,26302,26226,26085,25606,25269,25050,29343,25631,28991,28993,29157","bike_types":{"4":28},"place_type":"0","rack_locks":"1"},{"uid":"2585967","lat":"52.263","lng":"21.03418","name":"Namys\u0142owska - Szymanowskiego","spot":"1","number":"9655","bikes":"7","bike_racks":"16","free_racks":"10","terminal_type":"7inch","bike_numbers":"24871,28432,26771,26617,26247,26229,29175","bike_types":{"4":7},"place_type":"0","rack_locks":"1"},{"uid":"2585968","lat":"52.2538188","lng":"21.0231542","name":"Ratuszowa - ZOO","spot":"1","number":"9656","bikes":"15","bike_racks":"23","free_racks":"4","terminal_type":"7inch","bike_numbers":"24968,24796,24038,28616,28498,27833,27612,26150,25565,25379,96404,96387,96274,29198,29225","bike_types":{"4":14,"26":1},"place_type":"0","rack_locks":"1"},{"uid":"2585971","lat":"52.256355","lng":"21.029538","name":"Jagiello\u0144ska - Ratuszowa","spot":"1","number":"9657","bikes":"6","bike_racks":"16","free_racks":"9","terminal_type":"7inch","bike_numbers":"28488,28385,26987,26863,96219,29260","bike_types":{"4":6},"place_type":"0","rack_locks":"1"},{"uid":"2585972","lat":"52.261449","lng":"21.037614","name":"11 Listopada - Ratuszowa","spot":"1","number":"9658","bikes":"11","bike_racks":"30","free_racks":"19","terminal_type":"7inch","bike_numbers":"24857,28553,28280,28087,27286,26043,25810,25150,29451,96331,29258","bike_types":{"4":11},"place_type":"0","rack_locks":"1"},{"uid":"2585974","lat":"52.263109","lng":"21.0381895","name":"11 listopada - \u015arodkowa","spot":"1","number":"9659","bikes":"10","bike_racks":"18","free_racks":"8","terminal_type":"7inch","bike_numbers":"24937,28009,27840,27298,26868,26423,26005,25757,96262,29264","bike_types":{"4":10},"place_type":"0","rack_locks":"1"},{"uid":"2585975","lat":"52.25839","lng":"21.03537","name":"Stalowa - 11 Listopada","spot":"1","number":"9660","bikes":"13","bike_racks":"24","free_racks":"9","terminal_type":"7inch","bike_numbers":"24644,28427,27936,27560,27049,26166,26055,26010,25902,96213,29194,29278,96581","bike_types":{"4":13},"place_type":"0","rack_locks":"1"},{"uid":"2585978","lat":"52.234791","lng":"21.07905","name":"al. Stan\u00f3w Zjednoczonych - Ostrobramska","spot":"1","number":"9661","bikes":"7","bike_racks":"20","free_racks":"13","terminal_type":"7inch","bike_numbers":"28126,27403,26797,25936,25923,25469,25243","bike_types":{"4":7},"place_type":"0","rack_locks":"1"},{"uid":"2585981","lat":"52.2524758","lng":"21.0303479","name":"Floria\u0144ska - Park Praski","spot":"1","number":"9662","bikes":"20","bike_racks":"23","free_racks":"0","terminal_type":"7inch","bike_numbers":"24787,24613,25008,28026,27577,27015,26636,26529,26501,26224,26147,25952,25700,25518,25382,25079,29122,28844,96351,96198","bike_types":{"4":19,"0":1},"place_type":"0","rack_locks":"1"},{"uid":"2585982","lat":"52.2549757","lng":"21.0339005","name":"Plac Wile\u0144ski","spot":"1","number":"9663","bikes":"28","bike_racks":"30","free_racks":"5","terminal_type":"7inch","bike_numbers":"24570,24558,28531,28423,28362,28329,28012,27920,27734,27462,27337,27284,27054,26765,26682,26484,26456,26206,25470,25371,25370,25363,25219,28812,28861,96352,96329,96264","bike_types":{"4":28},"place_type":"0","rack_locks":"1"},{"uid":"2585983","lat":"52.2579576","lng":"21.0399804","name":"Wile\u0144ska - Rzeszotarskiej","spot":"1","number":"9664","bikes":"1","bike_racks":"16","free_racks":"13","terminal_type":"7inch","bike_numbers":"28581","bike_types":{"4":1},"place_type":"0","rack_locks":"1"},{"uid":"2585984","lat":"52.2475848","lng":"20.9568001","name":"al. Prymasa Tysi\u0105clecia - Obozowa","spot":"1","number":"9665","bikes":"9","bike_racks":"13","free_racks":"3","terminal_type":"7inch","bike_numbers":"24483,28886,28322,28053,27295,26853,25404,29014,96221","bike_types":{"51":1,"4":8},"place_type":"0","rack_locks":"1"},{"uid":"2585985","lat":"52.248607","lng":"21.029647","name":"Okrzei - Panie\u0144ska","spot":"1","number":"9666","bikes":"10","bike_racks":"16","free_racks":"6","terminal_type":"7inch","bike_numbers":"24481,28435,26979,26634,26540,25835,25089,29023,29248,24055","bike_types":{"51":1,"4":8,"26":1},"place_type":"0","rack_locks":"1"},{"uid":"2585987","lat":"52.2506334","lng":"21.0311174","name":"Sierakowskiego - K\u0142opotowskiego","spot":"1","number":"9667","bikes":"11","bike_racks":"25","free_racks":"16","terminal_type":"7inch","bike_numbers":"28313,28301,27690,26684,26392,25918,25881,25787,25661,25130,29342","bike_types":{"4":11},"place_type":"0","rack_locks":"1"},{"uid":"2585990","lat":"52.2520876","lng":"21.0381368","name":"Targowa - Z\u0105bkowska","spot":"1","number":"9668","bikes":"22","bike_racks":"18","free_racks":"0","terminal_type":"7inch","bike_numbers":"24867,28299,27786,27451,27253,27194,27137,27005,26848,26823,26572,26536,26472,26127,25926,25799,25053,29352,28952,29368,96561,24053","bike_types":{"4":21,"26":1},"place_type":"0","rack_locks":"1"},{"uid":"2585992","lat":"52.2544855","lng":"21.0433458","name":"Fabryka W\u00f3dek Koneser","spot":"1","number":"9669","bikes":"15","bike_racks":"25","free_racks":"12","terminal_type":"7inch","bike_numbers":"24964,24947,24551,28642,28627,28295,28084,27712,27014,26907,25709,29004,96052,96322,29283","bike_types":{"4":15},"place_type":"0","rack_locks":"1"},{"uid":"2585994","lat":"52.2559027","lng":"21.0495613","name":"Radzymi\u0144ska - Wiosenna","spot":"1","number":"9670","bikes":"22","bike_racks":"26","free_racks":"4","terminal_type":"7inch","bike_numbers":"24738,24657,28348,27983,27856,27769,27731,27703,27381,27372,27275,27212,27145,26985,26719,25284,25100,29116,29115,96011,96397,29269","bike_types":{"4":22},"place_type":"0","rack_locks":"1"},{"uid":"2585995","lat":"52.25965","lng":"21.0529","name":"Radzymi\u0144ska - \u0141om\u017cy\u0144ska","spot":"1","number":"9671","bikes":"23","bike_racks":"24","free_racks":"6","terminal_type":"7inch","bike_numbers":"24456,28567,28074,27875,27725,27291,27190,26672,26404,26013,25876,25666,25593,25570,25280,25122,29056,29374,28799,28858,96571,96509,24046","bike_types":{"51":1,"4":21,"26":1},"place_type":"0","rack_locks":"1"},{"uid":"2585996","lat":"52.2583512","lng":"21.0585337","name":"P\u0119tla Kaw\u0119czy\u0144ska-Bazylika","spot":"1","number":"9672","bikes":"18","bike_racks":"26","free_racks":"8","terminal_type":"7inch","bike_numbers":"24647,28353,28321,27753,27489,27303,27301,26528,26276,25813,25811,25473,25182,29357,96051,96510,96360,29261","bike_types":{"4":18},"place_type":"0","rack_locks":"1"},{"uid":"2585997","lat":"52.249864871462","lng":"21.042911410332","name":"Targowa - Kijowska","spot":"1","number":"9673","bikes":"11","bike_racks":"18","free_racks":"6","terminal_type":"7inch","bike_numbers":"24585,24509,28429,27733,27385,26336,26142,25432,25423,25321,25125","bike_types":{"4":11},"place_type":"0","rack_locks":"1"},{"uid":"2586000","lat":"52.252745","lng":"21.0510331","name":"Dworzec Wschodni - Kijowska","spot":"1","number":"9674","bikes":"22","bike_racks":"27","free_racks":"6","terminal_type":"7inch","bike_numbers":"24725,24712,24685,24575,24548,27792,27435,27216,27029,26944,26789,26450,25836,25803,25739,25617,25431,28956,29433,29143,28964,29271","bike_types":{"4":21,"0":1},"place_type":"0","rack_locks":"1"},{"uid":"2586001","lat":"52.247314","lng":"21.042731","name":"Metro Stadion Narodowy","spot":"1","number":"9675","bikes":"9","bike_racks":"15","free_racks":"9","terminal_type":"7inch","bike_numbers":"24010,28132,26022,25865,25339,25290,25043,96055,96464","bike_types":{"26":1,"4":8},"place_type":"0","rack_locks":"1"},{"uid":"2586003","lat":"52.2472308","lng":"21.0476456","name":"al. Zieleniecka - Teatr Powszechny","spot":"1","number":"9676","bikes":"9","bike_racks":"14","free_racks":"5","terminal_type":"7inch","bike_numbers":"27727,27169,27110,27042,26880,26744,26359,29051,29041","bike_types":{"4":9},"place_type":"0","rack_locks":"1"},{"uid":"2586005","lat":"52.247346","lng":"21.055947","name":"Grochowska - Mi\u0144ska","spot":"1","number":"9677","bikes":"16","bike_racks":"22","free_racks":"2","terminal_type":"7inch","bike_numbers":"24909,24687,24505,28755,28515,28274,27448,27388,26840,26717,26542,26079,25325,96018,96278,96163","bike_types":{"4":16},"place_type":"0","rack_locks":"1"},{"uid":"2586009","lat":"52.2464","lng":"21.06868","name":"Praga-Po\u0142udnie-Ratusz","spot":"1","number":"9678","bikes":"16","bike_racks":"15","free_racks":"2","terminal_type":"7inch","bike_numbers":"24952,28611,28134,28130,27886,27691,27401,27140,26677,26627,26263,25846,25733,25688,25397,25198","bike_types":{"4":16},"place_type":"0","rack_locks":"1"},{"uid":"2586011","lat":"52.2501129","lng":"21.0772011","name":"Dwernickiego - Siennicka","spot":"1","number":"9679","bikes":"3","bike_racks":"25","free_racks":"19","terminal_type":"7inch","bike_numbers":"28960,28910,96346","bike_types":{"4":3},"place_type":"0","rack_locks":"1"},{"uid":"2586012","lat":"52.260428882956","lng":"21.041538119316","name":"Stalowa - Czynszowa","spot":"1","number":"9680","bikes":"18","bike_racks":"15","free_racks":"0","terminal_type":"7inch","bike_numbers":"28511,28439,28370,28194,28045,27980,27865,27622,27422,27274,27175,26921,26706,26157,25910,25530,25402,29155","bike_types":{"4":18},"place_type":"0","rack_locks":"1"},{"uid":"2586014","lat":"52.2372419","lng":"21.0437644","name":"Wybrze\u017ce Szczeci\u0144skie - Stadion Narodowy","spot":"1","number":"9681","bikes":"29","bike_racks":"23","free_racks":"2","terminal_type":"7inch","bike_numbers":"24958,24848,24497,28632,28147,28077,28006,27971,27684,27592,27466,27453,27178,27083,26844,26635,25943,25856,25853,25779,25374,25101,25063,29005,28943,28823,96500,96424,29197","bike_types":{"4":28,"51":1},"place_type":"0","rack_locks":"1"},{"uid":"2586018","lat":"52.2387103","lng":"21.0507515","name":"Rondo Waszyngtona - Stadion Narodowy","spot":"1","number":"9682","bikes":"23","bike_racks":"27","free_racks":"0","terminal_type":"7inch","bike_numbers":"24770,28671,28452,28309,27998,27755,27634,27513,26942,26927,26570,26381,26214,26174,26151,26144,25855,25467,29124,29134,28834,96022,29152","bike_types":{"4":22,"0":1},"place_type":"0","rack_locks":"1"},{"uid":"2586019","lat":"52.242281006874","lng":"21.071160435677","name":"Waszyngtona - Kinowa","spot":"1","number":"9683","bikes":"17","bike_racks":"15","free_racks":"0","terminal_type":"7inch","bike_numbers":"24969,24621,25006,27256,27215,27096,26953,26473,26293,25653,25159,25127,25049,25958,96239,96210,96089","bike_types":{"4":17},"place_type":"0","rack_locks":"1"},{"uid":"2586021","lat":"52.2445639","lng":"21.0838057","name":"Rondo Wiatraczna","spot":"1","number":"9684","bikes":"20","bike_racks":"30","free_racks":"11","terminal_type":"7inch","bike_numbers":"24820,24465,24024,28614,28434,28401,28128,28017,27652,27554,27210,26970,26063,25548,25429,25245,28837,96020,96391,29259","bike_types":{"4":18,"51":1,"26":1},"place_type":"0","rack_locks":"1"},{"uid":"2586022","lat":"52.2347451","lng":"21.053651","name":"Francuska - Walecznych","spot":"1","number":"9685","bikes":"12","bike_racks":"15","free_racks":"5","terminal_type":"7inch","bike_numbers":"24948,28573,28464,28305,28035,27953,27782,27350,26565,26414,25731,28971","bike_types":{"4":12},"place_type":"0","rack_locks":"1"},{"uid":"2586024","lat":"52.236598","lng":"21.064774","name":"Mi\u0119dzynarodowa - Walecznych","spot":"1","number":"9686","bikes":"16","bike_racks":"15","free_racks":"4","terminal_type":"7inch","bike_numbers":"28672,28597,27444,27173,27135,27030,26198,26061,25056,29077,29459,96440,96313,96197,96148,29272","bike_types":{"4":16},"place_type":"0","rack_locks":"1"},{"uid":"2586026","lat":"52.243020071904","lng":"21.102375984192","name":"Plac Szembeka","spot":"1","number":"9687","bikes":"5","bike_racks":"15","free_racks":"11","terminal_type":"7inch","bike_numbers":"24779,27172,26415,26283,25608","bike_types":{"4":5},"place_type":"0","rack_locks":"1"},{"uid":"2586028","lat":"52.237559","lng":"21.120087","name":"P\u0119tla Goc\u0142awek","spot":"1","number":"9688","bikes":"9","bike_racks":"16","free_racks":"4","terminal_type":"7inch","bike_numbers":"24592,28367,27764,27408,25996,25785,25538,25534,96548","bike_types":{"4":9},"place_type":"0","rack_locks":"1"},{"uid":"2586030","lat":"52.2258359","lng":"21.0600907","name":"Brukselska - PROM","spot":"1","number":"9689","bikes":"1","bike_racks":"15","free_racks":"6","terminal_type":"7inch","bike_numbers":"26741","bike_types":{"4":1},"place_type":"0","rack_locks":"1"},{"uid":"2586031","lat":"52.260205610017","lng":"21.046854257584","name":"al. Solidarno\u015bci - Szwedzka","spot":"1","number":"9690","bikes":"13","bike_racks":"18","free_racks":"5","terminal_type":"7inch","bike_numbers":"24510,24486,28760,28394,28058,27651,27503,27428,27338,27330,26348,25121,29266","bike_types":{"4":12,"51":1},"place_type":"0","rack_locks":"1"},{"uid":"2586032","lat":"52.230088","lng":"21.067948","name":"al. Stan\u00f3w Zjednoczonych - Mi\u0119dzynarodowa","spot":"1","number":"9691","bikes":"14","bike_racks":"26","free_racks":"9","terminal_type":"7inch","bike_numbers":"28105,27874,27476,27371,26595,26455,26267,25751,25736,25687,25598,28828,96045,96414","bike_types":{"4":14},"place_type":"0","rack_locks":"1"},{"uid":"2586034","lat":"52.23483","lng":"21.09975","name":"Ostrobramska - Zamieniecka","spot":"1","number":"9692","bikes":"10","bike_racks":"23","free_racks":"12","terminal_type":"7inch","bike_numbers":"24939,28411,26547,26383,25907,25405,25380,25149,29015,29151","bike_types":{"4":10},"place_type":"0","rack_locks":"1"},{"uid":"2586037","lat":"52.2251969","lng":"21.0712892","name":"Afryka\u0144ska - Egipska","spot":"1","number":"9693","bikes":"8","bike_racks":"16","free_racks":"8","terminal_type":"7inch","bike_numbers":"24586,28773,27527,26676,26059,25421,96339,96187","bike_types":{"4":8},"place_type":"0","rack_locks":"1"},{"uid":"2586039","lat":"52.22837","lng":"21.08581","name":"Abrahama - Kapelan\u00f3w AK","spot":"1","number":"9694","bikes":"3","bike_racks":"15","free_racks":"10","terminal_type":"7inch","bike_numbers":"24893,27233,29187","bike_types":{"4":3},"place_type":"0","rack_locks":"1"},{"uid":"2586042","lat":"52.2296088","lng":"21.0945572","name":"Fieldorfa - Bukowskiego","spot":"1","number":"9695","bikes":"9","bike_racks":"20","free_racks":"9","terminal_type":"7inch","bike_numbers":"27193,26972,26821,26750,26400,25963,25947,25816,96587","bike_types":{"4":9},"place_type":"0","rack_locks":"1"},{"uid":"2586044","lat":"52.22974","lng":"21.10624","name":"Rechniewskiego - Nowaka-Jeziora\u0144skiego","spot":"1","number":"9696","bikes":"23","bike_racks":"30","free_racks":"8","terminal_type":"7inch","bike_numbers":"24766,24495,24467,28753,28686,28675,28626,28623,28475,27697,27526,27411,27270,27268,26822,26657,26641,26605,26425,25611,29127,28884,96093","bike_types":{"4":20,"51":2,"0":1},"place_type":"0","rack_locks":"1"},{"uid":"2586045","lat":"52.2223071","lng":"21.0907259","name":"Meissnera - Fieldorfa","spot":"1","number":"9697","bikes":"9","bike_racks":"15","free_racks":"6","terminal_type":"7inch","bike_numbers":"24992,24847,28885,27974,26629,25899,25341,25144,25062","bike_types":{"4":9},"place_type":"0","rack_locks":"1"},{"uid":"2586268","lat":"52.23938046828","lng":"21.016716957092","name":"Krakowskie Przedmie\u015bcie - Traugutta 2","spot":"1","number":"94931","bikes":"18","bike_racks":"24","free_racks":"6","terminal_type":"7inch","bike_numbers":"24797,24755,28454,28357,27240,27201,26939,26712,26231,26105,26020,25504,25416,25058,25035,29092,29372,96248","bike_types":{"4":18},"place_type":"0","rack_locks":"1"},{"uid":"2586270","lat":"52.2417899","lng":"21.0241698","name":"Lipowa - Dobra 2","spot":"1","number":"94961","bikes":"9","bike_racks":"19","free_racks":"8","terminal_type":"7inch","bike_numbers":"24635,28319,28262,27397,26366,25977,28949,28854,29217","bike_types":{"4":9},"place_type":"0","rack_locks":"1"},{"uid":"2586272","lat":"52.219916006513","lng":"21.011733412743","name":"Plac Politechniki 2","spot":"1","number":"95381","bikes":"15","bike_racks":"27","free_racks":"11","terminal_type":"7inch","bike_numbers":"24911,28331,27918,27414,26882,25992,25932,25664,25639,25568,25516,25442,25317,25038,29252","bike_types":{"4":15},"place_type":"0","rack_locks":"1"},{"uid":"2675985","lat":"52.21759","lng":"21.0096855","name":"Kaczy\u0144skiego - Rektorska","spot":"1","number":"9587","bikes":"7","bike_racks":"17","free_racks":"10","terminal_type":"7inch","bike_numbers":"24774,24519,28256,27785,27324,25921,25455","bike_types":{"4":7},"place_type":"0","rack_locks":"1"},{"uid":"2676298","lat":"52.255871","lng":"21.010043","name":"Veturilko - Sanguszki - Wybrze\u017ce Gda\u0144skie","spot":"1","number":"9716","bikes":"5","bike_racks":"14","free_racks":"7","terminal_type":"7inch","bike_numbers":"24367,24264,24299,24292,24282","bike_types":{"35":1,"34":4},"place_type":"11","rack_locks":"1"},{"uid":"2685255","lat":"52.278754","lng":"20.991692","name":"Veturilko - K\u0119pa Potocka","spot":"1","number":"9711","bikes":"9","bike_racks":"14","free_racks":"6","terminal_type":"7inch","bike_numbers":"24377,24354,24280,24277,24269,24253,24387,24392,24301","bike_types":{"35":4,"34":5},"place_type":"11","rack_locks":"1"},{"uid":"2685262","lat":"52.2918548","lng":"21.0354469","name":"Veturilko - Park Br\u00f3dnowski","spot":"1","number":"9712","bikes":"4","bike_racks":"14","free_racks":"11","terminal_type":"7inch","bike_numbers":"24275,24268,24386,24283","bike_types":{"34":3,"35":1},"place_type":"11","rack_locks":"1"},{"uid":"2685269","lat":"52.210565168555","lng":"20.998365283012","name":"Veturilko - Pole Mokotowskie","spot":"1","number":"9714","bikes":"7","bike_racks":"14","free_racks":"8","terminal_type":"7inch","bike_numbers":"24366,24281,24400,24391,24298,24289,24286","bike_types":{"35":3,"34":4},"place_type":"11","rack_locks":"1"},{"uid":"2685274","lat":"52.238451","lng":"21.05085","name":"Veturilko - Rondo Waszyngtona - Stadion Narodowy","spot":"1","number":"9715","bikes":"4","bike_racks":"14","free_racks":"9","terminal_type":"7inch","bike_numbers":"24378,24272,24252,24297","bike_types":{"35":1,"34":3},"place_type":"11","rack_locks":"1"},{"uid":"3110680","lat":"52.250032","lng":"21.089511","name":"Szaser\u00f3w - Park J. Poli\u0144skiego","spot":"1","number":"9698","bikes":"15","bike_racks":"23","free_racks":"0","terminal_type":"7inch","bike_numbers":"24902,24610,28557,28502,28410,27361,27232,27183,27094,27034,25957,25941,25453,25211,25141","bike_types":{"4":15},"place_type":"0","rack_locks":"1"},{"uid":"3318614","lat":"52.237633","lng":"21.025561","name":"E-bike - Topiel \u2013 Tamka","spot":"1","number":"9701","bikes":"0","bike_racks":"15","free_racks":"14","terminal_type":"7inch","place_type":"14","rack_locks":"1","bike_numbers":null,"bike_types":[]},{"uid":"3318682","lat":"52.245675","lng":"21.01749","name":"E-bike - Sowia","spot":"1","number":"9702","bikes":"13","bike_racks":"15","free_racks":"0","terminal_type":"7inch","bike_numbers":"24187,24186,24178,24169,24163,24154,24149,24141,24140,24124,24120,24104,24101","bike_types":{"37":13},"place_type":"14","rack_locks":"1"},{"uid":"3318688","lat":"52.242285","lng":"21.027105","name":"E-bike - Centrum Nauki Kopernik","spot":"1","number":"9703","bikes":"10","bike_racks":"15","free_racks":"5","terminal_type":"7inch","bike_numbers":"24198,24192,24181,24180,24157,24150,24143,24138,24116,24108","bike_types":{"37":10},"place_type":"14","rack_locks":"1"},