[{"region_info":{"lat":"52.2345","lng":"21.0024","zoom":"11","name":"VETURILO Poland","hotline":"+4819115","domain":"vp","country":"PL","country_name":"Poland","terms":"http:\/\/www.veturilo.waw.pl\/terms\/?v=201701","policy":"","website":"http:\/\/www.veturilo.waw.pl\/","show_free_racks":"1","booked_bikes":"0","set_point_bikes":"5278","available_bikes":"4565"},"places_summary":{"lngMin":20.8689688,"lngMax":21.120087,"latMin":52.117285,"latMax":52.3485329,"lngAvg":21.007806372598,"latAvg":52.230618632679},"places":[{"uid":"2585259","lat":"52.296298","lng":"20.9583575","name":"Dewajtis - UKSW","spot":"1","number":"9402","bikes":"44","bike_racks":"30","free_racks":"4","terminal_type":"7inch","bike_numbers":"24907,24847,24846,24724,24715,24682,24648,24574,24543,24513,28901,28645,28620,28478,28401,28190,27966,27540,27296,27217,27119,26968,26649,26632,26591,26338,26294,26278,25927,25848,25734,25544,25461,25460,25394,25070,29088,28958,29428,28911,96170,96153,29188,96584","bike_types":{"4":44},"place_type":"0","rack_locks":"1"},{"uid":"2585263","lat":"52.2909738","lng":"20.9295559","name":"Metro M\u0142ociny","spot":"1","number":"9403","bikes":"16","bike_racks":"30","free_racks":"14","terminal_type":"7inch","bike_numbers":"24036,28483,28395,27548,27537,27465,27143,27098,26696,26579,25472,25400,25625,96531,29162,29211","bike_types":{"54":1,"4":15},"place_type":"0","rack_locks":"1"},{"uid":"2585265","lat":"52.2901732","lng":"20.9503698","name":"Marymoncka - Dewajtis","spot":"1","number":"9404","bikes":"3","bike_racks":"30","free_racks":"25","terminal_type":"7inch","bike_numbers":"24509,27849,26242","bike_types":{"4":3},"place_type":"0","rack_locks":"1"},{"uid":"2585267","lat":"52.285914","lng":"20.940561","name":"Metro Wawrzyszew","spot":"1","number":"9405","bikes":"13","bike_racks":"20","free_racks":"8","terminal_type":"7inch","bike_numbers":"28634,28539,28065,27929,27768,27151,27145,26563,26044,25727,25271,29128,96268","bike_types":{"4":12,"0":1},"place_type":"0","rack_locks":"1"},{"uid":"2585269","lat":"52.2336142","lng":"21.0146353","name":"G\u00f3rskiego - Szpitalna","spot":"1","number":"9406","bikes":"2","bike_racks":"16","free_racks":"14","terminal_type":"7inch","bike_numbers":"24876,25418","bike_types":{"4":2},"place_type":"0","rack_locks":"1"},{"uid":"2585271","lat":"52.2816265","lng":"20.9498871","name":"Metro Stare Bielany","spot":"1","number":"9407","bikes":"16","bike_racks":"30","free_racks":"15","terminal_type":"7inch","bike_numbers":"24730,24024,28743,28707,28073,28007,27327,27245,27038,25468,28871,96546,96375,96263,96227,29173","bike_types":{"4":15,"26":1},"place_type":"0","rack_locks":"1"},{"uid":"2585272","lat":"52.2361217","lng":"21.0219096","name":"Ordynacka - Uniwersytet Muzyczny","spot":"1","number":"9408","bikes":"10","bike_racks":"20","free_racks":"10","terminal_type":"7inch","bike_numbers":"28654,28610,28011,26944,25911,25854,96009,96003,96244,96109","bike_types":{"4":10},"place_type":"0","rack_locks":"1"},{"uid":"2585273","lat":"52.2768774","lng":"20.9481302","name":"Bielany-Ratusz","spot":"1","number":"9409","bikes":"9","bike_racks":"28","free_racks":"19","terminal_type":"7inch","bike_numbers":"24783,27990,27801,27480,27092,26539,25399,25358,96047","bike_types":{"4":9},"place_type":"0","rack_locks":"1"},{"uid":"2585275","lat":"52.2761569","lng":"20.9616673","name":"Metro S\u0142odowiec","spot":"1","number":"9410","bikes":"19","bike_racks":"30","free_racks":"12","terminal_type":"7inch","bike_numbers":"28680,28363,27514,27509,27350,27110,27080,27008,26536,26475,26363,25407,25191,96458,96374,96340,96337,96332,96172","bike_types":{"4":19},"place_type":"0","rack_locks":"1"},{"uid":"2585278","lat":"52.2777751","lng":"20.9856999","name":"Potocka - OSiR \u017boliborz","spot":"1","number":"9411","bikes":"3","bike_racks":"15","free_racks":"12","terminal_type":"7inch","bike_numbers":"24523,28759,27128","bike_types":{"4":3},"place_type":"0","rack_locks":"1"},{"uid":"2585280","lat":"52.273527782989","lng":"20.994186401367","name":"Gwia\u017adzista - Promyka","spot":"1","number":"9412","bikes":"7","bike_racks":"16","free_racks":"9","terminal_type":"7inch","bike_numbers":"24746,24538,27678,26030,25925,25477,96497","bike_types":{"4":7},"place_type":"0","rack_locks":"1"},{"uid":"2585281","lat":"52.270941","lng":"20.9326269","name":"al. Reymonta - Conrada","spot":"1","number":"9413","bikes":"37","bike_racks":"30","free_racks":"2","terminal_type":"7inch","bike_numbers":"24930,24824,28876,28601,28577,28486,28268,28138,28133,27955,27887,27661,27468,27396,27273,27132,26977,26774,26361,26223,26098,25991,25869,25724,25634,25614,25609,25484,25235,25142,25961,28976,96514,96293,96090,29152,29239","bike_types":{"4":37},"place_type":"0","rack_locks":"1"},{"uid":"2585283","lat":"52.2706441","lng":"20.9504181","name":"Broniewskiego - Perzy\u0144skiego","spot":"1","number":"9414","bikes":"13","bike_racks":"16","free_racks":"6","terminal_type":"7inch","bike_numbers":"24843,24026,24004,28757,28510,27671,27348,26135,25956,25897,25322,29061,96496","bike_types":{"4":11,"26":2},"place_type":"0","rack_locks":"1"},{"uid":"2585284","lat":"52.2714203","lng":"20.9727099","name":"Metro Marymont","spot":"1","number":"9415","bikes":"24","bike_racks":"30","free_racks":"6","terminal_type":"7inch","bike_numbers":"24931,24891,24690,24628,28763,27828,27656,27390,27284,27123,26927,26465,26270,26259,26238,29026,29434,28962,96013,96505,96460,96406,96222,96166","bike_types":{"4":24},"place_type":"0","rack_locks":"1"},{"uid":"2585285","lat":"52.2694081","lng":"20.9833664","name":"Metro Plac Wilsona","spot":"1","number":"9416","bikes":"14","bike_racks":"21","free_racks":"7","terminal_type":"7inch","bike_numbers":"24638,28737,28037,27523,27386,26887,26758,25738,25619,29079,29368,96307,96225,96163","bike_types":{"4":14},"place_type":"0","rack_locks":"1"},{"uid":"2585286","lat":"52.2668623","lng":"20.9637032","name":"Broniewskiego - W\u0142o\u015bcia\u0144ska","spot":"1","number":"9417","bikes":"18","bike_racks":"19","free_racks":"6","terminal_type":"7inch","bike_numbers":"24536,28633,27703,27550,27104,26283,26011,25714,25568,25409,25378,25230,29444,29448,96418,96160,29161,24050","bike_types":{"4":17,"26":1},"place_type":"0","rack_locks":"1"},{"uid":"2585288","lat":"52.2643984","lng":"20.9723179","name":"Broniewskiego - Krasi\u0144skiego","spot":"1","number":"9418","bikes":"12","bike_racks":"16","free_racks":"4","maintenance":"1","terminal_type":"7inch","bike_numbers":"24740,28342,28332,28307,27074,26603,26513,26470,26377,26181,25364,96214","bike_types":{"4":12},"place_type":"0","rack_locks":"1"},{"uid":"2585289","lat":"52.267875","lng":"21.0020667","name":"Wybrze\u017ce Gdy\u0144skie - KS Sp\u00f3jnia","spot":"1","number":"9419","bikes":"15","bike_racks":"15","free_racks":"0","terminal_type":"7inch","bike_numbers":"24966,24639,28533,28410,28079,27686,27673,27584,26912,26798,26199,29065,29127,29154,29228","bike_types":{"4":14,"0":1},"place_type":"0","rack_locks":"1"},{"uid":"2585291","lat":"52.2624054","lng":"20.9802551","name":"Plac Grunwaldzki","spot":"1","number":"9420","bikes":"15","bike_racks":"30","free_racks":"15","terminal_type":"7inch","bike_numbers":"24826,24660,24643,27949,27380,27333,27214,26946,26734,26725,25258,25176,29352,96393,96131","bike_types":{"4":15},"place_type":"0","rack_locks":"1"},{"uid":"2585296","lat":"52.2612575","lng":"20.9863191","name":"Zaj\u0105czka - Bitwy Pod Rokitn\u0105","spot":"1","number":"9421","bikes":"10","bike_racks":"15","free_racks":"5","terminal_type":"7inch","bike_numbers":"24758,24553,24015,28021,26971,26492,25899,25408,25243,28827","bike_types":{"4":9,"26":1},"place_type":"0","rack_locks":"1"},{"uid":"2585297","lat":"52.2645018","lng":"20.9895998","name":"Plac Inwalid\u00f3w","spot":"1","number":"9422","bikes":"11","bike_racks":"15","free_racks":"4","terminal_type":"7inch","bike_numbers":"24731,28208,27844,27543,26668,26427,26336,25755,29123,96094,96578","bike_types":{"4":10,"0":1},"place_type":"0","rack_locks":"1"},{"uid":"2585299","lat":"52.258245356688","lng":"20.898613929749","name":"P\u0119tla Stare Bemowo","spot":"1","number":"9423","bikes":"15","bike_racks":"21","free_racks":"6","terminal_type":"7inch","bike_numbers":"24764,24694,28768,28462,27683,27250,26380,25931,25566,25171,25034,28810,28833,96035,96247","bike_types":{"4":15},"place_type":"0","rack_locks":"1"},{"uid":"2585301","lat":"52.260895125763","lng":"20.923923254013","name":"P\u0119tla Nowe Bemowo","spot":"1","number":"9424","bikes":"24","bike_racks":"25","free_racks":"2","terminal_type":"7inch","bike_numbers":"24790,28282,28260,28149,28147,27356,26955,26786,26773,26477,26449,26290,25220,28935,28934,96008,96504,96321,96314,96233,96206,96122,96110,29205","bike_types":{"4":24},"place_type":"0","rack_locks":"1"},{"uid":"2585304","lat":"52.2575903","lng":"20.9323374","name":"Obro\u0144c\u00f3w Tobruku - Pieni\u0105\u017cka","spot":"1","number":"9425","bikes":"13","bike_racks":"12","free_racks":"0","terminal_type":"7inch","bike_numbers":"24970,24485,28882,27231,26872,26007,26000,25293,25112,25081,28915,96354,96152","bike_types":{"4":12,"51":1},"place_type":"0","rack_locks":"1"},{"uid":"2585305","lat":"52.2593225","lng":"20.9605511","name":"Pow\u0105zkowska - Krasi\u0144skiego","spot":"1","number":"9426","bikes":"22","bike_racks":"23","free_racks":"0","terminal_type":"7inch","bike_numbers":"24944,24924,24906,24486,28358,28324,28210,27944,27715,27690,27639,27524,27486,27309,25864,25278,25259,29090,29013,28776,96031,96311","bike_types":{"4":21,"51":1},"place_type":"0","rack_locks":"1"},{"uid":"2585306","lat":"52.2563145","lng":"20.9682307","name":"Pow\u0105zkowska - Plac Niemena","spot":"1","number":"9427","bikes":"1","bike_racks":"16","free_racks":"15","terminal_type":"7inch","bike_numbers":"28663","bike_types":{"4":1},"place_type":"0","rack_locks":"1"},{"uid":"2585307","lat":"52.258524460024","lng":"20.970931649208","name":"Przasnyska - Rydygiera","spot":"1","number":"9428","bikes":"13","bike_racks":"15","free_racks":"2","terminal_type":"7inch","bike_numbers":"28801,28738,28691,28069,27989,27164,26508,26264,25520,29007,96220,96209,96123","bike_types":{"4":13},"place_type":"0","rack_locks":"1"},{"uid":"2585308","lat":"52.253594","lng":"20.9798744","name":"Pow\u0105zkowska - Burakowska","spot":"1","number":"9429","bikes":"18","bike_racks":"20","free_racks":"2","terminal_type":"7inch","bike_numbers":"28570,28130,28111,27306,27274,27072,26888,26691,26532,26083,25804,25660,25339,25134,25104,96553,96434,96411","bike_types":{"4":18},"place_type":"0","rack_locks":"1"},{"uid":"2585311","lat":"52.2576018","lng":"20.9944975","name":"Metro Dworzec Gda\u0144ski","spot":"1","number":"9430","bikes":"27","bike_racks":"30","free_racks":"10","terminal_type":"7inch","bike_numbers":"24898,24870,24859,24805,24652,28727,28723,28593,27500,27329,27247,27235,26926,26833,26736,26717,26533,26435,26401,25746,25522,25227,29054,28993,96491,29190,29225","bike_types":{"4":27},"place_type":"0","rack_locks":"1"},{"uid":"2585315","lat":"52.2465952","lng":"20.9429216","name":"Obozowa - Cio\u0142ka","spot":"1","number":"9432","bikes":"11","bike_racks":"13","free_racks":"1","terminal_type":"7inch","bike_numbers":"24813,28413,27948,27792,27600,27587,27439,26559,26543,25152,96050","bike_types":{"4":11},"place_type":"0","rack_locks":"1"},{"uid":"2585317","lat":"52.227621983552","lng":"20.956758856773","name":"al. Prymasa Tysi\u0105clecia - Kasprzaka","spot":"1","number":"9433","bikes":"24","bike_racks":"23","free_racks":"0","terminal_type":"7inch","bike_numbers":"28476,28457,28296,28156,27765,27055,26945,26876,26780,26776,26675,26299,26099,25369,25340,25294,25188,28944,29361,28828,96362,96275,96236,96136","bike_types":{"4":24},"place_type":"0","rack_locks":"1"},{"uid":"2585319","lat":"52.246037","lng":"20.962463","name":"Obozowa - Radziwie","spot":"1","number":"9434","bikes":"16","bike_racks":"13","free_racks":"0","terminal_type":"7inch","bike_numbers":"24020,24006,28220,27840,27707,27641,27597,27434,27004,26973,26595,26045,25976,25611,28969,96573","bike_types":{"26":2,"4":14},"place_type":"0","rack_locks":"1"},{"uid":"2585321","lat":"52.2514708","lng":"20.9857053","name":"al. Jana Paw\u0142a II - Stawki","spot":"1","number":"9435","bikes":"15","bike_racks":"23","free_racks":"8","terminal_type":"7inch","bike_numbers":"24884,24616,25005,28477,27135,26586,26463,26450,25676,25427,25189,25085,29023,28888,29241","bike_types":{"4":15},"place_type":"0","rack_locks":"1"},{"uid":"2585323","lat":"52.2535305","lng":"20.9924922","name":"Stawki - Dubois","spot":"1","number":"9436","bikes":"4","bike_racks":"13","free_racks":"9","terminal_type":"7inch","bike_numbers":"24683,26562,25730,29140","bike_types":{"4":3,"0":1},"place_type":"0","rack_locks":"1"},{"uid":"2585326","lat":"52.2541702","lng":"20.9980649","name":"Andersa - Muranowska","spot":"1","number":"9437","bikes":"8","bike_racks":"30","free_racks":"22","terminal_type":"7inch","bike_numbers":"24671,24668,28653,28575,28444,27650,96533,29276","bike_types":{"4":8},"place_type":"0","rack_locks":"1"},{"uid":"2585327","lat":"52.255877","lng":"21.0099819","name":"Sanguszki - Wybrze\u017ce Gda\u0144skie","spot":"1","number":"9438","bikes":"30","bike_racks":"28","free_racks":"0","terminal_type":"7inch","bike_numbers":"24980,24865,24864,24848,28602,28285,27977,27841,27108,26785,26751,26455,25890,25785,25719,25530,25253,29348,28856,96571,96540,96398,29274,29249","bike_types":{"4":24},"place_type":"0","rack_locks":"1"},{"uid":"2585330","lat":"52.24418","lng":"20.97794","name":"Okopowa - Anielewicza","spot":"1","number":"9440","bikes":"4","bike_racks":"20","free_racks":"15","terminal_type":"7inch","bike_numbers":"24747,28438,26809,26701","bike_types":{"4":4},"place_type":"0","rack_locks":"1"},{"uid":"2585333","lat":"52.2486","lng":"20.98352","name":"Smocza - Mi\u0142a","spot":"1","number":"9441","bikes":"8","bike_racks":"15","free_racks":"7","terminal_type":"7inch","bike_numbers":"24976,24831,24019,24001,28116,27375,26839,25159","bike_types":{"4":6,"26":2},"place_type":"0","rack_locks":"1"},{"uid":"2585334","lat":"52.24616","lng":"20.98538","name":"Smocza - Anielewicza","spot":"1","number":"9442","bikes":"5","bike_racks":"17","free_racks":"10","terminal_type":"7inch","bike_numbers":"27470,27443,26864,25585,25128","bike_types":{"4":5},"place_type":"0","rack_locks":"1"},{"uid":"2585335","lat":"52.247226","lng":"20.9893155","name":"al. Jana Paw\u0142a II - Anielewicza","spot":"1","number":"9443","bikes":"4","bike_racks":"22","free_racks":"17","terminal_type":"7inch","bike_numbers":"28775,28504,27918,96506","bike_types":{"4":4},"place_type":"0","rack_locks":"1"},{"uid":"2585337","lat":"52.249052","lng":"20.9948923","name":"Anielewicza - Zamenhofa","spot":"1","number":"9444","bikes":"9","bike_racks":"15","free_racks":"6","terminal_type":"7inch","bike_numbers":"25008,28548,27908,27068,26618,26267,26094,25405,28857","bike_types":{"4":9},"place_type":"0","rack_locks":"1"},{"uid":"2585338","lat":"52.2492196","lng":"20.9971878","name":"Anielewicza - Andersa","spot":"1","number":"9445","bikes":"1","bike_racks":"20","free_racks":"18","terminal_type":"7inch","bike_numbers":"27451","bike_types":{"4":1},"place_type":"0","rack_locks":"1"},{"uid":"2585340","lat":"52.251549","lng":"21.002749","name":"Bonifraterska - Franciszka\u0144ska","spot":"1","number":"9446","bikes":"9","bike_racks":"16","free_racks":"6","terminal_type":"7inch","bike_numbers":"28030,26480,25572,25464,25424,25309,25029,29043,96558","bike_types":{"4":9},"place_type":"0","rack_locks":"1"},{"uid":"2585342","lat":"52.2541119","lng":"21.0093342","name":"Ko\u015bcielna - Piesza","spot":"1","number":"9448","bikes":"13","bike_racks":"26","free_racks":"11","terminal_type":"7inch","bike_numbers":"24897,24623,24526,28754,27706,27109,26879,26428,26413,26353,96445,96431,29258","bike_types":{"4":13},"place_type":"0","rack_locks":"1"},{"uid":"2585344","lat":"52.2392622","lng":"20.8987641","name":"P\u0119tla Os. G\u00f3rczewska","spot":"1","number":"9449","bikes":"26","bike_racks":"15","free_racks":"0","terminal_type":"7inch","bike_numbers":"24631,28335,27968,27892,27771,27769,27497,27417,26496,25831,25661,25389,25241,25197,25138,25113,29339,28959,96433,96348,96271,96255,96159,96102,96082,29238","bike_types":{"4":26},"place_type":"0","rack_locks":"1"},{"uid":"2585345","lat":"52.2389287","lng":"20.9139535","name":"Bemowo-Ratusz","spot":"1","number":"9450","bikes":"17","bike_racks":"20","free_racks":"10","terminal_type":"7inch","bike_numbers":"24835,24507,24472,27808,27226,26658,25892,25805,25801,25788,25397,25135,25105,29436,96246,29171,29221","bike_types":{"4":16,"51":1},"place_type":"0","rack_locks":"1"},{"uid":"2585346","lat":"52.2387861","lng":"20.9424946","name":"Okocimska - Olbrachta","spot":"1","number":"9451","bikes":"13","bike_racks":"18","free_racks":"5","terminal_type":"7inch","bike_numbers":"24736,24567,27756,27676,27299,26859,25889,25880,25633,29051,28895,96518,29277","bike_types":{"4":13},"place_type":"0","rack_locks":"1"},{"uid":"2585349","lat":"52.2506241","lng":"21.0533611","name":"Dworzec Wschodni - Lubelska","spot":"1","number":"9452","bikes":"15","bike_racks":"15","free_racks":"0","terminal_type":"7inch","bike_numbers":"24964,24787,28741,28721,28468,28387,27590,27449,27440,27353,26414,25857,29447,96229,29259","bike_types":{"4":15},"place_type":"0","rack_locks":"1"},{"uid":"2585351","lat":"52.2369249","lng":"20.9723559","name":"Leszno - M\u0142ynarska","spot":"1","number":"9453","bikes":"6","bike_racks":"30","free_racks":"24","terminal_type":"7inch","bike_numbers":"24951,24023,26136,25621,25324,96428","bike_types":{"4":5,"26":1},"place_type":"0","rack_locks":"1"},{"uid":"2585352","lat":"52.2430451","lng":"20.9803864","name":"Dzielna - Bellottiego","spot":"1","number":"9454","bikes":"11","bike_racks":"13","free_racks":"2","terminal_type":"7inch","bike_numbers":"28641,28269,27823,27780,27447,27166,26093,25778,96500,96384,24048","bike_types":{"4":10,"26":1},"place_type":"0","rack_locks":"1"},{"uid":"2585353","lat":"52.24108","lng":"20.98316","name":"Wolno\u015b\u0107 - Bellottiego","spot":"1","number":"9455","bikes":"0","bike_racks":"16","free_racks":"16","terminal_type":"7inch","place_type":"0","rack_locks":"1","bike_numbers":null,"bike_types":[]},{"uid":"2585354","lat":"52.2435448","lng":"20.9873507","name":"Smocza - Nowolipki","spot":"1","number":"9456","bikes":"4","bike_racks":"16","free_racks":"14","terminal_type":"7inch","bike_numbers":"24675,28157,26986,26078","bike_types":{"4":4},"place_type":"0","rack_locks":"1"},{"uid":"2585356","lat":"52.2445767","lng":"20.99177","name":"al. Jana Paw\u0142a II - Nowolipki","spot":"1","number":"9457","bikes":"10","bike_racks":"16","free_racks":"6","terminal_type":"7inch","bike_numbers":"24927,24681,24530,28525,28263,26127,25878,25816,25095,96585","bike_types":{"4":10},"place_type":"0","rack_locks":"1"},{"uid":"2585358","lat":"52.22868","lng":"20.91509","name":"Powsta\u0144c\u00f3w \u015al\u0105skich - Cz\u0142uchowska","spot":"1","number":"9458","bikes":"11","bike_racks":"16","free_racks":"4","terminal_type":"7inch","bike_numbers":"24603,28772,28728,28664,27625,26439,26423,26124,28847,96503,29185","bike_types":{"4":11},"place_type":"0","rack_locks":"1"},{"uid":"2585360","lat":"52.2342032","lng":"20.934689","name":"Jana Olbrachta - Antka Rozpylacza","spot":"1","number":"9459","bikes":"13","bike_racks":"13","free_racks":"2","terminal_type":"7inch","bike_numbers":"24728,28677,28135,26482,26443,26144,25721,25304,25022,29657,28808,29186,29156","bike_types":{"4":13},"place_type":"0","rack_locks":"1"},{"uid":"2585364","lat":"52.2401623","lng":"20.9877277","name":"Wola-Ratusz","spot":"1","number":"9460","bikes":"8","bike_racks":"15","free_racks":"5","terminal_type":"7inch","bike_numbers":"25000,28714,26878,26239,25038,96373,96278,96235","bike_types":{"4":8},"place_type":"0","rack_locks":"1"},{"uid":"2585368","lat":"52.2445326","lng":"20.99998","name":"Plac Bankowy - Kino Muran\u00f3w","spot":"1","number":"9462","bikes":"10","bike_racks":"17","free_racks":"7","terminal_type":"7inch","bike_numbers":"24592,28212,27626,27566,27459,26720,26682,25822,25618,96456","bike_types":{"4":10},"place_type":"0","rack_locks":"1"},{"uid":"2585369","lat":"52.2449465","lng":"21.0012943","name":"Andersa - D\u0142uga","spot":"1","number":"9463","bikes":"7","bike_racks":"30","free_racks":"23","terminal_type":"7inch","bike_numbers":"28599,26549,26406,25554,25082,96281,96260","bike_types":{"4":7},"place_type":"0","rack_locks":"1"},{"uid":"2585370","lat":"52.2442666","lng":"21.0015893","name":"Marsza\u0142kowska - al. Solidarno\u015bci","spot":"1","number":"9464","bikes":"16","bike_racks":"30","free_racks":"14","terminal_type":"7inch","bike_numbers":"28665,28547,28128,27907,27685,27610,27415,27275,27018,26282,26157,26087,96551,96547,96121,96105","bike_types":{"4":16},"place_type":"0","rack_locks":"1"},{"uid":"2585371","lat":"52.2431975","lng":"21.0016603","name":"Plac Bankowy - Ratusz","spot":"1","number":"9465","bikes":"24","bike_racks":"30","free_racks":"7","terminal_type":"7inch","bike_numbers":"24877,24482,28726,28710,28485,28132,28004,27980,27957,27658,27173,26800,26488,26164,26003,25723,25718,25606,25578,25444,25260,25155,28952,96385","bike_types":{"4":23,"51":1},"place_type":"0","rack_locks":"1"},{"uid":"2585373","lat":"52.2435719","lng":"21.0066801","name":"Senatorska - Biela\u0144ska","spot":"1","number":"9466","bikes":"10","bike_racks":"17","free_racks":"8","terminal_type":"7inch","bike_numbers":"28439,27379,27146,27106,26997,26527,89809,29435,96554,96463","bike_types":{"4":10},"place_type":"0","rack_locks":"1"},{"uid":"2585377","lat":"52.246314509834","lng":"21.0113042593","name":"Miodowa","spot":"1","number":"9467","bikes":"9","bike_racks":"24","free_racks":"14","terminal_type":"7inch","bike_numbers":"24908,28624,27921,27501,27395,26743,25992,25960,25183","bike_types":{"4":9},"place_type":"0","rack_locks":"1"},{"uid":"2585378","lat":"52.2435965","lng":"21.0140803","name":"Krakowskie Przedmie\u015bcie - Tr\u0119backa","spot":"1","number":"9468","bikes":"17","bike_racks":"14","free_racks":"0","terminal_type":"7inch","bike_numbers":"28534,27950,27902,27737,27186,27126,27100,26860,25974,25550,29092,96019,96501,96350,96274,96115,96113","bike_types":{"4":17},"place_type":"0","rack_locks":"1"},{"uid":"2585379","lat":"52.2465625","lng":"21.0174345","name":"Mariensztat","spot":"1","number":"9469","bikes":"9","bike_racks":"15","free_racks":"6","terminal_type":"7inch","bike_numbers":"24474,28588,28517,28472,27995,27795,26840,25264,96254","bike_types":{"51":1,"4":8},"place_type":"0","rack_locks":"1"},{"uid":"2585381","lat":"52.224934","lng":"20.945489","name":"Jana Kazimierza - Giz\u00f3w","spot":"1","number":"9471","bikes":"16","bike_racks":"13","free_racks":"6","terminal_type":"7inch","bike_numbers":"24742,24707,28574,28272,27774,27463,27065,27022,26885,26791,26250,25511,25476,25372,29041,28816","bike_types":{"4":16},"place_type":"0","rack_locks":"1"},{"uid":"2585385","lat":"52.23016","lng":"20.951558","name":"Wolska - Elekcyjna","spot":"1","number":"9472","bikes":"19","bike_racks":"20","free_racks":"4","terminal_type":"7inch","bike_numbers":"24935,24722,24612,28142,27711,27338,26953,26504,26452,26381,26040,26017,25939,25671,25303,25019,28921,28979,96212","bike_types":{"4":19},"place_type":"0","rack_locks":"1"},{"uid":"2585387","lat":"52.237662392829","lng":"20.955492854118","name":"al. Prymasa Tysi\u0105clecia - G\u00f3rczewska","spot":"1","number":"9473","bikes":"8","bike_racks":"20","free_racks":"13","terminal_type":"7inch","bike_numbers":"28320,27883,26985,26764,26265,25456,96016,96305","bike_types":{"4":8},"place_type":"0","rack_locks":"1"},{"uid":"2585389","lat":"52.2333374","lng":"20.9652776","name":"Wolska - P\u0142ocka","spot":"1","number":"9474","bikes":"13","bike_racks":"15","free_racks":"8","terminal_type":"7inch","bike_numbers":"24837,24028,28347,28035,27896,27455,27027,26580,26057,25858,25717,25642,96520","bike_types":{"4":12,"26":1},"place_type":"0","rack_locks":"1"},{"uid":"2585391","lat":"52.228522296173","lng":"20.969638824463","name":"Kasprzaka - Skierniewicka","spot":"1","number":"9475","bikes":"6","bike_racks":"21","free_racks":"17","terminal_type":"7inch","bike_numbers":"24588,28898,28503,28017,27748,26687","bike_types":{"4":6},"place_type":"0","rack_locks":"1"},{"uid":"2585394","lat":"52.22898","lng":"20.97843","name":"Kasprzaka - Karolkowa","spot":"1","number":"9476","bikes":"9","bike_racks":"15","free_racks":"6","terminal_type":"7inch","bike_numbers":"24916,24571,24033,27934,27789,25941,29028,29387,96322","bike_types":{"4":8,"26":1},"place_type":"0","rack_locks":"1"},{"uid":"2585396","lat":"52.2328752","lng":"20.9805411","name":"Muzeum Powstania Warszawskiego","spot":"1","number":"9477","bikes":"7","bike_racks":"10","free_racks":"3","terminal_type":"7inch","bike_numbers":"24832,24782,24608,24584,28453,26079,25685","bike_types":{"4":7},"place_type":"0","rack_locks":"1"},{"uid":"2585398","lat":"52.22983","lng":"20.983123","name":"Metro Rondo Daszy\u0144skiego","spot":"1","number":"9478","bikes":"4","bike_racks":"26","free_racks":"20","terminal_type":"7inch","bike_numbers":"27410,26852,26388,29386","bike_types":{"4":4},"place_type":"0","rack_locks":"1"},{"uid":"2585400","lat":"52.23145","lng":"20.98869","name":"Prosta - Wronia","spot":"1","number":"9479","bikes":"14","bike_racks":"15","free_racks":"1","terminal_type":"7inch","bike_numbers":"24515,24492,28729,28576,28345,28334,28015,26893,26471,25651,25353,29087,29141,29279","bike_types":{"4":12,"51":1,"0":1},"place_type":"0","rack_locks":"1"},{"uid":"2585401","lat":"52.2373141","lng":"20.9888488","name":"\u017belazna - Ch\u0142odna","spot":"1","number":"9480","bikes":"13","bike_racks":"15","free_racks":"1","terminal_type":"7inch","bike_numbers":"28299,28131,27964,27152,27010,26598,25729,25658,25282,25064,28811,29275,96587","bike_types":{"4":13},"place_type":"0","rack_locks":"1"},{"uid":"2585402","lat":"52.2344946","lng":"20.9905117","name":"\u017belazna - Grzybowska","spot":"1","number":"9481","bikes":"12","bike_racks":"20","free_racks":"8","terminal_type":"7inch","bike_numbers":"28694,28425,28329,27321,25906,25638,25177,29040,29039,29639,28846,96483","bike_types":{"4":12},"place_type":"0","rack_locks":"1"},{"uid":"2585405","lat":"52.238666","lng":"20.9957314","name":"al. Jana Paw\u0142a II - Plac Mirowski","spot":"1","number":"9482","bikes":"12","bike_racks":"16","free_racks":"4","terminal_type":"7inch","bike_numbers":"24866,24565,24549,28001,27885,27181,26960,26309,25597,25124,96473,96468","bike_types":{"4":12},"place_type":"0","rack_locks":"1"},{"uid":"2585406","lat":"52.2357151","lng":"20.9966071","name":"al. Jana Paw\u0142a II - Grzybowska","spot":"1","number":"9483","bikes":"7","bike_racks":"23","free_racks":"16","terminal_type":"7inch","bike_numbers":"24032,27826,27171,26304,26301,96507,96390","bike_types":{"26":1,"4":6},"place_type":"0","rack_locks":"1"},{"uid":"2585410","lat":"52.23958","lng":"21.00027","name":"Ptasia - Zimna","spot":"1","number":"9485","bikes":"6","bike_racks":"16","free_racks":"10","terminal_type":"7inch","bike_numbers":"24595,28764,28397,26518,29372,96452","bike_types":{"4":6},"place_type":"0","rack_locks":"1"},{"uid":"2585412","lat":"52.2336314","lng":"21.0028795","name":"Emilii Plater - \u015awi\u0119tokrzyska","spot":"1","number":"9486","bikes":"8","bike_racks":"26","free_racks":"16","terminal_type":"7inch","bike_numbers":"28379,27190,27140,27082,26796,25984,25040,96457","bike_types":{"4":8},"place_type":"0","rack_locks":"1"},{"uid":"2585413","lat":"52.2358704","lng":"21.0037806","name":"Plac Grzybowski","spot":"1","number":"9487","bikes":"23","bike_racks":"26","free_racks":"4","terminal_type":"7inch","bike_numbers":"24750,24738,24541,28422,28106,28091,28044,28033,27757,27144,27024,26962,26457,26407,26240,26203,25955,25641,25626,96568,96380,96161,29256","bike_types":{"4":23},"place_type":"0","rack_locks":"1"},{"uid":"2585416","lat":"52.2384853","lng":"21.0067552","name":"Marsza\u0142kowska - Kr\u00f3lewska","spot":"1","number":"9488","bikes":"6","bike_racks":"19","free_racks":"13","terminal_type":"7inch","bike_numbers":"24845,28025,27782,27603,25308,96100","bike_types":{"4":6},"place_type":"0","rack_locks":"1"},{"uid":"2585417","lat":"52.2364206","lng":"21.0072407","name":"Marsza\u0142kowska - Zielna","spot":"1","number":"9489","bikes":"9","bike_racks":"30","free_racks":"21","terminal_type":"7inch","bike_numbers":"24593,28489,28351,27248,26963,26714,29422,96353,29270","bike_types":{"4":9},"place_type":"0","rack_locks":"1"},{"uid":"2585420","lat":"52.2397008","lng":"21.0119292","name":"Plac Ma\u0142achowskiego","spot":"1","number":"9491","bikes":"12","bike_racks":"16","free_racks":"4","terminal_type":"7inch","bike_numbers":"28109,27889,27609,26783,26438,26016,25793,25432,29042,96419,96360,29174","bike_types":{"4":12},"place_type":"0","rack_locks":"1"},{"uid":"2585422","lat":"52.2359114","lng":"21.0135654","name":"Plac Powsta\u0144c\u00f3w Warszawy","spot":"1","number":"9492","bikes":"20","bike_racks":"20","free_racks":"0","terminal_type":"7inch","bike_numbers":"24669,24043,28678,28674,28644,28275,27075,27061,26824,26379,26198,25837,25753,25254,25098,25010,96038,96499,96462,96379","bike_types":{"4":19,"26":1},"place_type":"0","rack_locks":"1"},{"uid":"2585423","lat":"52.2393559","lng":"21.016603","name":"Krakowskie Przedmie\u015bcie - Traugutta","spot":"1","number":"9493","bikes":"6","bike_racks":"24","free_racks":"18","terminal_type":"7inch","bike_numbers":"24999,28076,27262,25404,96566,29231","bike_types":{"4":6},"place_type":"0","rack_locks":"1"},{"uid":"2585429","lat":"52.238298","lng":"21.0184014","name":"Obo\u017ana - Kopernika","spot":"1","number":"9495","bikes":"7","bike_racks":"22","free_racks":"15","terminal_type":"7inch","bike_numbers":"27657,27429,26302,25212,25062,29097,28970","bike_types":{"4":7},"place_type":"0","rack_locks":"1"},{"uid":"2585430","lat":"52.24190654256","lng":"21.024259328842","name":"Lipowa - Dobra","spot":"1","number":"9496","bikes":"11","bike_racks":"19","free_racks":"1","terminal_type":"7inch","bike_numbers":"24867,24673,28623,27527,27444,27411,26921,25615,25011,96285,96205","bike_types":{"4":11},"place_type":"0","rack_locks":"1"},{"uid":"2585431","lat":"52.2413087","lng":"21.0281727","name":"Centrum Nauki Kopernik","spot":"1","number":"9497","bikes":"26","bike_racks":"30","free_racks":"4","terminal_type":"7inch","bike_numbers":"24911,24903,28586,28549,28352,28291,28276,27913,27633,26896,26672,25654,25644,25589,25467,29072,29445,29647,28865,96026,96450,96414,96352,96288,96277,96191","bike_types":{"4":26},"place_type":"0","rack_locks":"1"},{"uid":"2585432","lat":"52.2264464","lng":"20.9837164","name":"Kolejowa","spot":"1","number":"9498","bikes":"8","bike_racks":"16","free_racks":"8","terminal_type":"7inch","bike_numbers":"24861,28700,26935,26081,25663,25381,28936,29433","bike_types":{"4":8},"place_type":"0","rack_locks":"1"},{"uid":"2585433","lat":"52.22983","lng":"20.993996","name":"\u017belazna - Sienna","spot":"1","number":"9499","bikes":"18","bike_racks":"24","free_racks":"5","terminal_type":"7inch","bike_numbers":"24965,24920,24769,24741,28885,28626,27720,27551,27254,27213,27009,26851,25794,25429,29343,96480,96421,29227","bike_types":{"4":18},"place_type":"0","rack_locks":"1"},{"uid":"2585435","lat":"52.230201297582","lng":"20.999550819397","name":"al. Jana Paw\u0142a II - Z\u0142ota","spot":"1","number":"9500","bikes":"7","bike_racks":"16","free_racks":"9","terminal_type":"7inch","bike_numbers":"28662,27095,26177,25862,25762,25284,96181","bike_types":{"4":7},"place_type":"0","rack_locks":"1"},{"uid":"2585438","lat":"52.2309778","lng":"21.0036755","name":"Emilii Plater - Z\u0142ota","spot":"1","number":"9501","bikes":"16","bike_racks":"30","free_racks":"14","terminal_type":"7inch","bike_numbers":"24520,28608,28114,28086,27315,27066,26702,25981,25604,25573,25499,25252,29126,29144,96482,29273","bike_types":{"4":14,"0":2},"place_type":"0","rack_locks":"1"},{"uid":"2585440","lat":"52.232816601853","lng":"21.006980538368","name":"Pa\u0142ac Kultury i Nauki","spot":"1","number":"9502","bikes":"2","bike_racks":"17","free_racks":"15","terminal_type":"7inch","bike_numbers":"26090,96523","bike_types":{"4":2},"place_type":"0","rack_locks":"1"},{"uid":"2585442","lat":"52.232934","lng":"21.0101791","name":"Marsza\u0142kowska - Z\u0142ota","spot":"1","number":"9503","bikes":"9","bike_racks":"22","free_racks":"13","terminal_type":"7inch","bike_numbers":"24839,24820,24755,27749,27266,25819,25438,29432,96230","bike_types":{"4":9},"place_type":"0","rack_locks":"1"},{"uid":"2585445","lat":"52.231987","lng":"21.016092","name":"Bracka - Krucza","spot":"1","number":"9504","bikes":"9","bike_racks":"20","free_racks":"12","terminal_type":"7inch","bike_numbers":"24753,28319,27545,27179,26754,96517,96407,96376,29163","bike_types":{"4":9},"place_type":"0","rack_locks":"1"},{"uid":"2585446","lat":"52.2355713","lng":"21.0179642","name":"Nowy \u015awiat - Warecka","spot":"1","number":"9505","bikes":"12","bike_racks":"24","free_racks":"13","terminal_type":"7inch","bike_numbers":"24950,27809,27139,25760,25463,25446,25058,29056,29362,96290,96279,29264","bike_types":{"4":12},"place_type":"0","rack_locks":"1"},{"uid":"2585447","lat":"52.2337571","lng":"21.0202789","name":"Ga\u0142czy\u0144skiego - Foksal","spot":"1","number":"9506","bikes":"22","bike_racks":"24","free_racks":"2","terminal_type":"7inch","bike_numbers":"24917,28690,28074,27692,27687,27156,26890,26816,26325,26159,26158,26128,26046,26020,25824,25696,25555,25441,25043,25023,96017,96423","bike_types":{"4":22},"place_type":"0","rack_locks":"1"},{"uid":"2585450","lat":"52.2375934","lng":"21.0256487","name":"Topiel - Tamka","spot":"1","number":"9507","bikes":"12","bike_racks":"20","free_racks":"7","terminal_type":"7inch","bike_numbers":"24795,28341,27775,26951,26709,26420,26246,25539,28980,96005,96472,96310","bike_types":{"4":12},"place_type":"0","rack_locks":"1"},{"uid":"2585452","lat":"52.2358752","lng":"21.0317323","name":"Solec - Jaracza","spot":"1","number":"9508","bikes":"14","bike_racks":"15","free_racks":"1","terminal_type":"7inch","bike_numbers":"24940,24788,24478,27653,27464,27259,27117,26662,26069,25485,28919,28891,96309,96076","bike_types":{"4":13,"51":1},"place_type":"0","rack_locks":"1"},{"uid":"2585453","lat":"52.2218874","lng":"20.9795301","name":"al. Jerozolimskie - Niemcewicza","spot":"1","number":"9509","bikes":"5","bike_racks":"19","free_racks":"13","terminal_type":"7inch","bike_numbers":"28596,28259,27880,27580,27127","bike_types":{"4":5},"place_type":"0","rack_locks":"1"},{"uid":"2585455","lat":"52.2222155","lng":"20.9866293","name":"Ochota-Ratusz","spot":"1","number":"9510","bikes":"8","bike_racks":"23","free_racks":"15","terminal_type":"7inch","bike_numbers":"24857,27915,26967,26342,26307,25343,25317,25012","bike_types":{"4":8},"place_type":"0","rack_locks":"1"},{"uid":"2585457","lat":"52.2249718","lng":"20.9897661","name":"Plac Zawiszy","spot":"1","number":"9511","bikes":"9","bike_racks":"24","free_racks":"15","terminal_type":"7inch","bike_numbers":"24949,24732,28766,28697,28551,28400,25093,96032,96114","bike_types":{"4":9},"place_type":"0","rack_locks":"1"},{"uid":"2585460","lat":"52.22626","lng":"20.9961309","name":"al. Jerozolimskie - Lindleya","spot":"1","number":"9512","bikes":"10","bike_racks":"15","free_racks":"4","terminal_type":"7inch","bike_numbers":"24487,25006,28424,26752,26584,26503,26369,25967,96023,96125","bike_types":{"51":1,"4":9},"place_type":"0","rack_locks":"1"},{"uid":"2585462","lat":"52.2241455","lng":"20.9975244","name":"Lindleya - szpital","spot":"1","number":"9513","bikes":"8","bike_racks":"28","free_racks":"20","terminal_type":"7inch","bike_numbers":"24734,28474,27646,27529,26826,26671,26545,96397","bike_types":{"4":8},"place_type":"0","rack_locks":"1"},{"uid":"2585464","lat":"52.227861","lng":"21.0008509","name":"Warszawa \u015ar\u00f3dmie\u015bcie WKD","spot":"1","number":"9514","bikes":"11","bike_racks":"18","free_racks":"7","terminal_type":"7inch","bike_numbers":"24670,27723,26765,26469,26049,25923,29014,96455,96435,96083,24052","bike_types":{"4":10,"26":1},"place_type":"0","rack_locks":"1"},{"uid":"2585466","lat":"52.2249555","lng":"21.0031664","name":"Oczki - WUM","spot":"1","number":"9515","bikes":"12","bike_racks":"19","free_racks":"7","terminal_type":"7inch","bike_numbers":"28753,28695,28585,27382,26981,26868,26555,26141,25163,29063,28912,29656","bike_types":{"4":12},"place_type":"0","rack_locks":"1"},{"uid":"2585469","lat":"52.2290464","lng":"21.0054544","name":"Emilii Plater - Al. Jerozolimskie","spot":"1","number":"9517","bikes":"0","bike_racks":"30","free_racks":"30","terminal_type":"7inch","place_type":"0","rack_locks":"1","bike_numbers":null,"bike_types":[]},{"uid":"2585470","lat":"52.2259343","lng":"21.0067537","name":"Emilii Plater - Wsp\u00f3lna","spot":"1","number":"9518","bikes":"9","bike_racks":"15","free_racks":"6","terminal_type":"7inch","bike_numbers":"24943,24702,28081,28064,27473,26422,25843,25705,96372","bike_types":{"4":9},"place_type":"0","rack_locks":"1"},{"uid":"2585472","lat":"52.23001","lng":"21.01088","name":"Metro Centrum","spot":"1","number":"9519","bikes":"7","bike_racks":"30","free_racks":"23","terminal_type":"7inch","bike_numbers":"28152,27651,26162,26145,26131,25447,25319","bike_types":{"4":7},"place_type":"0","rack_locks":"1"},{"uid":"2585473","lat":"52.229347019086","lng":"21.011314988136","name":"Marsza\u0142kowska - Al. Jerozolimskie","spot":"1","number":"9520","bikes":"9","bike_racks":"24","free_racks":"14","terminal_type":"7inch","bike_numbers":"28464,28312,27007,26372,25849,25612,60845,28883,96545","bike_types":{"4":9},"place_type":"0","rack_locks":"1"},{"uid":"2585476","lat":"52.230418150276","lng":"21.013610959053","name":"al. Jerozolimskie - rejon Rotundy","spot":"1","number":"9521","bikes":"7","bike_racks":"24","free_racks":"16","terminal_type":"7inch","bike_numbers":"24463,25009,26462,26358,26028,25310,96049","bike_types":{"51":1,"4":6},"place_type":"0","rack_locks":"1"},{"uid":"2585477","lat":"52.2262882","lng":"21.0135705","name":"Marsza\u0142kowska - Ho\u017ca","spot":"1","number":"9522","bikes":"17","bike_racks":"15","free_racks":"0","terminal_type":"7inch","bike_numbers":"24979,24834,28482,27510,27043,26990,26822,26746,26232,26010,25886,25704,25277,25100,28879,96493,96586","bike_types":{"4":17},"place_type":"0","rack_locks":"1"},{"uid":"2585492","lat":"52.2282923","lng":"21.0178542","name":"Krucza - Wsp\u00f3lna","spot":"1","number":"9523","bikes":"11","bike_racks":"28","free_racks":"17","terminal_type":"7inch","bike_numbers":"24642,24040,28745,28559,27481,26938,26171,29107,28807,96440,29255","bike_types":{"4":10,"26":1},"place_type":"0","rack_locks":"1"},{"uid":"2585684","lat":"52.23144","lng":"21.0213036","name":"Rondo de Gaulle'a","spot":"1","number":"9524","bikes":"7","bike_racks":"22","free_racks":"15","terminal_type":"7inch","bike_numbers":"27097,27087,26248,26219,96197,96169,29224","bike_types":{"4":7},"place_type":"0","rack_locks":"1"},{"uid":"2585694","lat":"52.2278487","lng":"21.0235084","name":"Plac Trzech Krzy\u017cy","spot":"1","number":"9525","bikes":"15","bike_racks":"23","free_racks":"7","maintenance":"1","terminal_type":"7inch","bike_numbers":"24925,28740,28688,28479,27719,27374,26993,26821,26590,26222,25893,25853,25691,96004,96438","bike_types":{"4":15},"place_type":"0","rack_locks":"1"},{"uid":"2585695","lat":"52.23324","lng":"21.0261179","name":"Smolna - PKP Powi\u015ble","spot":"1","number":"9526","bikes":"7","bike_racks":"18","free_racks":"11","terminal_type":"7inch","bike_numbers":"28755,28529,28121,27634,26802,25527,29148","bike_types":{"4":7},"place_type":"0","rack_locks":"1"},{"uid":"2585699","lat":"52.2340191","lng":"21.0300328","name":"Herberta - PKP Powi\u015ble","spot":"1","number":"9527","bikes":"21","bike_racks":"26","free_racks":"5","terminal_type":"7inch","bike_numbers":"24997,24933,24806,24621,27733,27452,27371,27165,27130,27096,26988,26037,25900,25726,25643,25449,29110,96538,96292,29194,29266","bike_types":{"4":21},"place_type":"0","rack_locks":"1"},{"uid":"2585704","lat":"52.2347879","lng":"21.0340991","name":"Solec - al. 3 Maja","spot":"1","number":"9528","bikes":"14","bike_racks":"24","free_racks":"9","terminal_type":"7inch","bike_numbers":"24804,28734,27967,27835,27784,27249,27034,26022,25895,25764,28972,96370,96151,96589","bike_types":{"4":14},"place_type":"0","rack_locks":"1"},{"uid":"2585708","lat":"52.2301405","lng":"21.0303694","name":"Ksi\u0105\u017c\u0119ca - Rozbrat","spot":"1","number":"9529","bikes":"20","bike_racks":"15","free_racks":"0","terminal_type":"7inch","bike_numbers":"24654,24585,24510,28685,28471,27701,27611,26819,26673,26252,26006,25360,25219,25133,25086,28837,96542,96527,96510,29195","bike_types":{"4":20},"place_type":"0","rack_locks":"1"},{"uid":"2585711","lat":"52.2172177","lng":"20.9713608","name":"Szcz\u0119\u015bliwicka - APS","spot":"1","number":"9530","bikes":"7","bike_racks":"22","free_racks":"15","terminal_type":"7inch","bike_numbers":"24640,24564,27919,26942,26243,26156,96164","bike_types":{"4":7},"place_type":"0","rack_locks":"1"},{"uid":"2585712","lat":"52.2179474","lng":"20.9775567","name":"Kopi\u0144ska - Bia\u0142obrzeska","spot":"1","number":"9531","bikes":"6","bike_racks":"15","free_racks":"8","terminal_type":"7inch","bike_numbers":"27619,26710,26047,25457,25631,96550","bike_types":{"4":6},"place_type":"0","rack_locks":"1"},{"uid":"2585714","lat":"52.2178554","lng":"20.9828138","name":"Plac Narutowicza","spot":"1","number":"9532","bikes":"12","bike_racks":"30","free_racks":"18","terminal_type":"7inch","bike_numbers":"27876,27526,27483,26690,26063,25938,25856,25508,25149,25109,96469,96262","bike_types":{"4":12},"place_type":"0","rack_locks":"1"},{"uid":"2585716","lat":"52.216641","lng":"20.9879476","name":"Raszy\u0144ska - Wawelska","spot":"1","number":"9533","bikes":"6","bike_racks":"20","free_racks":"13","terminal_type":"7inch","bike_numbers":"27866,26432,25345,25020,28942,29458","bike_types":{"4":6},"place_type":"0","rack_locks":"1"},{"uid":"2585717","lat":"52.2191029","lng":"20.9890149","name":"Raszy\u0144ska - Filtrowa","spot":"1","number":"9534","bikes":"4","bike_racks":"22","free_racks":"16","terminal_type":"7inch","bike_numbers":"27867,27270,26261,25173","bike_types":{"4":4},"place_type":"0","rack_locks":"1"},{"uid":"2585720","lat":"52.220676","lng":"21.0045554","name":"al. Niepodleg\u0142o\u015bci - Nowowiejska","spot":"1","number":"9535","bikes":"22","bike_racks":"30","free_racks":"7","terminal_type":"7inch","bike_numbers":"24974,24684,24534,24506,28622,28589,28565,27824,27802,27740,27086,26948,26610,26546,26216,26015,25820,25789,25416,25280,29076,28834","bike_types":{"4":22},"place_type":"0","rack_locks":"1"},{"uid":"2585721","lat":"52.2174693","lng":"21.0056537","name":"Kaczy\u0144skiego - al. Niepodleg\u0142o\u015bci","spot":"1","number":"9536","bikes":"9","bike_racks":"16","free_racks":"7","terminal_type":"7inch","bike_numbers":"24680,26170,25825,25388,25206,25132,96530,96394,29257","bike_types":{"4":9},"place_type":"0","rack_locks":"1"},{"uid":"2585722","lat":"52.2226831","lng":"21.0081097","name":"Noakowskiego - Koszykowa","spot":"1","number":"9537","bikes":"9","bike_racks":"24","free_racks":"17","terminal_type":"7inch","bike_numbers":"24779,24602,28036,27988,27963,26989,25942,25602,25125","bike_types":{"4":9},"place_type":"0","rack_locks":"1"},{"uid":"2585724","lat":"52.219916","lng":"21.0116824","name":"Plac Politechniki","spot":"1","number":"9538","bikes":"6","bike_racks":"27","free_racks":"20","terminal_type":"7inch","bike_numbers":"24542,24470,28897,28207,25158,96134","bike_types":{"4":5,"51":1},"place_type":"0","rack_locks":"1"},{"uid":"2585727","lat":"52.223503","lng":"21.0128519","name":"Pozna\u0144ska - Zesp\u00f3\u0142 Szk\u00f3\u0142 Gastronomicznych","spot":"1","number":"9539","bikes":"7","bike_racks":"18","free_racks":"11","terminal_type":"7inch","bike_numbers":"28265,27515,27216,26326,25687,29198,29260","bike_types":{"4":7},"place_type":"0","rack_locks":"1"},{"uid":"2585728","lat":"52.2174857","lng":"21.0142949","name":"Rondo Jazdy Polskiej","spot":"1","number":"9540","bikes":"10","bike_racks":"24","free_racks":"14","terminal_type":"7inch","bike_numbers":"24881,24778,27899,27215,27088,26929,25336,25144,29078,96119","bike_types":{"4":10},"place_type":"0","rack_locks":"1"},{"uid":"2585729","lat":"52.2197435","lng":"21.0157353","name":"ul. Wary\u0144skiego-ul. Nowowiejska-Metro Politechnika ","spot":"1","number":"9541","bikes":"3","bike_racks":"20","free_racks":"20","terminal_type":"7inch","bike_numbers":"24987,28899,29050","bike_types":{"4":3},"place_type":"0","rack_locks":"1"},{"uid":"2585731","lat":"52.2197681","lng":"21.0172775","name":"Plac Zbawiciela","spot":"1","number":"9542","bikes":"2","bike_racks":"12","free_racks":"10","terminal_type":"7inch","bike_numbers":"24958,29280","bike_types":{"4":2},"place_type":"0","rack_locks":"1"},{"uid":"2585735","lat":"52.2229427","lng":"21.0158211","name":"Plac Konstytucji","spot":"1","number":"9543","bikes":"19","bike_racks":"30","free_racks":"12","terminal_type":"7inch","bike_numbers":"24657,28045,28018,27848,27563,26996,26445,26362,26103,26074,25683,25551,25542,25232,29104,29089,29137,96028,96022","bike_types":{"4":18,"0":1},"place_type":"0","rack_locks":"1"},{"uid":"2585737","lat":"52.2238152","lng":"21.0207859","name":"Mokotowska - Pi\u0119kna","spot":"1","number":"9544","bikes":"21","bike_racks":"22","free_racks":"1","terminal_type":"7inch","bike_numbers":"24688,24646,24512,28747,28196,27854,27783,27772,27369,27362,26964,26936,26634,26531,25728,25610,25562,29084,28913,28918,96296","bike_types":{"4":21},"place_type":"0","rack_locks":"1"},{"uid":"2585738","lat":"52.2200212","lng":"21.0256299","name":"Plac na Rozdro\u017cu","spot":"1","number":"9545","bikes":"3","bike_racks":"26","free_racks":"23","terminal_type":"7inch","bike_numbers":"26486,25720,28843","bike_types":{"4":3},"place_type":"0","rack_locks":"1"},{"uid":"2585742","lat":"52.2249504","lng":"21.0268155","name":"Matejki - Wiejska","spot":"1","number":"9546","bikes":"22","bike_racks":"20","free_racks":"0","terminal_type":"7inch","bike_numbers":"28584,28071,27770,27282,27277,27187,27063,26919,26907,26760,26441,26359,26350,26066,25792,25771,25669,25129,28867,96029,96442,96251","bike_types":{"4":22},"place_type":"0","rack_locks":"1"},{"uid":"2585747","lat":"52.2221129","lng":"21.0343873","name":"My\u015bliwiecka - Rozbrat","spot":"1","number":"9547","bikes":"28","bike_racks":"21","free_racks":"0","terminal_type":"7inch","bike_numbers":"24983,25001,28761,28572,28300,28136,28112,27677,27183,27044,26889,26858,26836,26787,26741,26514,26493,26095,26042,25873,25859,25838,25489,29036,96492,96177,29169,29217","bike_types":{"4":28},"place_type":"0","rack_locks":"1"},{"uid":"2585748","lat":"52.2277124","lng":"21.0442955","name":"Port Czerniakowski","spot":"1","number":"9548","bikes":"17","bike_racks":"30","free_racks":"13","terminal_type":"7inch","bike_numbers":"24874,24775,24529,28573,28552,28516,28355,27534,27256,27218,26636,26092,26034,25299,29083,96048,96565","bike_types":{"4":17},"place_type":"0","rack_locks":"1"},{"uid":"2585749","lat":"52.2109711","lng":"20.9759125","name":"Gr\u00f3jecka - Bitwy Warszawskiej 1920 roku","spot":"1","number":"9549","bikes":"6","bike_racks":"20","free_racks":"13","terminal_type":"7inch","bike_numbers":"27157,26262,26026,25379,25091,96188","bike_types":{"4":6},"place_type":"0","rack_locks":"1"},{"uid":"2585750","lat":"52.2130296","lng":"20.9819985","name":"Pasteura - Winnicka - UW","spot":"1","number":"9550","bikes":"17","bike_racks":"24","free_racks":"7","terminal_type":"7inch","bike_numbers":"24902,28904,28903,27865,27697,27409,26630,26511,26288,26036,25887,29649,28806,28894,96010,96320,96099","bike_types":{"4":17},"place_type":"0","rack_locks":"1"},{"uid":"2585762","lat":"52.2107722","lng":"20.9847557","name":"Stefana Banacha - UW","spot":"1","number":"9551","bikes":"37","bike_racks":"29","free_racks":"0","terminal_type":"7inch","bike_numbers":"24828,24765,24745,28450,28409,28262,28193,28060,28003,27953,27935,27843,27622,27539,27420,27383,27269,27195,26863,26728,26713,26663,26402,26291,25921,25877,25523,25285,29344,28851,28996,96036,96556,96416,96409,96189,96156","bike_types":{"4":37},"place_type":"0","rack_locks":"1"},{"uid":"2585764","lat":"52.212671","lng":"21.003437","name":"Biblioteka Narodowa","spot":"1","number":"9552","bikes":"0","bike_racks":"24","free_racks":"24","terminal_type":"7inch","place_type":"0","rack_locks":"1","bike_numbers":null,"bike_types":[]},{"uid":"2585766","lat":"52.21691","lng":"21.01997","name":"Marsza\u0142kowska - Litewska","spot":"1","number":"9553","bikes":"12","bike_racks":"15","free_racks":"3","terminal_type":"7inch","bike_numbers":"24954,24767,27976,27564,27261,26540,26321,25811,25800,28956,28854,96408","bike_types":{"4":12},"place_type":"0","rack_locks":"1"},{"uid":"2585770","lat":"52.2083858","lng":"20.9631103","name":"P\u0119tla Szcz\u0119\u015bliwice","spot":"1","number":"9554","bikes":"10","bike_racks":"19","free_racks":"9","terminal_type":"7inch","bike_numbers":"24466,27970,27604,27582,25920,25761,25234,29071,29652,29164","bike_types":{"51":1,"4":9},"place_type":"0","rack_locks":"1"},{"uid":"2585771","lat":"52.206153650625","lng":"20.970287919044","name":"Dickensa - Geodet\u00f3w","spot":"1","number":"9555","bikes":"5","bike_racks":"16","free_racks":"12","terminal_type":"7inch","bike_numbers":"28817,28393,28009,25249,29374","bike_types":{"4":5},"place_type":"0","rack_locks":"1"},{"uid":"2585772","lat":"52.205361371875","lng":"20.984664559364","name":"\u017bwirki i Wigury - Ksi\u0119cia Trojdena","spot":"1","number":"9556","bikes":"12","bike_racks":"17","free_racks":"4","terminal_type":"7inch","bike_numbers":"24582,28752,28293,27372,27324,26823,25972,25678,25565,25240,25046,28815","bike_types":{"4":12},"place_type":"0","rack_locks":"1"},{"uid":"2585774","lat":"52.205801893754","lng":"20.998928546906","name":"Rakowiecka - \u015aw. A. Boboli","spot":"1","number":"9557","bikes":"9","bike_racks":"17","free_racks":"7","terminal_type":"7inch","bike_numbers":"24946,28739,28637,27924,26873,26528,25487,25214,96238","bike_types":{"4":9},"place_type":"0","rack_locks":"1"},{"uid":"2585776","lat":"52.209916","lng":"21.0067794","name":"al. Niepodleg\u0142o\u015bci - Batorego","spot":"1","number":"9558","bikes":"0","bike_racks":"26","free_racks":"25","terminal_type":"7inch","place_type":"0","rack_locks":"1","bike_numbers":null,"bike_types":[]},{"uid":"2585779","lat":"52.2132375","lng":"21.0210568","name":"Plac Unii Lubelskiej","spot":"1","number":"9559","bikes":"9","bike_racks":"24","free_racks":"15","terminal_type":"7inch","bike_numbers":"24649,26939,26830,26319,25178,29035,28949,28941,29278","bike_types":{"4":9},"place_type":"0","rack_locks":"1"},{"uid":"2585781","lat":"52.2027557","lng":"20.9508951","name":"W\u0142odarzewska - Maszynowa","spot":"1","number":"9560","bikes":"10","bike_racks":"18","free_racks":"8","terminal_type":"7inch","bike_numbers":"24455,27855,27565,27233,26932,26236,25547,25315,25222,96331","bike_types":{"51":1,"4":9},"place_type":"0","rack_locks":"1"},{"uid":"2585782","lat":"52.2017647","lng":"20.9820897","name":"Sanocka - Pruszkowska","spot":"1","number":"9561","bikes":"2","bike_racks":"15","free_racks":"13","terminal_type":"7inch","bike_numbers":"27760,25620","bike_types":{"4":2},"place_type":"0","rack_locks":"1"},{"uid":"2585785","lat":"52.1981365","lng":"20.9833717","name":"\u017bwirki i Wigury - Rac\u0142awicka","spot":"1","number":"9562","bikes":"5","bike_racks":"18","free_racks":"13","terminal_type":"7inch","bike_numbers":"28376,27851,27568,96237,96187","bike_types":{"4":5},"place_type":"0","rack_locks":"1"},{"uid":"2585787","lat":"52.20177","lng":"20.99969","name":"Wo\u0142oska - Kulskiego","spot":"1","number":"9563","bikes":"13","bike_racks":"15","free_racks":"2","terminal_type":"7inch","bike_numbers":"24914,24557,24518,27705,27355,26498,26133,25952,25827,25261,25035,29455,24555","bike_types":{"4":13},"place_type":"0","rack_locks":"1"},{"uid":"2585788","lat":"52.2042638","lng":"21.014428","name":"Madali\u0144skiego - Kazimierzowska","spot":"1","number":"9564","bikes":"7","bike_racks":"24","free_racks":"16","terminal_type":"7inch","bike_numbers":"24781,28473,27368,26613,25686,25193,29461","bike_types":{"4":7},"place_type":"0","rack_locks":"1"},{"uid":"2585789","lat":"52.2055175","lng":"21.0231033","name":"Pu\u0142awska - Dworkowa","spot":"1","number":"9565","bikes":"13","bike_racks":"19","free_racks":"6","terminal_type":"7inch","bike_numbers":"24996,24885,28143,27351,26556,26376,25986,25871,25795,25732,28951,29454,96485","bike_types":{"4":13},"place_type":"0","rack_locks":"1"},{"uid":"2585790","lat":"52.2071756","lng":"21.0312643","name":"Belwederska - Gagarina","spot":"1","number":"9566","bikes":"24","bike_racks":"30","free_racks":"6","terminal_type":"7inch","bike_numbers":"24956,24890,24580,24459,28769,28540,28527,28154,28012,27979,27975,27956,27767,27496,27377,27084,26597,26101,25846,25535,25174,28946,29136,96342","bike_types":{"4":22,"51":1,"0":1},"place_type":"0","rack_locks":"1"},{"uid":"2585791","lat":"52.2074193","lng":"21.0479621","name":"Czerniakowska - Gagarina","spot":"1","number":"9567","bikes":"22","bike_racks":"25","free_racks":"4","terminal_type":"7inch","bike_numbers":"24816,24645,28604,28546,28461,28421,28286,27732,27071,26699,26399,26285,26115,25225,25050,29080,29044,28900,28977,96466,96258,29172","bike_types":{"4":22},"place_type":"0","rack_locks":"1"},{"uid":"2585794","lat":"52.1938131","lng":"20.9914431","name":"Etiudy Rewolucyjnej - Mi\u0105czy\u0144ska","spot":"1","number":"9568","bikes":"9","bike_racks":"18","free_racks":"12","terminal_type":"7inch","bike_numbers":"28640,28384,28338,27477,26916,25586,25584,25465,29113","bike_types":{"4":9},"place_type":"0","rack_locks":"1"},{"uid":"2585799","lat":"52.1994156","lng":"21.0121384","name":"Metro Rac\u0142awicka","spot":"1","number":"9570","bikes":"6","bike_racks":"30","free_racks":"24","terminal_type":"7inch","bike_numbers":"28398,27222,27198,27051,25997,25223","bike_types":{"4":6},"place_type":"0","rack_locks":"1"},{"uid":"2585800","lat":"52.199505","lng":"21.0240975","name":"Pu\u0142awska - Dolna","spot":"1","number":"9571","bikes":"11","bike_racks":"18","free_racks":"7","terminal_type":"7inch","bike_numbers":"28458,27911,27488,26745,26365,26191,25823,25595,25380,28858,96479","bike_types":{"4":11},"place_type":"0","rack_locks":"1"},{"uid":"2585802","lat":"52.2014754","lng":"21.0360047","name":"Sobieskiego - Che\u0142mska","spot":"1","number":"9572","bikes":"13","bike_racks":"15","free_racks":"2","terminal_type":"7inch","bike_numbers":"24737,24497,28104,28103,27962,27763,27741,26831,26403,25592,96295,96192,29189","bike_types":{"4":12,"51":1},"place_type":"0","rack_locks":"1"},{"uid":"2585804","lat":"52.1998446","lng":"21.05095","name":"Czerniakowska - ZUS","spot":"1","number":"9573","bikes":"13","bike_racks":"15","free_racks":"2","terminal_type":"7inch","bike_numbers":"24739,24627,24517,28459,28356,28029,26797,26308,26193,25914,25737,25333,96317","bike_types":{"4":13},"place_type":"0","rack_locks":"1"},{"uid":"2585807","lat":"52.1916776","lng":"20.8689688","name":"PKP Ursus-Nied\u017awiadek","spot":"1","number":"9574","bikes":"12","bike_racks":"15","free_racks":"5","terminal_type":"7inch","bike_numbers":"24744,24465,28905,27598,27205,25922,25888,25840,29131,96512,96364,96345","bike_types":{"4":10,"51":1,"0":1},"place_type":"0","rack_locks":"1"},{"uid":"2585808","lat":"52.1960469","lng":"20.8849347","name":"PKP Ursus","spot":"1","number":"9575","bikes":"9","bike_racks":"16","free_racks":"7","terminal_type":"7inch","bike_numbers":"28591,28336,28287,28083,26602,26328,25835,25262,25221","bike_types":{"4":9},"place_type":"0","rack_locks":"1"},{"uid":"2585809","lat":"52.1869936","lng":"20.8906478","name":"Sosnkowskiego - OSiR Ursus","spot":"1","number":"9576","bikes":"16","bike_racks":"15","free_racks":"0","terminal_type":"7inch","bike_numbers":"28122,27942,27569,27508,26676,26659,26431,26397,26393,26339,25667,25436,25256,28893,96024,96091","bike_types":{"4":16},"place_type":"0","rack_locks":"1"},{"uid":"2585811","lat":"52.2005548","lng":"20.8937538","name":"Ursus-Ratusz","spot":"1","number":"9577","bikes":"4","bike_racks":"15","free_racks":"11","terminal_type":"7inch","bike_numbers":"27047,26708,26334,25655","bike_types":{"4":4},"place_type":"0","rack_locks":"1"},{"uid":"2585814","lat":"52.1906376","lng":"20.8999443","name":"Skoroszewska - Prystora","spot":"1","number":"9578","bikes":"7","bike_racks":"17","free_racks":"10","terminal_type":"7inch","bike_numbers":"28460,27131,26024,25194,28842,96400,96301","bike_types":{"4":7},"place_type":"0","rack_locks":"1"},{"uid":"2585817","lat":"52.1882609","lng":"20.9603771","name":"G\u0142adka - OSiR W\u0142ochy","spot":"1","number":"9579","bikes":"12","bike_racks":"16","free_racks":"4","terminal_type":"7inch","bike_numbers":"24619,24596,28636,28538,27813,27416,26983,26500,26426,26065,25664,96377","bike_types":{"4":12},"place_type":"0","rack_locks":"1"},{"uid":"2585820","lat":"52.2056441","lng":"20.9159142","name":"PKP W\u0142ochy","spot":"1","number":"9580","bikes":"9","bike_racks":"17","free_racks":"9","terminal_type":"7inch","bike_numbers":"24674,28325,28304,28117,27969,27797,27005,26974,25517","bike_types":{"4":9},"place_type":"0","rack_locks":"1"},{"uid":"2585821","lat":"52.2012157","lng":"20.9353145","name":"al. Jerozolimskie - Popularna","spot":"1","number":"9581","bikes":"4","bike_racks":"17","free_racks":"13","terminal_type":"7inch","bike_numbers":"28522,26843,26215,28832","bike_types":{"4":4},"place_type":"0","rack_locks":"1"},{"uid":"2585824","lat":"52.1924709","lng":"20.9596664","name":"W\u0142ochy-Ratusz","spot":"1","number":"9582","bikes":"11","bike_racks":"14","free_racks":"4","terminal_type":"7inch","bike_numbers":"24768,28031,27727,27401,26705,26510,25413,25199,29106,29452,29138","bike_types":{"4":10,"0":1},"place_type":"0","rack_locks":"1"},{"uid":"2585825","lat":"52.1946888","lng":"20.9667823","name":"1 Sierpnia - DK W\u0142ochy","spot":"1","number":"9583","bikes":"9","bike_racks":"15","free_racks":"8","terminal_type":"7inch","bike_numbers":"28731,27743,27546,27493,26553,26029,25434,29200,29359","bike_types":{"4":9},"place_type":"0","rack_locks":"1"},{"uid":"2585827","lat":"52.1888962","lng":"21.0175887","name":"Metro Wierzbno","spot":"1","number":"9584","bikes":"6","bike_racks":"20","free_racks":"15","terminal_type":"7inch","bike_numbers":"28713,27910,26494,26230,26052,25295","bike_types":{"4":6},"place_type":"0","rack_locks":"1"},{"uid":"2585830","lat":"52.18648","lng":"21.02538","name":"Pu\u0142awska - Idzikowskiego","spot":"1","number":"9585","bikes":"4","bike_racks":"17","free_racks":"13","terminal_type":"7inch","bike_numbers":"28497,27223,26748,26640","bike_types":{"4":4},"place_type":"0","rack_locks":"1"},{"uid":"2585835","lat":"52.1882861","lng":"21.0498825","name":"Sobieskiego - Mangalia","spot":"1","number":"9586","bikes":"13","bike_racks":"15","free_racks":"6","terminal_type":"7inch","bike_numbers":"24697,24011,27631,27629,26900,26573,26476,26206,25168,25084,25059,28938,28814","bike_types":{"4":12,"26":1},"place_type":"0","rack_locks":"1"},{"uid":"2585837","lat":"52.178777","lng":"21.0016387","name":"Wo\u0142oska - Marynarska","spot":"1","number":"9588","bikes":"13","bike_racks":"26","free_racks":"12","terminal_type":"7inch","bike_numbers":"24705,24519,28008,27392,27219,26922,26639,26612,26375,25513,25316,96093,29252","bike_types":{"4":13},"place_type":"0","rack_locks":"1"},{"uid":"2585838","lat":"52.1800882","lng":"21.0207403","name":"al. Niepodleg\u0142o\u015bci - al. Wilanowska","spot":"1","number":"9589","bikes":"8","bike_racks":"22","free_racks":"15","terminal_type":"7inch","bike_numbers":"28032,27129,26726,25758,25702,25583,25116,29150","bike_types":{"4":8},"place_type":"0","rack_locks":"1"},{"uid":"2585839","lat":"52.1779163","lng":"21.049562","name":"P\u0119tla Stegny","spot":"1","number":"9590","bikes":"17","bike_racks":"23","free_racks":"5","terminal_type":"7inch","bike_numbers":"24844,24527,24458,28107,27695,27466,27039,26097,25875,25111,96025,63626,63625,96488,29268,29250,29242","bike_types":{"4":16,"51":1},"place_type":"0","rack_locks":"1"},{"uid":"2585843","lat":"52.1818472","lng":"21.0562822","name":"Sobieskiego - \u015bw. Bonifacego","spot":"1","number":"9591","bikes":"18","bike_racks":"22","free_racks":"4","terminal_type":"7inch","bike_numbers":"24522,28822,28696,27890,27793,27402,27318,27093,26467,26389,26070,26005,25431,25026,29365,96043,96405,96224","bike_types":{"4":18},"place_type":"0","rack_locks":"1"},{"uid":"2585844","lat":"52.1702836","lng":"20.9959132","name":"P\u0119tla Bokserska","spot":"1","number":"9592","bikes":"10","bike_racks":"15","free_racks":"5","terminal_type":"7inch","bike_numbers":"28326,28024,26615,25912,25495,25425,25186,25067,25047,28968","bike_types":{"4":10},"place_type":"0","rack_locks":"1"},{"uid":"2585846","lat":"52.1710498","lng":"21.0059144","name":"Gintrowskiego - Gotarda","spot":"1","number":"9593","bikes":"6","bike_racks":"15","free_racks":"10","terminal_type":"7inch","bike_numbers":"28668,27211,26813,26742,29431,96426","bike_types":{"4":6},"place_type":"0","rack_locks":"1"},{"uid":"2585848","lat":"52.174435","lng":"21.0128814","name":"al. Lotnik\u00f3w - Kaczmarskiego","spot":"1","number":"9594","bikes":"18","bike_racks":"30","free_racks":"11","terminal_type":"7inch","bike_numbers":"24910,24617,24489,28502,28467,27820,27425,27091,26561,26524,26356,25772,25414,25267,25153,28964,96051,29208","bike_types":{"4":17,"51":1},"place_type":"0","rack_locks":"1"},{"uid":"2585850","lat":"52.1733132","lng":"21.0257305","name":"Metro S\u0142u\u017cew","spot":"1","number":"9595","bikes":"16","bike_racks":"24","free_racks":"7","terminal_type":"7inch","bike_numbers":"24858,24786,28466,28340,27842,27836,27819,27669,26781,26280,25504,25102,29017,28943,96217,29267","bike_types":{"4":16},"place_type":"0","rack_locks":"1"},{"uid":"2585853","lat":"52.17343","lng":"21.03179","name":"Wa\u0142brzyska - Wr\u00f3bla","spot":"1","number":"9596","bikes":"19","bike_racks":"30","free_racks":"11","terminal_type":"7inch","bike_numbers":"24601,28481,28311,28002,27831,27812,27399,27036,26880,26850,26722,25426,25410,25251,25242,25172,96471,96355,96202","bike_types":{"4":19},"place_type":"0","rack_locks":"1"},{"uid":"2585856","lat":"52.170135","lng":"21.0685748","name":"Jana III Sobieskiego - al. Wilanowska","spot":"1","number":"9597","bikes":"12","bike_racks":"15","free_racks":"4","terminal_type":"7inch","bike_numbers":"24012,27884,27859,27614,27053,27049,26638,26146,25999,25204,25097,25045","bike_types":{"26":1,"4":11},"place_type":"0","rack_locks":"1"},{"uid":"2585860","lat":"52.1655879","lng":"21.0839331","name":"al. Wilanowska - Przycz\u00f3\u0142kowa","spot":"1","number":"9598","bikes":"13","bike_racks":"16","free_racks":"2","terminal_type":"7inch","bike_numbers":"24610,28433,28051,27407,26677,26009,25507,25501,29095,29011,28997,96162,29201","bike_types":{"4":13},"place_type":"0","rack_locks":"1"},{"uid":"2585863","lat":"52.16479","lng":"21.10925","name":"Vogla - Syta","spot":"1","number":"9599","bikes":"10","bike_racks":"16","free_racks":"7","terminal_type":"7inch","bike_numbers":"28448,28256,27834,27825,27474,27373,26557,26434,26345,25808","bike_types":{"4":10},"place_type":"0","rack_locks":"1"},{"uid":"2585868","lat":"52.1606257","lng":"21.0723245","name":"al. Rzeczypospolitej - Klimczaka","spot":"1","number":"9600","bikes":"18","bike_racks":"16","free_racks":"2","terminal_type":"7inch","bike_numbers":"28704,28365,28146,27992,27894,27549,27461,26589,26544,26421,25639,29421,29134,28829,96033,96454,96272,96178","bike_types":{"4":18},"place_type":"0","rack_locks":"1"},{"uid":"2585871","lat":"52.1569168","lng":"21.0760903","name":"al. Rzeczypospolitej - Branickiego","spot":"1","number":"9601","bikes":"16","bike_racks":"16","free_racks":"0","terminal_type":"7inch","bike_numbers":"24484,28321,28092,27713,27433,27081,26966,26695,26520,25870,25697,25502,25274,60863,96343,29220","bike_types":{"51":1,"4":15},"place_type":"0","rack_locks":"1"},{"uid":"2585872","lat":"52.1593735","lng":"21.086449","name":"Przycz\u00f3\u0142kowa - Branickiego","spot":"1","number":"9602","bikes":"11","bike_racks":"16","free_racks":"6","terminal_type":"7inch","bike_numbers":"28513,28416,28257,27196,27169,26512,26484,26114,25361,96040,96338","bike_types":{"4":11},"place_type":"0","rack_locks":"1"},{"uid":"2585873","lat":"52.1618136","lng":"21.0277355","name":"Metro Ursyn\u00f3w II","spot":"1","number":"9603","bikes":"10","bike_racks":"30","free_racks":"21","terminal_type":"7inch","bike_numbers":"24031,28331,27506,26905,26306,25833,28844,96184,96182,29177","bike_types":{"26":1,"4":9},"place_type":"0","rack_locks":"1"},{"uid":"2585875","lat":"52.1622579","lng":"21.0280761","name":"Metro Ursyn\u00f3w I","spot":"1","number":"9604","bikes":"7","bike_racks":"30","free_racks":"23","terminal_type":"7inch","bike_numbers":"24708,24022,28689,27994,27174,26195,29170","bike_types":{"4":6,"26":1},"place_type":"0","rack_locks":"1"},{"uid":"2585876","lat":"52.162401","lng":"21.0383811","name":"Jastrz\u0119bowskiego - SGGW","spot":"1","number":"9605","bikes":"23","bike_racks":"28","free_racks":"5","terminal_type":"7inch","bike_numbers":"24975,24862,24611,24476,27981,27878,27694,27431,27147,26904,26818,26357,25776,25512,25493,25442,25196,29346,29024,25628,28800,28974,96465","bike_types":{"4":22,"51":1},"place_type":"0","rack_locks":"1"},{"uid":"2585880","lat":"52.1557534","lng":"21.0232776","name":"Romera - Pieciolinii","spot":"1","number":"9606","bikes":"14","bike_racks":"16","free_racks":"2","terminal_type":"7inch","bike_numbers":"28803,28661,28353,28034,27025,26753,26716,26149,25874,25326,25210,29096,29066,96195","bike_types":{"4":14},"place_type":"0","rack_locks":"1"},{"uid":"2585883","lat":"52.1568674","lng":"21.0338401","name":"Metro Stok\u0142osy","spot":"1","number":"9607","bikes":"19","bike_racks":"27","free_racks":"7","terminal_type":"7inch","bike_numbers":"24712,28698,28349,28343,27471,27453,27077,26525,25934,25648,25571,25482,25384,25373,25331,25184,28940,28868,63621","bike_types":{"4":19},"place_type":"0","rack_locks":"1"},{"uid":"2585885","lat":"52.1572887","lng":"21.0440084","name":"Roso\u0142a - Ciszewskiego - SGGW","spot":"1","number":"9608","bikes":"26","bike_racks":"30","free_racks":"6","terminal_type":"7inch","bike_numbers":"24981,24934,24823,28419,27724,27659,27570,26515,26189,26180,26096,25839,25741,25561,25557,25556,25481,25453,25420,25015,28848,28906,96037,96459,96358,96270","bike_types":{"4":26},"place_type":"0","rack_locks":"1"},{"uid":"2585888","lat":"52.1521429","lng":"21.0181224","name":"Pu\u0142awska - Pileckiego","spot":"1","number":"9609","bikes":"18","bike_racks":"22","free_racks":"4","terminal_type":"7inch","bike_numbers":"24822,24777,24615,28650,28480,27111,26984,26928,26694,25863,25653,25269,60836,28824,28870,96552,96387,29237","bike_types":{"4":18},"place_type":"0","rack_locks":"1"},{"uid":"2585893","lat":"52.1495064","lng":"21.0332527","name":"Ciszewskiego - Pileckiego","spot":"1","number":"9610","bikes":"14","bike_racks":"22","free_racks":"8","terminal_type":"7inch","bike_numbers":"24977,24850,24797,24038,28372,25665,25536,25454,25377,25346,28845,63608,96198,29158","bike_types":{"4":13,"26":1},"place_type":"0","rack_locks":"1"},{"uid":"2585894","lat":"52.1549453","lng":"21.0492977","name":"Roso\u0142a - Gandhi","spot":"1","number":"9611","bikes":"15","bike_racks":"22","free_racks":"7","terminal_type":"7inch","bike_numbers":"24624,27519,27103,26333,26245,26008,25817,25559,25518,25383,25068,28881,63605,96495,96234","bike_types":{"4":15},"place_type":"0","rack_locks":"1"},{"uid":"2585897","lat":"52.1493105","lng":"21.0453361","name":"Metro Imielin","spot":"1","number":"9612","bikes":"8","bike_racks":"22","free_racks":"14","terminal_type":"7inch","bike_numbers":"24886,28735,28701,27613,96399,96395,96304,29204","bike_types":{"4":8},"place_type":"0","rack_locks":"1"},{"uid":"2585899","lat":"52.1522333","lng":"21.0563922","name":"Roso\u0142a - Weso\u0142a","spot":"1","number":"9613","bikes":"13","bike_racks":"23","free_racks":"10","terminal_type":"7inch","bike_numbers":"28366,28361,28215,28048,27923,27909,27745,27234,27141,27113,26883,29129,96245","bike_types":{"4":12,"0":1},"place_type":"0","rack_locks":"1"},{"uid":"2585901","lat":"52.1427201","lng":"21.0383624","name":"Pileckiego - Alternatywy","spot":"1","number":"9614","bikes":"3","bike_racks":"30","free_racks":"27","terminal_type":"7inch","bike_numbers":"27304,26217,29660","bike_types":{"4":3},"place_type":"0","rack_locks":"1"},{"uid":"2585902","lat":"52.142735","lng":"21.0448131","name":"Dereniowa - P\u0142askowickiej","spot":"1","number":"9615","bikes":"9","bike_racks":"22","free_racks":"12","terminal_type":"7inch","bike_numbers":"24991,28251,27987,27352,26626,26499,25581,29053,63613","bike_types":{"4":9},"place_type":"0","rack_locks":"1"},{"uid":"2585904","lat":"52.1376039","lng":"21.0505531","name":"Stryje\u0144skich - Belgradzka","spot":"1","number":"9616","bikes":"2","bike_racks":"15","free_racks":"13","terminal_type":"7inch","bike_numbers":"96561,96437","bike_types":{"4":2},"place_type":"0","rack_locks":"1"},{"uid":"2585905","lat":"52.1403909","lng":"21.0568187","name":"Metro Natolin","spot":"1","number":"9617","bikes":"29","bike_racks":"30","free_racks":"1","terminal_type":"7inch","bike_numbers":"24953,24851,24629,24554,28748,28099,27829,27781,27618,27583,27507,27251,26845,26688,26341,26212,26105,26102,25964,25735,25255,29552,96045,63629,63614,96330,96107,29192,29184","bike_types":{"4":29},"place_type":"0","rack_locks":"1"},{"uid":"2585906","lat":"52.1420749","lng":"21.0659905","name":"Belgradzka - Roso\u0142a","spot":"1","number":"9618","bikes":"12","bike_racks":"23","free_racks":"11","terminal_type":"7inch","bike_numbers":"24892,28621,28505,28377,27875,27739,27599,26487,26186,29342,28982,96052","bike_types":{"4":12},"place_type":"0","rack_locks":"1"},{"uid":"2585908","lat":"52.1314333","lng":"21.0561562","name":"Stryje\u0144skich - W\u0105wozowa","spot":"1","number":"9619","bikes":"20","bike_racks":"23","free_racks":"3","terminal_type":"7inch","bike_numbers":"28773,28383,28298,28221,28068,28057,27790,27525,26637,26609,25978,25966,25894,25673,25490,25412,25370,25226,63623,60867","bike_types":{"4":20},"place_type":"0","rack_locks":"1"},{"uid":"2585911","lat":"52.3326052","lng":"20.9418404","name":"Ordon\u00f3wny - \u015awiatowida","spot":"1","number":"9620","bikes":"25","bike_racks":"22","free_racks":"0","terminal_type":"7inch","bike_numbers":"24882,24743,28682,28642,28314,27986,27664,27612,26865,26692,26582,26461,26225,26018,25936,25577,25305,25300,25036,25030,96522,96448,96257,96248,96239","bike_types":{"4":25},"place_type":"0","rack_locks":"1"},{"uid":"2585913","lat":"52.1310925","lng":"21.0654795","name":"Metro Kabaty","spot":"1","number":"9621","bikes":"15","bike_racks":"22","free_racks":"8","terminal_type":"7inch","bike_numbers":"24695,28611,28580,27804,27391,27308,27189,26324,25682,25533,25103,28839,63606,96241,24047","bike_types":{"4":14,"26":1},"place_type":"0","rack_locks":"1"},{"uid":"2585916","lat":"52.1332642","lng":"21.0747962","name":"W\u0105wozowa - Roso\u0142a","spot":"1","number":"9622","bikes":"11","bike_racks":"18","free_racks":"7","terminal_type":"7inch","bike_numbers":"24501,28403,28388,27729,26075,25935,29340,29064,96515,96333,96175","bike_types":{"4":11},"place_type":"0","rack_locks":"1"},{"uid":"2585917","lat":"52.324116","lng":"21.05663","name":"Skarbka z G\u00f3r - Berensona","spot":"1","number":"9623","bikes":"22","bike_racks":"26","free_racks":"5","terminal_type":"7inch","bike_numbers":"24939,28657,28619,28607,28277,28090,27821,27680,27632,27279,26881,26768,26707,26430,26194,26152,25916,25587,28812,96020,96430,29246","bike_types":{"4":22},"place_type":"0","rack_locks":"1"},{"uid":"2585919","lat":"52.3485329","lng":"20.9418336","name":"Aluzyjna - Tr\u0105by","spot":"1","number":"9624","bikes":"12","bike_racks":"16","free_racks":"5","terminal_type":"7inch","bike_numbers":"24504,27721,26759,26655,26623,25841,29045,29555,96391,96327,96265,96199","bike_types":{"4":12},"place_type":"0","rack_locks":"1"},{"uid":"2585920","lat":"52.3226982","lng":"20.9448107","name":"\u015awiatowida - Mehoffera","spot":"1","number":"9625","bikes":"13","bike_racks":"16","free_racks":"3","terminal_type":"7inch","bike_numbers":"28821,27779,27335,27170,26674,26651,26330,25646,29077,29373,28878,96190,96185","bike_types":{"4":13},"place_type":"0","rack_locks":"1"},{"uid":"2585921","lat":"52.3212548","lng":"20.9477347","name":"Bia\u0142o\u0142\u0119cki O\u015brodek Sportu","spot":"1","number":"9626","bikes":"23","bike_racks":"30","free_racks":"7","terminal_type":"7inch","bike_numbers":"24993,24926,28671,28652,28426,28072,27847,27445,26954,26941,26575,26551,26489,26172,28995,96044,96042,96486,96481,96137,29181,29223,96591","bike_types":{"4":23},"place_type":"0","rack_locks":"1"},{"uid":"2585922","lat":"52.3211272","lng":"20.9712964","name":"Bia\u0142o\u0142\u0119ka-Ratusz","spot":"1","number":"9627","bikes":"15","bike_racks":"19","free_racks":"4","terminal_type":"7inch","bike_numbers":"24900,24833,24677,28771,28431,27996,27167,26915,26472,26266,25607,29108,96396,96138,29197","bike_types":{"4":15},"place_type":"0","rack_locks":"1"},{"uid":"2585924","lat":"52.3132981","lng":"20.9655324","name":"My\u015bliborska - al. Kukli\u0144skiego","spot":"1","number":"9628","bikes":"12","bike_racks":"22","free_racks":"10","terminal_type":"7inch","bike_numbers":"27952,27868,27303,26835,26834,26620,26076,25915,25736,25599,25139,96306","bike_types":{"4":12},"place_type":"0","rack_locks":"1"},{"uid":"2585925","lat":"52.3031984","lng":"20.9891666","name":"Modli\u0144ska - \u017bera\u0144ska","spot":"1","number":"9629","bikes":"34","bike_racks":"30","free_racks":"0","terminal_type":"7inch","bike_numbers":"24849,24560,28886,28308,28127,27982,27961,27960,27895,27871,27725,27704,26769,26763,26757,26678,26645,26592,26188,25968,25784,25710,25470,25398,25349,25297,25229,25092,29125,29133,96544,96129,96117,29254","bike_types":{"4":32,"0":2},"place_type":"0","rack_locks":"1"},{"uid":"2585926","lat":"52.3150181","lng":"21.0610807","name":"Skarbka z G\u00f3r - Magiczna","spot":"1","number":"9630","bikes":"32","bike_racks":"30","free_racks":"0","terminal_type":"7inch","bike_numbers":"24830,24692,24042,25002,28587,28583,28526,28456,28440,28301,28067,27954,27538,27513,27487,27360,27354,27115,26827,26820,26815,26460,26400,25786,25591,25376,25146,29130,96451,96128,96120,29233","bike_types":{"4":30,"26":1,"0":1},"place_type":"0","rack_locks":"1"},{"uid":"2585928","lat":"52.3000268","lng":"21.0425266","name":"P\u0119tla Br\u00f3dno - Podgrodzie","spot":"1","number":"9631","bikes":"14","bike_racks":"16","free_racks":"2","terminal_type":"7inch","bike_numbers":"28566,28442,28350,27742,27450,27427,27260,27089,26292,25807,25701,25198,28863,29157","bike_types":{"4":14},"place_type":"0","rack_locks":"1"},{"uid":"2585929","lat":"52.2939957","lng":"21.0272258","name":"Rembieli\u0144ska - Kondratowicza","spot":"1","number":"9632","bikes":"9","bike_racks":"23","free_racks":"14","terminal_type":"7inch","bike_numbers":"24700,24672,27435,27037,26208,25526,25089,28849,29160","bike_types":{"4":9},"place_type":"0","rack_locks":"1"},{"uid":"2585931","lat":"52.2917236","lng":"21.0481189","name":"Targ\u00f3wek-Ratusz","spot":"1","number":"9633","bikes":"31","bike_racks":"22","free_racks":"3","terminal_type":"7inch","bike_numbers":"24883,24573,24039,24008,28699,28675,28553,28420,28402,28022,27575,26738,26719,26364,26173,26058,25988,25943,25780,25552,25510,25494,25180,29075,29124,96490,96369,96282,96103,29182,96577","bike_types":{"4":28,"26":2,"0":1},"place_type":"0","rack_locks":"1"},{"uid":"2585932","lat":"52.292208","lng":"21.0419554","name":"Kondratowicza - Chodecka","spot":"1","number":"9634","bikes":"14","bike_racks":"23","free_racks":"8","terminal_type":"7inch","bike_numbers":"28151,28082,28075,27601,27313,26587,26253,25928,25458,25118,29350,29143,96329,29247","bike_types":{"4":13,"0":1},"place_type":"0","rack_locks":"1"},{"uid":"2585934","lat":"52.2925145","lng":"21.0573949","name":"Kondratowicza - Przy Grodzisku","spot":"1","number":"9635","bikes":"11","bike_racks":"18","free_racks":"6","terminal_type":"7inch","bike_numbers":"28651,28278,28120,27342,26817,26433,26140,26048,29082,96041,96526","bike_types":{"4":11},"place_type":"0","rack_locks":"1"},{"uid":"2585936","lat":"52.2878069","lng":"21.0213829","name":"Wysockiego - Poborza\u0144ska","spot":"1","number":"9636","bikes":"22","bike_racks":"23","free_racks":"4","terminal_type":"7inch","bike_numbers":"24644,28758,28524,28368,28305,27138,26979,26599,26313,26153,26138,26108,25929,25815,25406,25170,96015,96574,96524,96080,29151,29222","bike_types":{"4":22},"place_type":"0","rack_locks":"1"},{"uid":"2585937","lat":"52.2885915","lng":"21.0310087","name":"Rembieli\u0144ska - Wyszogrodzka","spot":"1","number":"9637","bikes":"23","bike_racks":"30","free_racks":"7","terminal_type":"7inch","bike_numbers":"28658,28150,28137,28126,27448,27300,27220,27035,26756,26537,26346,26331,26273,26122,26110,25901,28908,29388,28971,96046,96363,96336,96326","bike_types":{"4":23},"place_type":"0","rack_locks":"1"},{"uid":"2585938","lat":"52.2864841","lng":"21.0401998","name":"Chodecka - \u017buromi\u0144ska","spot":"1","number":"9638","bikes":"14","bike_racks":"15","free_racks":"4","terminal_type":"7inch","bike_numbers":"24921,28705,28702,28530,28414,27778,27512,26994,26857,26767,25896,96516,96368,29253","bike_types":{"4":14},"place_type":"0","rack_locks":"1"},{"uid":"2585939","lat":"52.281231017533","lng":"21.025852560997","name":"Wysockiego - Matki Teresy z Kalkuty","spot":"1","number":"9639","bikes":"22","bike_racks":"17","free_racks":"0","terminal_type":"7inch","bike_numbers":"24552,24030,28628,28550,28531,28498,28392,28374,27663,27290,26771,26667,26395,26221,26130,26060,25351,29117,29046,24498,96539,96580","bike_types":{"4":20,"26":1,"51":1},"place_type":"0","rack_locks":"1"},{"uid":"2585941","lat":"52.2835693","lng":"21.0720858","name":"Blokowa - DK Zacisze","spot":"1","number":"9640","bikes":"20","bike_racks":"18","free_racks":"0","terminal_type":"7inch","bike_numbers":"28348,28267,27922,27914,27799,27730,27670,27561,27122,26275,26237,25821,25707,25357,25077,28777,96392,96261,96132,29193","bike_types":{"4":20},"place_type":"0","rack_locks":"1"},{"uid":"2585942","lat":"52.276259","lng":"21.0530748","name":"P\u0119tla Targ\u00f3wek","spot":"1","number":"9641","bikes":"16","bike_racks":"22","free_racks":"5","terminal_type":"7inch","bike_numbers":"24600,28088,27794,27776,27615,27344,26793,26459,26305,26231,26204,25910,25775,25169,25162,29243","bike_types":{"4":16},"place_type":"0","rack_locks":"1"},{"uid":"2585943","lat":"52.27139","lng":"21.01566","name":"Jagiello\u0144ska - ALK","spot":"1","number":"9642","bikes":"11","bike_racks":"16","free_racks":"5","terminal_type":"7inch","bike_numbers":"24548,24525,28294,27667,27644,27361,25594,25560,25167,25075,29338","bike_types":{"4":11},"place_type":"0","rack_locks":"1"},{"uid":"2585947","lat":"52.2694683","lng":"21.0499817","name":"Ossowskiego","spot":"1","number":"9644","bikes":"10","bike_racks":"17","free_racks":"7","terminal_type":"7inch","bike_numbers":"28646,27939,27499,26814,26390,26256,25783,25706,29030,29245","bike_types":{"4":10},"place_type":"0","rack_locks":"1"},{"uid":"2585951","lat":"52.272602123161","lng":"21.063210368156","name":"Radzymi\u0144ska -Trocka","spot":"1","number":"9645","bikes":"19","bike_racks":"20","free_racks":"8","terminal_type":"7inch","bike_numbers":"28686,28362,27814,27422,27397,27341,27134,26718,26281,26163,25882,25148,25122,25117,29004,29003,29135,29199,29230","bike_types":{"4":18,"0":1},"place_type":"0","rack_locks":"1"},{"uid":"2585953","lat":"52.27347","lng":"21.07698","name":"Bukowiecka - Zamkowa","spot":"1","number":"9646","bikes":"10","bike_racks":"15","free_racks":"5","terminal_type":"7inch","bike_numbers":"24604,28681,27405,26643,26263,26151,25977,25483,28778,28963","bike_types":{"4":10},"place_type":"0","rack_locks":"1"},{"uid":"2585954","lat":"52.2668885","lng":"21.0585675","name":"Radzymi\u0144ska - Piotra Skargi","spot":"1","number":"9647","bikes":"29","bike_racks":"20","free_racks":"0","terminal_type":"7inch","bike_numbers":"24901,28359,28339,28274,27916,27751,27421,27133,27054,26789,26491,26396,26214,25926,25919,25596,25359,25337,25323,25263,25248,25228,25141,25032,25016,29120,96106,29202,29226","bike_types":{"4":28,"0":1},"place_type":"0","rack_locks":"1"},{"uid":"2585955","lat":"52.2614369","lng":"21.0155744","name":"Wybrze\u017ce Helskie - ZOO","spot":"1","number":"9648","bikes":"18","bike_racks":"22","free_racks":"4","terminal_type":"7inch","bike_numbers":"24855,24662,28554,28115,27675,27073,27030,26998,26874,26761,26257,26143,26068,29364,29360,96221,96173,96112","bike_types":{"4":18},"place_type":"0","rack_locks":"1"},{"uid":"2585956","lat":"52.2632492","lng":"21.0212231","name":"Rondo Starzy\u0144skiego","spot":"1","number":"9649","bikes":"20","bike_racks":"24","free_racks":"5","terminal_type":"7inch","bike_numbers":"24938,24636,28874,28408,28101,28098,27312,27268,27020,26871,26829,26588,26002,25598,25334,25150,25052,28809,96555,96299","bike_types":{"4":20},"place_type":"0","rack_locks":"1"},{"uid":"2585958","lat":"52.26421","lng":"21.02618","name":"Darwina - Nusbauma-Hilarowicza","spot":"1","number":"9650","bikes":"17","bike_racks":"21","free_racks":"4","terminal_type":"7inch","bike_numbers":"28774,28762,28606,28417,27734,27343,27019,26777,26119,25799,25754,25751,25466,25099,29347,96356,96208","bike_types":{"4":17},"place_type":"0","rack_locks":"1"},{"uid":"2585960","lat":"52.26554","lng":"21.03122","name":"Namys\u0142owska - Darwina","spot":"1","number":"9651","bikes":"13","bike_racks":"15","free_racks":"2","terminal_type":"7inch","bike_numbers":"24701,25003,28719,27028,26529,26501,26495,26073,96286,96267,96116,29165,96581","bike_types":{"4":13},"place_type":"0","rack_locks":"1"},{"uid":"2585961","lat":"52.2690405","lng":"21.0379493","name":"Rondo \u017baba","spot":"1","number":"9652","bikes":"12","bike_racks":"22","free_racks":"11","terminal_type":"7inch","bike_numbers":"24044,28357,27520,27323,26847,26844,26642,26440,25564,25246,96302,24049","bike_types":{"26":2,"4":10},"place_type":"0","rack_locks":"1"},{"uid":"2585963","lat":"52.2591682","lng":"21.0262224","name":"Jagiello\u0144ska - Plac Hallera","spot":"1","number":"9653","bikes":"21","bike_racks":"20","free_racks":"8","terminal_type":"7inch","bike_numbers":"24842,24599,24496,24481,28385,28134,27998,27893,27652,26982,26918,26456,26297,26168,26033,25993,25933,25725,25677,96126,29214","bike_types":{"4":19,"51":2},"place_type":"0","rack_locks":"1"},{"uid":"2585964","lat":"52.2613811","lng":"21.0305437","name":"Plac Hallera - Sawinkowa","spot":"1","number":"9654","bikes":"25","bike_racks":"28","free_racks":"8","terminal_type":"7inch","bike_numbers":"24955,24776,24729,24581,28647,28264,28258,28214,28148,27696,27557,27518,27424,27090,26886,26805,26715,26327,25836,25350,25076,25053,29116,96494,96346","bike_types":{"4":25},"place_type":"0","rack_locks":"1"},{"uid":"2585967","lat":"52.263","lng":"21.03418","name":"Namys\u0142owska - Szymanowskiego","spot":"1","number":"9655","bikes":"16","bike_racks":"16","free_racks":"3","terminal_type":"7inch","bike_numbers":"28432,28405,28194,28096,28066,28054,27574,26323,26089,25368,25161,96543,96344,96216,96203,96196","bike_types":{"4":16},"place_type":"0","rack_locks":"1"},{"uid":"2585968","lat":"52.2538188","lng":"21.0231542","name":"Ratuszowa - ZOO","spot":"1","number":"9656","bikes":"23","bike_racks":"23","free_racks":"0","terminal_type":"7inch","bike_numbers":"24811,24771,28732,28616,28560,28303,27833,27502,27446,27385,26846,26229,26150,26111,26085,25989,25767,25415,25130,28960,29644,28859,96401","bike_types":{"4":23},"place_type":"0","rack_locks":"1"},{"uid":"2585971","lat":"52.256355","lng":"21.029538","name":"Jagiello\u0144ska - Ratuszowa","spot":"1","number":"9657","bikes":"11","bike_racks":"16","free_racks":"4","terminal_type":"7inch","bike_numbers":"27837,27484,27413,26730,26685,26408,25813,25739,25182,28989,96474","bike_types":{"4":11},"place_type":"0","rack_locks":"1"},{"uid":"2585972","lat":"52.261449","lng":"21.037614","name":"11 Listopada - Ratuszowa","spot":"1","number":"9658","bikes":"18","bike_racks":"30","free_racks":"14","terminal_type":"7inch","bike_numbers":"24978,24793,24606,28569,28295,28089,28026,27761,27744,27560,26987,26958,26404,26366,26166,25810,25419,29248","bike_types":{"4":18},"place_type":"0","rack_locks":"1"},{"uid":"2585974","lat":"52.263109","lng":"21.0381895","name":"11 listopada - \u015arodkowa","spot":"1","number":"9659","bikes":"14","bike_racks":"18","free_racks":"5","terminal_type":"7inch","bike_numbers":"28515,28369,28006,27660,27576,26930,26611,26464,26360,26224,25445,25018,29446,96167","bike_types":{"4":14},"place_type":"0","rack_locks":"1"},{"uid":"2585975","lat":"52.25839","lng":"21.03537","name":"Stalowa - 11 Listopada","spot":"1","number":"9660","bikes":"19","bike_racks":"24","free_racks":"6","terminal_type":"7inch","bike_numbers":"24770,24456,28660,28659,27888,27800,27637,27384,27366,27158,26104,25950,25787,25588,25541,25341,25157,29037,96108","bike_types":{"4":18,"51":1},"place_type":"0","rack_locks":"1"},{"uid":"2585978","lat":"52.234791","lng":"21.07905","name":"al. Stan\u00f3w Zjednoczonych - Ostrobramska","spot":"1","number":"9661","bikes":"12","bike_racks":"20","free_racks":"8","terminal_type":"7inch","bike_numbers":"28749,28475,28465,28102,28020,27505,27428,26383,26287,25025,29641,29232","bike_types":{"4":12},"place_type":"0","rack_locks":"1"},{"uid":"2585981","lat":"52.2524758","lng":"21.0303479","name":"Floria\u0144ska - Park Praski","spot":"1","number":"9662","bikes":"22","bike_racks":"23","free_racks":"1","terminal_type":"7inch","bike_numbers":"24809,24794,24531,24528,28736,28423,28209,28110,28014,27803,27363,26949,26740,26706,26276,26027,25918,25659,25154,25114,28981,96283","bike_types":{"4":22},"place_type":"0","rack_locks":"1"},{"uid":"2585982","lat":"52.2549757","lng":"21.0339005","name":"Plac Wile\u0144ski","spot":"1","number":"9663","bikes":"34","bike_racks":"30","free_racks":"0","terminal_type":"7inch","bike_numbers":"24800,24687,24546,24537,28511,28375,27877,27862,27807,27437,27406,27239,26862,26644,26616,26565,26517,26392,25713,25635,25593,25553,25491,25298,25268,28978,28961,96021,96487,96328,96089,29269,24046,96582","bike_types":{"4":33,"26":1},"place_type":"0","rack_locks":"1"},{"uid":"2585983","lat":"52.2579576","lng":"21.0399804","name":"Wile\u0144ska - Rzeszotarskiej","spot":"1","number":"9664","bikes":"9","bike_racks":"16","free_racks":"9","terminal_type":"7inch","bike_numbers":"28078,27533,27394,26368,29367,28907,28987,96382,96252","bike_types":{"4":9},"place_type":"0","rack_locks":"1"},{"uid":"2585984","lat":"52.2475848","lng":"20.9568001","name":"al. Prymasa Tysi\u0105clecia - Obozowa","spot":"1","number":"9665","bikes":"2","bike_racks":"13","free_racks":"9","terminal_type":"7inch","bike_numbers":"27710,26062","bike_types":{"4":2},"place_type":"0","rack_locks":"1"},{"uid":"2585985","lat":"52.248607","lng":"21.029647","name":"Okrzei - Panie\u0144ska","spot":"1","number":"9666","bikes":"18","bike_racks":"16","free_racks":"0","terminal_type":"7inch","bike_numbers":"24637,28673,28435,28297,27817,27330,26606,26446,26154,25985,25740,25287,29105,29659,96484,96231,96133,24055","bike_types":{"4":17,"26":1},"place_type":"0","rack_locks":"1"},{"uid":"2585987","lat":"52.2506334","lng":"21.0311174","name":"Sierakowskiego - K\u0142opotowskiego","spot":"1","number":"9667","bikes":"9","bike_racks":"25","free_racks":"17","terminal_type":"7inch","bike_numbers":"28667,27959,27764,26648,26247,26113,25990,25881,25480","bike_types":{"4":9},"place_type":"0","rack_locks":"1"},{"uid":"2585990","lat":"52.2520876","lng":"21.0381368","name":"Targowa - Z\u0105bkowska","spot":"1","number":"9668","bikes":"21","bike_racks":"18","free_racks":"0","terminal_type":"7inch","bike_numbers":"24893,28676,28292,27974,27869,27856,26848,26807,26506,26161,26041,25766,25200,28860,28830,96055,96002,96441,96284,96143,29261","bike_types":{"4":21},"place_type":"0","rack_locks":"1"},{"uid":"2585992","lat":"52.2544855","lng":"21.0433458","name":"Fabryka W\u00f3dek Koneser","spot":"1","number":"9669","bikes":"18","bike_racks":"25","free_racks":"8","terminal_type":"7inch","bike_numbers":"24947,24551,24514,28053,28005,27925,27879,27389,27381,27316,27229,27014,26901,26629,26554,25709,25636,96476","bike_types":{"4":18},"place_type":"0","rack_locks":"1"},{"uid":"2585994","lat":"52.2559027","lng":"21.0495613","name":"Radzymi\u0144ska - Wiosenna","spot":"1","number":"9670","bikes":"16","bike_racks":"26","free_racks":"10","terminal_type":"7inch","bike_numbers":"24725,28750,28509,28052,27586,27365,27212,27188,26875,26866,26109,25954,25944,25356,25250,29183","bike_types":{"4":16},"place_type":"0","rack_locks":"1"},{"uid":"2585995","lat":"52.25965","lng":"21.0529","name":"Radzymi\u0144ska - \u0141om\u017cy\u0144ska","spot":"1","number":"9671","bikes":"15","bike_racks":"24","free_racks":"11","terminal_type":"7inch","bike_numbers":"28629,28542,28394,28364,28058,28050,27393,27291,27184,25876,25402,25074,29049,28988,29244","bike_types":{"4":15},"place_type":"0","rack_locks":"1"},{"uid":"2585996","lat":"52.2583512","lng":"21.0585337","name":"P\u0119tla Kaw\u0119czy\u0144ska-Bazylika","spot":"1","number":"9672","bikes":"21","bike_racks":"26","free_racks":"5","terminal_type":"7inch","bike_numbers":"24880,28302,28010,27827,27621,27283,27064,27062,26995,26842,26530,26241,25998,25051,29081,29020,28954,28909,28836,96118,96579","bike_types":{"4":21},"place_type":"0","rack_locks":"1"},{"uid":"2585997","lat":"52.249864871462","lng":"21.042911410332","name":"Targowa - Kijowska","spot":"1","number":"9673","bikes":"14","bike_racks":"18","free_racks":"3","terminal_type":"7inch","bike_numbers":"24658,28404,27755,27717,26908,26522,25855,25782,25330,96559,96536,96498,96361,96127","bike_types":{"4":14},"place_type":"0","rack_locks":"1"},{"uid":"2586000","lat":"52.252745","lng":"21.0510331","name":"Dworzec Wschodni - Kijowska","spot":"1","number":"9674","bikes":"14","bike_racks":"27","free_racks":"17","terminal_type":"7inch","bike_numbers":"24720,24647,24570,24017,28218,28087,28000,27559,27530,26961,26627,25321,25096,29022","bike_types":{"4":13,"26":1},"place_type":"0","rack_locks":"1"},{"uid":"2586001","lat":"52.247314","lng":"21.042731","name":"Metro Stadion Narodowy","spot":"1","number":"9675","bikes":"9","bike_racks":"15","free_racks":"9","terminal_type":"7inch","bike_numbers":"24905,24010,24002,28484,28452,27331,26387,25937,96319","bike_types":{"4":7,"26":2},"place_type":"0","rack_locks":"1"},{"uid":"2586003","lat":"52.2472308","lng":"21.0476456","name":"al. Zieleniecka - Teatr Powszechny","spot":"1","number":"9676","bikes":"13","bike_racks":"14","free_racks":"1","terminal_type":"7inch","bike_numbers":"24932,24871,24838,24796,24761,27430,27301,25471,25101,28992,96402,29262,29229","bike_types":{"4":13},"place_type":"0","rack_locks":"1"},{"uid":"2586005","lat":"52.247346","lng":"21.055947","name":"Grochowska - Mi\u0144ska","spot":"1","number":"9677","bikes":"21","bike_racks":"22","free_racks":"1","terminal_type":"7inch","bike_numbers":"24817,24575,28718,28603,28139,27714,27414,27094,26766,26744,26666,26646,26596,26147,26106,25567,25211,29441,25632,96417,96158","bike_types":{"4":21},"place_type":"0","rack_locks":"1"},{"uid":"2586009","lat":"52.2464","lng":"21.06868","name":"Praga-Po\u0142udnie-Ratusz","spot":"1","number":"9678","bikes":"17","bike_racks":"15","free_racks":"0","terminal_type":"7inch","bike_numbers":"24971,24524,24467,28724,28614,28279,27951,27838,27716,27263,26711,25973,25790,25748,25699,96502,96383","bike_types":{"4":16,"51":1},"place_type":"0","rack_locks":"1"},{"uid":"2586011","lat":"52.2501129","lng":"21.0772011","name":"Dwernickiego - Siennicka","spot":"1","number":"9679","bikes":"33","bike_racks":"25","free_racks":"0","terminal_type":"7inch","bike_numbers":"24915,24626,24483,28490,28412,28406,28330,28254,27886,27388,27276,27017,26965,26957,26660,26654,26571,26213,26211,26126,26054,25649,25283,25245,25160,25126,25065,96034,96563,96461,96266,96146,29265","bike_types":{"4":32,"51":1},"place_type":"0","rack_locks":"1"},{"uid":"2586012","lat":"52.260428882956","lng":"21.041538119316","name":"Stalowa - Czynszowa","spot":"1","number":"9680","bikes":"12","bike_racks":"15","free_racks":"3","terminal_type":"7inch","bike_numbers":"28578,27554,26732,26505,26061,25969,25924,25498,25217,25127,29281,29271","bike_types":{"4":12},"place_type":"0","rack_locks":"1"},{"uid":"2586014","lat":"52.2372419","lng":"21.0437644","name":"Wybrze\u017ce Szczeci\u0144skie - Stadion Narodowy","spot":"1","number":"9681","bikes":"15","bike_racks":"23","free_racks":"8","terminal_type":"7inch","bike_numbers":"24928,24665,24655,24494,28597,28077,27971,27700,27178,26200,25779,25063,96334,96253","bike_types":{"4":13,"51":1},"place_type":"0","rack_locks":"1"},{"uid":"2586018","lat":"52.2387103","lng":"21.0507515","name":"Rondo Waszyngtona - Stadion Narodowy","spot":"1","number":"9682","bikes":"16","bike_racks":"27","free_racks":"10","terminal_type":"7inch","bike_numbers":"28391,28028,28016,27562,27412,26547,26179,26023,26004,25980,25563,25543,25151,29213,28975,96058","bike_types":{"4":16},"place_type":"0","rack_locks":"1"},{"uid":"2586019","lat":"52.242281006874","lng":"21.071160435677","name":"Waszyngtona - Kinowa","spot":"1","number":"9683","bikes":"9","bike_racks":"15","free_racks":"7","terminal_type":"7inch","bike_numbers":"24545,27182,26386,26183,26117,25885,25362,25106,96357","bike_types":{"4":9},"place_type":"0","rack_locks":"1"},{"uid":"2586021","lat":"52.2445639","lng":"21.0838057","name":"Rondo Wiatraczna","spot":"1","number":"9684","bikes":"35","bike_racks":"30","free_racks":"1","terminal_type":"7inch","bike_numbers":"24960,24841,24676,24613,24577,24479,24005,28557,28521,28496,28428,28310,27936,27208,27168,26837,26772,26653,26542,26473,26167,26043,25904,25749,25652,25435,25056,29070,29033,25630,28985,96449,96149,29206,96576","bike_types":{"4":33,"51":1,"26":1},"place_type":"0","rack_locks":"1"},{"uid":"2586022","lat":"52.2347451","lng":"21.053651","name":"Francuska - Walecznych","spot":"1","number":"9685","bikes":"15","bike_racks":"15","free_racks":"0","terminal_type":"7inch","bike_numbers":"24661,28544,27482,26933,26617,26601,26478,26071,25802,25548,25347,25202,25049,28973,28966","bike_types":{"4":15},"place_type":"0","rack_locks":"1"},{"uid":"2586024","lat":"52.236598","lng":"21.064774","name":"Mi\u0119dzynarodowa - Walecznych","spot":"1","number":"9686","bikes":"15","bike_racks":"15","free_racks":"8","terminal_type":"7inch","bike_numbers":"24895,28892,28411,27777,27423,26855,26794,26293,25693,25478,29015,96297,96294,96142,29191","bike_types":{"4":15},"place_type":"0","rack_locks":"1"},{"uid":"2586026","lat":"52.243020071904","lng":"21.102375984192","name":"Plac Szembeka","spot":"1","number":"9687","bikes":"14","bike_racks":"15","free_racks":"1","terminal_type":"7inch","bike_numbers":"24945,24650,24633,28693,27861,27404,27026,26371,26014,25917,25674,25107,28872,96165","bike_types":{"4":14},"place_type":"0","rack_locks":"1"},{"uid":"2586028","lat":"52.237559","lng":"21.120087","name":"P\u0119tla Goc\u0142awek","spot":"1","number":"9688","bikes":"11","bike_racks":"16","free_racks":"8","terminal_type":"7inch","bike_numbers":"24009,28252,27608,27589,27408,27118,25996,25905,25731,25448,96092","bike_types":{"26":1,"4":10},"place_type":"0","rack_locks":"1"},{"uid":"2586030","lat":"52.2258359","lng":"21.0600907","name":"Brukselska - PROM","spot":"1","number":"9689","bikes":"16","bike_racks":"15","free_racks":"2","terminal_type":"7inch","bike_numbers":"24982,24685,24502,28371,28315,27932,27858,27785,27699,27469,26684,26053,25666,29057,25622,29175","bike_types":{"4":16},"place_type":"0","rack_locks":"1"},{"uid":"2586031","lat":"52.260205610017","lng":"21.046854257584","name":"al. Solidarno\u015bci - Szwedzka","spot":"1","number":"9690","bikes":"8","bike_racks":"18","free_racks":"13","terminal_type":"7inch","bike_numbers":"24815,27864,26956,26032,25088,96549,96287,24051","bike_types":{"4":7,"26":1},"place_type":"0","rack_locks":"1"},{"uid":"2586032","lat":"52.230088","lng":"21.067948","name":"al. Stan\u00f3w Zjednoczonych - Mi\u0119dzynarodowa","spot":"1","number":"9691","bikes":"30","bike_racks":"26","free_racks":"1","terminal_type":"7inch","bike_numbers":"24929,24634,24620,24016,28564,28555,28436,28290,28253,27796,27648,27642,27536,27398,27271,27070,26934,26581,25913,25756,25570,25546,25233,25119,25072,28950,29646,28853,28994,96078","bike_types":{"4":29,"26":1},"place_type":"0","rack_locks":"1"},{"uid":"2586034","lat":"52.23483","lng":"21.09975","name":"Ostrobramska - Zamieniecka","spot":"1","number":"9692","bikes":"13","bike_racks":"23","free_racks":"10","terminal_type":"7inch","bike_numbers":"28760,28558,27815,27112,26665,25722,25514,25421,25060,29115,28798,96291,96087","bike_types":{"4":13},"place_type":"0","rack_locks":"1"},{"uid":"2586037","lat":"52.2251969","lng":"21.0712892","name":"Afryka\u0144ska - Egipska","spot":"1","number":"9693","bikes":"9","bike_racks":"16","free_racks":"7","terminal_type":"7inch","bike_numbers":"24969,24539,28802,28491,28309,26176,25344,25314,28864","bike_types":{"4":9},"place_type":"0","rack_locks":"1"},{"uid":"2586039","lat":"52.22837","lng":"21.08581","name":"Abrahama - Kapelan\u00f3w AK","spot":"1","number":"9694","bikes":"15","bike_racks":"15","free_racks":"0","terminal_type":"7inch","bike_numbers":"24972,24918,24748,24589,24029,27920,27243,26897,26442,25744,25238,25079,25627,29187,29147","bike_types":{"4":14,"26":1},"place_type":"0","rack_locks":"1"},{"uid":"2586044","lat":"52.22974","lng":"21.10624","name":"Rechniewskiego - Nowaka-Jeziora\u0144skiego","spot":"1","number":"9696","bikes":"25","bike_racks":"30","free_racks":"6","terminal_type":"7inch","bike_numbers":"24984,24973,24888,28873,28195,28105,28085,27267,27176,26352,26091,26025,25902,25745,25670,25327,25275,25028,28862,28823,96429,96341,96155,29176,29240","bike_types":{"4":25},"place_type":"0","rack_locks":"1"},{"uid":"2586045","lat":"52.2223071","lng":"21.0907259","name":"Meissnera - Fieldorfa","spot":"1","number":"9697","bikes":"14","bike_racks":"15","free_racks":"4","terminal_type":"7inch","bike_numbers":"24505,28322,27870,27693,26367,25296,25013,29451,28852,28841,96054,96410,96324,96249","bike_types":{"4":14},"place_type":"0","rack_locks":"1"},{"uid":"2586268","lat":"52.23938046828","lng":"21.016716957092","name":"Krakowskie Przedmie\u015bcie - Traugutta 2","spot":"1","number":"94931","bikes":"2","bike_racks":"24","free_racks":"22","terminal_type":"7inch","bike_numbers":"27000,29149","bike_types":{"4":2},"place_type":"0","rack_locks":"1"},{"uid":"2586270","lat":"52.241814568386","lng":"21.024039387703","name":"Lipowa - Dobra 2","spot":"1","number":"94961","bikes":"9","bike_racks":"19","free_racks":"9","terminal_type":"7inch","bike_numbers":"24856,24799,27058,26526,26209,26118,28916,96535,96280","bike_types":{"4":9},"place_type":"0","rack_locks":"1"},{"uid":"2586272","lat":"52.219916006513","lng":"21.011733412743","name":"Plac Politechniki 2","spot":"1","number":"95381","bikes":"21","bike_racks":"27","free_racks":"6","terminal_type":"7inch","bike_numbers":"24691,28537,28047,28040,27454,27202,26917,26749,26574,26437,26424,26385,26244,26067,25506,25474,29021,96053,96464,96084,96592","bike_types":{"4":21},"place_type":"0","rack_locks":"1"},{"uid":"2675985","lat":"52.21759","lng":"21.0096855","name":"Kaczy\u0144skiego - Rektorska","spot":"1","number":"9587","bikes":"19","bike_racks":"17","free_racks":"2","terminal_type":"7inch","bike_numbers":"24998,24569,28706,28648,28449,28380,27162,27079,26959,26914,26902,25439,25433,25338,28910,29146,28998,96453,96085","bike_types":{"4":18,"0":1},"place_type":"0","rack_locks":"1"},