[{"region_info":{"lat":"52.2345","lng":"21.0024","zoom":"11","name":"VETURILO Poland","hotline":"+4819115","domain":"vp","language":"pl","email":"info@nextbike.pl","timezone":"Europe\/Warsaw","currency":"PLN","country_calling_code":"+48","system_operator_address":"Nextbike Polska S.A. ul. Przasnyska 6B, 01-756 Warszawa","country":"PL","country_name":"Poland","terms":"http:\/\/www.veturilo.waw.pl\/terms\/?v=201701","policy":"","website":"http:\/\/www.veturilo.waw.pl\/","show_free_racks":"1","booked_bikes":"0","set_point_bikes":"5283","available_bikes":"4767"},"places_summary":{"lngMin":20.8689688,"lngMax":21.120087,"latMin":52.117285,"latMax":52.3485329,"lngAvg":21.007607997267,"latAvg":52.230801708168},"places":[{"uid":"2585259","lat":"52.296298","lng":"20.9583575","name":"Dewajtis - UKSW","spot":"1","number":"9402","bikes":"13","bike_racks":"30","free_racks":"17","terminal_type":"7inch","bike_numbers":"24588,28534,28523,27811,27738,26862,26367,26301,26093,25857,60830,29649,29254","bike_types":{"4":13},"place_type":"0","rack_locks":"1"},{"uid":"2585263","lat":"52.2909738","lng":"20.9295559","name":"Metro M\u0142ociny","spot":"1","number":"9403","bikes":"15","bike_racks":"30","free_racks":"15","terminal_type":"7inch","bike_numbers":"24966,24876,24702,24699,24567,28672,28395,27197,27182,26991,26823,26096,25527,25118,29091","bike_types":{"4":15},"place_type":"0","rack_locks":"1"},{"uid":"2585265","lat":"52.2901732","lng":"20.9503698","name":"Marymoncka - Dewajtis","spot":"1","number":"9404","bikes":"20","bike_racks":"30","free_racks":"10","terminal_type":"7inch","bike_numbers":"24804,24799,28641,28354,28308,27436,27402,27291,27142,26591,26242,26038,25950,29089,96510,96439,96391,96350,29240,96581","bike_types":{"4":20},"place_type":"0","rack_locks":"1"},{"uid":"2585267","lat":"52.285914","lng":"20.940561","name":"Metro Wawrzyszew","spot":"1","number":"9405","bikes":"20","bike_racks":"20","free_racks":"0","terminal_type":"7inch","bike_numbers":"24716,24483,28901,28444,27500,26986,26847,26808,26529,26476,26443,26176,25997,25897,25392,25219,28991,96326,96285,96250","bike_types":{"4":19,"51":1},"place_type":"0","rack_locks":"1"},{"uid":"2585269","lat":"52.2336142","lng":"21.0146353","name":"G\u00f3rskiego - Szpitalna","spot":"1","number":"9406","bikes":"4","bike_racks":"16","free_racks":"12","terminal_type":"7inch","bike_numbers":"28283,28272,26519,26400","bike_types":{"4":4},"place_type":"0","rack_locks":"1"},{"uid":"2585271","lat":"52.2816265","lng":"20.9498871","name":"Metro Stare Bielany","spot":"1","number":"9407","bikes":"12","bike_racks":"30","free_racks":"17","terminal_type":"7inch","bike_numbers":"28577,28430,28320,26549,25987,25740,25612,25077,29428,29142,29174,29241","bike_types":{"4":11,"0":1},"place_type":"0","rack_locks":"1"},{"uid":"2585272","lat":"52.2361217","lng":"21.0219096","name":"Ordynacka - Uniwersytet Muzyczny","spot":"1","number":"9408","bikes":"14","bike_racks":"20","free_racks":"5","terminal_type":"7inch","bike_numbers":"24875,24696,28485,28466,28408,28295,28262,27198,27169,26691,25784,60834,96002,96168","bike_types":{"4":14},"place_type":"0","rack_locks":"1"},{"uid":"2585273","lat":"52.2768774","lng":"20.9481302","name":"Bielany-Ratusz","spot":"1","number":"9409","bikes":"24","bike_racks":"28","free_racks":"5","terminal_type":"7inch","bike_numbers":"24492,27581,27298,27214,27187,27110,26853,26788,26646,26291,26097,25920,25358,25198,29014,28867,96036,96473,96416,96253,96106,96102,29197,29192","bike_types":{"51":1,"4":23},"place_type":"0","rack_locks":"1"},{"uid":"2585275","lat":"52.2761569","lng":"20.9616673","name":"Metro S\u0142odowiec","spot":"1","number":"9410","bikes":"28","bike_racks":"30","free_racks":"5","terminal_type":"7inch","bike_numbers":"28621,28544,28074,27997,27977,27795,27560,27539,27406,27316,26835,26786,26495,26489,26348,26238,25963,25278,29346,29066,29387,28866,96121,29183,29253,29233,29224,96589","bike_types":{"4":28},"place_type":"0","rack_locks":"1"},{"uid":"2585278","lat":"52.2777751","lng":"20.9856999","name":"Potocka - OSiR \u017boliborz","spot":"1","number":"9411","bikes":"19","bike_racks":"15","free_racks":"0","terminal_type":"7inch","bike_numbers":"24682,28766,28755,28257,27619,27066,26988,26746,26695,26663,26357,25983,25754,25422,29111,28863,28973,96480,96260","bike_types":{"4":19},"place_type":"0","rack_locks":"1"},{"uid":"2585280","lat":"52.273527782989","lng":"20.994186401367","name":"Gwia\u017adzista - Promyka","spot":"1","number":"9412","bikes":"3","bike_racks":"16","free_racks":"13","terminal_type":"7inch","bike_numbers":"28003,29421,96492","bike_types":{"4":3},"place_type":"0","rack_locks":"1"},{"uid":"2585281","lat":"52.270941","lng":"20.9326269","name":"al. Reymonta - Conrada","spot":"1","number":"9413","bikes":"33","bike_racks":"30","free_racks":"0","terminal_type":"7inch","bike_numbers":"24751,24650,24638,28701,28338,28088,27946,27830,27685,27590,27427,27233,27057,26648,26456,26432,26186,26164,26147,26115,25501,25499,25436,25428,25203,96029,96515,96365,96284,96268,29275,29262,96585","bike_types":{"4":33},"place_type":"0","rack_locks":"1"},{"uid":"2585283","lat":"52.2706441","lng":"20.9504181","name":"Broniewskiego - Perzy\u0144skiego","spot":"1","number":"9414","bikes":"10","bike_racks":"16","free_racks":"6","terminal_type":"7inch","bike_numbers":"24934,24932,24643,24028,28619,28020,26957,26212,25635,96241","bike_types":{"4":9,"26":1},"place_type":"0","rack_locks":"1"},{"uid":"2585284","lat":"52.2714203","lng":"20.9727099","name":"Metro Marymont","spot":"1","number":"9415","bikes":"25","bike_racks":"30","free_racks":"5","terminal_type":"7inch","bike_numbers":"24894,24786,24608,24456,28658,27809,27734,27660,27595,27250,26960,26682,26630,25822,25517,25400,25306,25292,25207,25013,28827,28964,96573,96393,96310","bike_types":{"4":24,"51":1},"place_type":"0","rack_locks":"1"},{"uid":"2585285","lat":"52.2694081","lng":"20.9833664","name":"Metro Plac Wilsona","spot":"1","number":"9416","bikes":"23","bike_racks":"21","free_racks":"1","terminal_type":"7inch","bike_numbers":"24557,28769,28282,28057,27808,27702,27593,27348,26821,26326,25580,25565,25395,25214,25062,29109,29011,28870,28962,28982,96498,96214,29201","bike_types":{"4":23},"place_type":"0","rack_locks":"1"},{"uid":"2585286","lat":"52.2668623","lng":"20.9637032","name":"Broniewskiego - W\u0142o\u015bcia\u0144ska","spot":"1","number":"9417","bikes":"19","bike_racks":"19","free_racks":"1","terminal_type":"7inch","bike_numbers":"24657,24486,24039,28096,27844,27732,27450,26953,26901,26830,25472,25370,29051,29036,28941,28856,28840,96494,29162","bike_types":{"4":17,"51":1,"26":1},"place_type":"0","rack_locks":"1"},{"uid":"2585288","lat":"52.2643984","lng":"20.9723179","name":"Broniewskiego - Krasi\u0144skiego","spot":"1","number":"9418","bikes":"19","bike_racks":"16","free_racks":"1","maintenance":"1","terminal_type":"7inch","bike_numbers":"24695,24475,28664,28382,28268,27686,27650,27548,27375,26936,26636,26150,25929,25810,25544,25270,25021,96468,96443","bike_types":{"4":18,"51":1},"place_type":"0","rack_locks":"1"},{"uid":"2585289","lat":"52.267875","lng":"21.0020667","name":"Wybrze\u017ce Gdy\u0144skie - KS Sp\u00f3jnia","spot":"1","number":"9419","bikes":"7","bike_racks":"15","free_racks":"7","terminal_type":"7inch","bike_numbers":"28558,28423,27967,27012,26611,25529,29088","bike_types":{"4":7},"place_type":"0","rack_locks":"1"},{"uid":"2585291","lat":"52.2624054","lng":"20.9802551","name":"Plac Grunwaldzki","spot":"1","number":"9420","bikes":"34","bike_racks":"30","free_racks":"2","terminal_type":"7inch","bike_numbers":"24984,24815,24023,28728,28376,27526,27499,27433,27432,27398,27256,27226,27208,27007,26977,26580,26542,26450,26385,26299,26199,26136,25982,25977,25884,25866,25729,25684,25674,29352,29042,60862,28859,96475","bike_types":{"4":33,"26":1},"place_type":"0","rack_locks":"1"},{"uid":"2585296","lat":"52.2612575","lng":"20.9863191","name":"Zaj\u0105czka - Bitwy Pod Rokitn\u0105","spot":"1","number":"9421","bikes":"12","bike_racks":"15","free_racks":"3","terminal_type":"7inch","bike_numbers":"24998,24803,27935,27876,27083,27010,26046,25915,25712,25326,25059,29367","bike_types":{"4":12},"place_type":"0","rack_locks":"1"},{"uid":"2585297","lat":"52.2645018","lng":"20.9895998","name":"Plac Inwalid\u00f3w","spot":"1","number":"9422","bikes":"13","bike_racks":"15","free_racks":"2","terminal_type":"7inch","bike_numbers":"24693,24605,28735,28661,27996,27759,27078,27019,26704,26618,25940,29075,29279","bike_types":{"4":13},"place_type":"0","rack_locks":"1"},{"uid":"2585299","lat":"52.258245356688","lng":"20.898613929749","name":"P\u0119tla Stare Bemowo","spot":"1","number":"9423","bikes":"18","bike_racks":"21","free_racks":"3","terminal_type":"7inch","bike_numbers":"24970,28763,28682,28673,28651,28597,28138,27819,27132,26905,26627,25818,25615,25116,28815,96014,96223,29155","bike_types":{"4":18},"place_type":"0","rack_locks":"1"},{"uid":"2585301","lat":"52.260895125763","lng":"20.923923254013","name":"P\u0119tla Nowe Bemowo","spot":"1","number":"9424","bikes":"27","bike_racks":"25","free_racks":"0","terminal_type":"7inch","bike_numbers":"24971,24752,24624,24504,28886,28662,28486,28483,28025,27656,27565,27401,27389,26526,26452,26092,25599,25435,25420,25399,25189,25138,96321,96183,96153,29150,29206","bike_types":{"4":27},"place_type":"0","rack_locks":"1"},{"uid":"2585304","lat":"52.2575903","lng":"20.9323374","name":"Obro\u0144c\u00f3w Tobruku - Pieni\u0105\u017cka","spot":"1","number":"9425","bikes":"21","bike_racks":"22","free_racks":"1","terminal_type":"7inch","bike_numbers":"24931,24461,24015,28271,28079,27701,27684,27523,27469,27283,26639,26615,26595,26525,26191,26095,25872,25315,25157,28844,29180","bike_types":{"4":19,"51":1,"26":1},"place_type":"0","rack_locks":"1"},{"uid":"2585305","lat":"52.2593225","lng":"20.9605511","name":"Pow\u0105zkowska - Krasi\u0144skiego","spot":"1","number":"9426","bikes":"8","bike_racks":"23","free_racks":"16","terminal_type":"7inch","bike_numbers":"24652,28643,28214,27878,25989,28985,96436,96578","bike_types":{"4":8},"place_type":"0","rack_locks":"1"},{"uid":"2585306","lat":"52.2563145","lng":"20.9682307","name":"Pow\u0105zkowska - Plac Niemena","spot":"1","number":"9427","bikes":"26","bike_racks":"16","free_racks":"0","terminal_type":"7inch","bike_numbers":"24880,24846,24783,24523,24513,28612,28437,28433,28110,27771,27357,27145,27061,27014,26573,26510,26371,26302,26131,25325,25317,25210,29435,28851,28875,96325","bike_types":{"4":26},"place_type":"0","rack_locks":"1"},{"uid":"2585307","lat":"52.258524460024","lng":"20.970931649208","name":"Przasnyska - Rydygiera","spot":"1","number":"9428","bikes":"13","bike_racks":"15","free_racks":"2","terminal_type":"7inch","bike_numbers":"28327,28256,28123,27697,26718,25031,29128,28832,63621,96506,96384,96165,29181","bike_types":{"4":12,"0":1},"place_type":"0","rack_locks":"1"},{"uid":"2585308","lat":"52.253594","lng":"20.9798744","name":"Pow\u0105zkowska - Burakowska","spot":"1","number":"9429","bikes":"4","bike_racks":"20","free_racks":"16","terminal_type":"7inch","bike_numbers":"24991,28041,27288,25080","bike_types":{"4":4},"place_type":"0","rack_locks":"1"},{"uid":"2585311","lat":"52.2576018","lng":"20.9944975","name":"Metro Dworzec Gda\u0144ski","spot":"1","number":"9430","bikes":"5","bike_racks":"30","free_racks":"25","terminal_type":"7inch","bike_numbers":"26843,25224,28969,96149,29221","bike_types":{"4":5},"place_type":"0","rack_locks":"1"},{"uid":"2585313","lat":"52.252626","lng":"20.913638","name":"Powsta\u0144c\u00f3w \u015al\u0105skich - Radiowa","spot":"1","number":"9431","bikes":"17","bike_racks":"30","free_racks":"13","terminal_type":"7inch","bike_numbers":"28744,27607,27412,27290,27273,27054,26774,26271,26223,25655,29110,25626,28900,28998,96001,96229,29268","bike_types":{"4":17},"place_type":"0","rack_locks":"1"},{"uid":"2585315","lat":"52.2465952","lng":"20.9429216","name":"Obozowa - Cio\u0142ka","spot":"1","number":"9432","bikes":"13","bike_racks":"13","free_racks":"0","terminal_type":"7inch","bike_numbers":"28457,28064,27807,27468,27449,27074,26783,26458,25697,28908,96547,96413,96381","bike_types":{"4":13},"place_type":"0","rack_locks":"1"},{"uid":"2585317","lat":"52.227621983552","lng":"20.956758856773","name":"al. Prymasa Tysi\u0105clecia - Kasprzaka","spot":"1","number":"9433","bikes":"8","bike_racks":"23","free_racks":"15","terminal_type":"7inch","bike_numbers":"24765,24742,24590,28903,27849,27317,26216,25815","bike_types":{"4":8},"place_type":"0","rack_locks":"1"},{"uid":"2585319","lat":"52.246037","lng":"20.962463","name":"Obozowa - Radziwie","spot":"1","number":"9434","bikes":"15","bike_racks":"13","free_racks":"0","terminal_type":"7inch","bike_numbers":"24806,24528,28280,28117,27439,27115,27023,26609,26511,25914,25258,25227,96420,96402,96175","bike_types":{"4":15},"place_type":"0","rack_locks":"1"},{"uid":"2585321","lat":"52.2514708","lng":"20.9857053","name":"al. Jana Paw\u0142a II - Stawki","spot":"1","number":"9435","bikes":"4","bike_racks":"23","free_racks":"19","terminal_type":"7inch","bike_numbers":"28667,28340,25661,96396","bike_types":{"4":4},"place_type":"0","rack_locks":"1"},{"uid":"2585323","lat":"52.2535305","lng":"20.9924922","name":"Stawki - Dubois","spot":"1","number":"9436","bikes":"16","bike_racks":"13","free_racks":"0","terminal_type":"7inch","bike_numbers":"24659,24600,28712,28608,28554,28285,28067,27923,27825,27261,27183,26956,26676,25585,25403,29060","bike_types":{"4":16},"place_type":"0","rack_locks":"1"},{"uid":"2585326","lat":"52.2541702","lng":"20.9980649","name":"Andersa - Muranowska","spot":"1","number":"9437","bikes":"6","bike_racks":"30","free_racks":"24","terminal_type":"7inch","bike_numbers":"24958,27693,25779,25466,25235,29138","bike_types":{"4":5,"0":1},"place_type":"0","rack_locks":"1"},{"uid":"2585327","lat":"52.255877","lng":"21.0099819","name":"Sanguszki - Wybrze\u017ce Gda\u0144skie","spot":"1","number":"9438","bikes":"19","bike_racks":"28","free_racks":"9","terminal_type":"7inch","bike_numbers":"24867,28288,27942,27867,27698,27582,26860,26157,26020,25846,25843,25614,25566,25523,25522,25248,28946,29132,96303","bike_types":{"4":18,"0":1},"place_type":"0","rack_locks":"1"},{"uid":"2585328","lat":"52.252175","lng":"20.923692","name":"Wroc\u0142awska \u2013 Bailly","spot":"1","number":"9439","bikes":"26","bike_racks":"27","free_racks":"1","terminal_type":"7inch","bike_numbers":"24834,24649,24558,24485,28681,28633,28521,27910,27879,27821,27723,27600,26733,26684,25302,25165,25137,25096,25090,29343,29068,96331,96300,96095,96092,29212","bike_types":{"4":25,"51":1},"place_type":"0","rack_locks":"1"},{"uid":"2585330","lat":"52.24418","lng":"20.97794","name":"Okopowa - Anielewicza","spot":"1","number":"9440","bikes":"9","bike_racks":"20","free_racks":"11","terminal_type":"7inch","bike_numbers":"24983,24565,28668,28654,28459,28406,27102,25970,29177","bike_types":{"4":9},"place_type":"0","rack_locks":"1"},{"uid":"2585333","lat":"52.2486","lng":"20.98352","name":"Smocza - Mi\u0142a","spot":"1","number":"9441","bikes":"11","bike_racks":"15","free_racks":"4","terminal_type":"7inch","bike_numbers":"24787,24610,27665,27071,26473,26145,25796,28919,29445,29455,96530","bike_types":{"4":11},"place_type":"0","rack_locks":"1"},{"uid":"2585334","lat":"52.24616","lng":"20.98538","name":"Smocza - Anielewicza","spot":"1","number":"9442","bikes":"3","bike_racks":"17","free_racks":"14","terminal_type":"7inch","bike_numbers":"24466,27949,96163","bike_types":{"51":1,"4":2},"place_type":"0","rack_locks":"1"},{"uid":"2585335","lat":"52.247226","lng":"20.9893155","name":"al. Jana Paw\u0142a II - Anielewicza","spot":"1","number":"9443","bikes":"18","bike_racks":"22","free_racks":"4","terminal_type":"7inch","bike_numbers":"24651,24043,28052,27642,27271,27104,27039,26981,26959,26748,25905,25597,25583,25543,25133,25052,63615,96429","bike_types":{"4":17,"26":1},"place_type":"0","rack_locks":"1"},{"uid":"2585337","lat":"52.249052","lng":"20.9948923","name":"Anielewicza - Zamenhofa","spot":"1","number":"9444","bikes":"13","bike_racks":"15","free_racks":"2","terminal_type":"7inch","bike_numbers":"24874,24500,26984,26662,26402,26269,25948,25437,25053,28949,29552,28776,29234","bike_types":{"4":12,"51":1},"place_type":"0","rack_locks":"1"},{"uid":"2585338","lat":"52.2492196","lng":"20.9971878","name":"Anielewicza - Andersa","spot":"1","number":"9445","bikes":"7","bike_racks":"20","free_racks":"12","terminal_type":"7inch","bike_numbers":"28309,27971,27900,27374,25305,29082,96101","bike_types":{"4":8},"place_type":"0","rack_locks":"1"},{"uid":"2585340","lat":"52.251549","lng":"21.002749","name":"Bonifraterska - Franciszka\u0144ska","spot":"1","number":"9446","bikes":"19","bike_racks":"18","free_racks":"2","terminal_type":"7inch","bike_numbers":"28803,28452,28335,28265,27982,27792,27466,27224,26967,26393,25134,25091,29345,60845,25629,96336,96317,96302,29239","bike_types":{"4":19},"place_type":"0","rack_locks":"1"},{"uid":"2585342","lat":"52.2541119","lng":"21.0093342","name":"Ko\u015bcielna - Piesza","spot":"1","number":"9448","bikes":"18","bike_racks":"26","free_racks":"8","terminal_type":"7inch","bike_numbers":"24891,28671,28650,28387,26889,26721,26327,26226,26139,25782,25393,25344,25220,25185,29020,96056,96298,29203","bike_types":{"4":18},"place_type":"0","rack_locks":"1"},{"uid":"2585344","lat":"52.2392622","lng":"20.8987641","name":"P\u0119tla Os. G\u00f3rczewska","spot":"1","number":"9449","bikes":"14","bike_racks":"15","free_racks":"1","terminal_type":"7inch","bike_numbers":"24739,28478,27777,27644,27190,26666,26660,26395,25823,25237,25202,29388,96479,29194","bike_types":{"4":14},"place_type":"0","rack_locks":"1"},{"uid":"2585345","lat":"52.2389287","lng":"20.9139535","name":"Bemowo-Ratusz","spot":"1","number":"9450","bikes":"17","bike_racks":"20","free_racks":"7","terminal_type":"7inch","bike_numbers":"28314,27959,27890,27614,27598,26894,26812,26743,26668,26654,26582,25984,25246,25028,96033,96471,29211","bike_types":{"4":17},"place_type":"0","rack_locks":"1"},{"uid":"2585346","lat":"52.2387861","lng":"20.9424946","name":"Okocimska - Olbrachta","spot":"1","number":"9451","bikes":"14","bike_racks":"18","free_racks":"5","terminal_type":"7inch","bike_numbers":"24860,24505,27823,27309,27203,26513,25790,25386,25232,25228,96034,96258,96081,29255","bike_types":{"4":14},"place_type":"0","rack_locks":"1"},{"uid":"2585349","lat":"52.2506241","lng":"21.0533611","name":"Dworzec Wschodni - Lubelska","spot":"1","number":"9452","bikes":"18","bike_racks":"15","free_racks":"1","terminal_type":"7inch","bike_numbers":"24583,28635,28628,28603,27609,27517,27460,26440,26398,26324,25844,25542,25193,29087,28960,29654,25630,96119","bike_types":{"4":18},"place_type":"0","rack_locks":"1"},{"uid":"2585351","lat":"52.2369249","lng":"20.9723559","name":"Leszno - M\u0142ynarska","spot":"1","number":"9453","bikes":"25","bike_racks":"30","free_racks":"5","terminal_type":"7inch","bike_numbers":"24780,24494,25009,28629,28442,28301,28218,27604,27502,27063,26999,26795,26437,26422,26381,25862,25253,25026,29096,96403,96275,96210,96130,96107,96097","bike_types":{"4":24,"51":1},"place_type":"0","rack_locks":"1"},{"uid":"2585352","lat":"52.2430451","lng":"20.9803864","name":"Dzielna - Bellottiego","spot":"1","number":"9454","bikes":"3","bike_racks":"20","free_racks":"17","terminal_type":"7inch","bike_numbers":"28620,28454,96006","bike_types":{"4":3},"place_type":"0","rack_locks":"1"},{"uid":"2585353","lat":"52.24108","lng":"20.98316","name":"Wolno\u015b\u0107 - Bellottiego","spot":"1","number":"9455","bikes":"14","bike_racks":"16","free_racks":"1","terminal_type":"7inch","bike_numbers":"24525,24473,24042,24024,28196,27566,26220,25804,25619,28945,29459,96559,96288,29218","bike_types":{"4":11,"51":1,"26":2},"place_type":"0","rack_locks":"1"},{"uid":"2585354","lat":"52.2435448","lng":"20.9873507","name":"Smocza - Nowolipki","spot":"1","number":"9456","bikes":"12","bike_racks":"16","free_racks":"4","terminal_type":"7inch","bike_numbers":"24545,28324,27990,27533,27073,26885,26273,25342,29122,96025,96267,96247","bike_types":{"4":11,"0":1},"place_type":"0","rack_locks":"1"},{"uid":"2585356","lat":"52.2445767","lng":"20.99177","name":"al. Jana Paw\u0142a II - Nowolipki","spot":"1","number":"9457","bikes":"11","bike_racks":"16","free_racks":"5","terminal_type":"7inch","bike_numbers":"24030,28438,28038,27891,26946,25560,25421,25082,29136,96382,96125","bike_types":{"26":1,"4":9,"0":1},"place_type":"0","rack_locks":"1"},{"uid":"2585358","lat":"52.22868","lng":"20.91509","name":"Powsta\u0144c\u00f3w \u015al\u0105skich - Cz\u0142uchowska","spot":"1","number":"9458","bikes":"12","bike_racks":"16","free_racks":"4","terminal_type":"7inch","bike_numbers":"24885,24595,28276,26518,26421,25919,25794,25454,29031,96049,96448,29199","bike_types":{"4":12},"place_type":"0","rack_locks":"1"},{"uid":"2585360","lat":"52.2342032","lng":"20.934689","name":"Jana Olbrachta - Antka Rozpylacza","spot":"1","number":"9459","bikes":"13","bike_racks":"16","free_racks":"4","terminal_type":"7inch","bike_numbers":"24805,24656,24487,27790,27109,26852,26528,26132,25912,25229,96507,96286,96269","bike_types":{"4":12,"51":1},"place_type":"0","rack_locks":"1"},{"uid":"2585364","lat":"52.2401623","lng":"20.9877277","name":"Wola-Ratusz","spot":"1","number":"9460","bikes":"1","bike_racks":"15","free_racks":"14","terminal_type":"7inch","bike_numbers":"96338","bike_types":{"4":1},"place_type":"0","rack_locks":"1"},{"uid":"2585368","lat":"52.2445326","lng":"20.99998","name":"Plac Bankowy - Kino Muran\u00f3w","spot":"1","number":"9462","bikes":"9","bike_racks":"17","free_racks":"7","terminal_type":"7inch","bike_numbers":"24636,28555,28259,28207,26820,26284,26124,25506,96152","bike_types":{"4":9},"place_type":"0","rack_locks":"1"},{"uid":"2585369","lat":"52.2449465","lng":"21.0012943","name":"Andersa - D\u0142uga","spot":"1","number":"9463","bikes":"2","bike_racks":"30","free_racks":"28","terminal_type":"7inch","bike_numbers":"27518,25552","bike_types":{"4":2},"place_type":"0","rack_locks":"1"},{"uid":"2585370","lat":"52.244228827289","lng":"21.001626849174","name":"Marsza\u0142kowska - al. Solidarno\u015bci","spot":"1","number":"9464","bikes":"5","bike_racks":"30","free_racks":"26","terminal_type":"7inch","bike_numbers":"27866,27522,27091,25508,96392","bike_types":{"4":5},"place_type":"0","rack_locks":"1"},{"uid":"2585371","lat":"52.2431975","lng":"21.0016603","name":"Plac Bankowy - Ratusz","spot":"1","number":"9465","bikes":"7","bike_racks":"30","free_racks":"23","terminal_type":"7inch","bike_numbers":"24753,27962,27359,26794,26364,25030,96376","bike_types":{"4":7},"place_type":"0","rack_locks":"1"},{"uid":"2585373","lat":"52.2435719","lng":"21.0066801","name":"Senatorska - Biela\u0144ska","spot":"1","number":"9466","bikes":"12","bike_racks":"17","free_racks":"6","terminal_type":"7inch","bike_numbers":"24849,24816,24795,28416,27527,26747,25955,25432,25263,25249,29763,96359","bike_types":{"4":12},"place_type":"0","rack_locks":"1"},{"uid":"2585377","lat":"52.246314509834","lng":"21.0113042593","name":"Miodowa","spot":"1","number":"9467","bikes":"34","bike_racks":"24","free_racks":"8","terminal_type":"7inch","bike_numbers":"24937,24851,24847,24514,28567,28532,27978,27924,27750,27641,27289,27257,26671,26624,26486,26363,26304,25880,25667,25381,25303,25109,60831,29434,28813,28836,96452,96449,96246,96235,96159,96109,29193,29269","bike_types":{"4":34},"place_type":"0","rack_locks":"1"},{"uid":"2585378","lat":"52.2435965","lng":"21.0140803","name":"Krakowskie Przedmie\u015bcie - Tr\u0119backa","spot":"1","number":"9468","bikes":"11","bike_racks":"14","free_racks":"7","terminal_type":"7inch","bike_numbers":"24548,24457,28690,28589,28332,27679,26971,26728,26505,25218,29178","bike_types":{"4":10,"51":1},"place_type":"0","rack_locks":"1"},{"uid":"2585379","lat":"52.2465625","lng":"21.0174345","name":"Mariensztat","spot":"1","number":"9469","bikes":"13","bike_racks":"15","free_racks":"6","terminal_type":"7inch","bike_numbers":"24996,24987,28208,28137,27718,27416,26540,26239,25445,28943,63620,96527,96230","bike_types":{"4":13},"place_type":"0","rack_locks":"1"},{"uid":"2585381","lat":"52.224934","lng":"20.945489","name":"Jana Kazimierza - Giz\u00f3w","spot":"1","number":"9471","bikes":"13","bike_racks":"21","free_racks":"8","terminal_type":"7inch","bike_numbers":"28512,28446,28062,27435,27196,26606,26286,26069,26055,25540,96523,29186,29230","bike_types":{"4":13},"place_type":"0","rack_locks":"1"},{"uid":"2585385","lat":"52.23016","lng":"20.951558","name":"Wolska - Elekcyjna","spot":"1","number":"9472","bikes":"26","bike_racks":"30","free_racks":"4","terminal_type":"7inch","bike_numbers":"24902,24797,24564,24458,28874,28750,28410,28397,28131,28091,27820,27620,27547,27315,27162,26776,26387,26185,26163,25967,25670,25285,96008,96004,96355,29256","bike_types":{"4":25,"51":1},"place_type":"0","rack_locks":"1"},{"uid":"2585387","lat":"52.237662392829","lng":"20.955492854118","name":"al. Prymasa Tysi\u0105clecia - G\u00f3rczewska","spot":"1","number":"9473","bikes":"2","bike_racks":"20","free_racks":"18","terminal_type":"7inch","bike_numbers":"26840,96518","bike_types":{"4":2},"place_type":"0","rack_locks":"1"},{"uid":"2585389","lat":"52.2333374","lng":"20.9652776","name":"Wolska - P\u0142ocka","spot":"1","number":"9474","bikes":"10","bike_racks":"20","free_racks":"10","terminal_type":"7inch","bike_numbers":"28677,28476,27544,27451,27097,26942,28880,63627,96561,96219","bike_types":{"4":10},"place_type":"0","rack_locks":"1"},{"uid":"2585391","lat":"52.228522296173","lng":"20.969638824463","name":"Kasprzaka - Skierniewicka","spot":"1","number":"9475","bikes":"12","bike_racks":"21","free_racks":"9","terminal_type":"7inch","bike_numbers":"28665,28640,28357,27671,27151,26626,26403,26321,26151,25945,25397,25241","bike_types":{"4":12},"place_type":"0","rack_locks":"1"},{"uid":"2585394","lat":"52.22898","lng":"20.97843","name":"Kasprzaka - Karolkowa","spot":"1","number":"9476","bikes":"3","bike_racks":"15","free_racks":"12","terminal_type":"7inch","bike_numbers":"24926,25717,96113","bike_types":{"4":3},"place_type":"0","rack_locks":"1"},{"uid":"2585396","lat":"52.2328752","lng":"20.9805411","name":"Muzeum Powstania Warszawskiego","spot":"1","number":"9477","bikes":"4","bike_racks":"10","free_racks":"7","terminal_type":"7inch","bike_numbers":"28710,28402,28258,26397","bike_types":{"4":4},"place_type":"0","rack_locks":"1"},{"uid":"2585398","lat":"52.22983","lng":"20.983123","name":"Metro Rondo Daszy\u0144skiego","spot":"1","number":"9478","bikes":"0","bike_racks":"26","free_racks":"26","terminal_type":"7inch","place_type":"0","rack_locks":"1","bike_numbers":null,"bike_types":[]},{"uid":"2585400","lat":"52.23145","lng":"20.98869","name":"Prosta - Wronia","spot":"1","number":"9479","bikes":"7","bike_racks":"15","free_racks":"7","terminal_type":"7inch","bike_numbers":"24961,28040,27901,26739,25029,29002,96091","bike_types":{"4":7},"place_type":"0","rack_locks":"1"},{"uid":"2585401","lat":"52.2373141","lng":"20.9888488","name":"\u017belazna - Ch\u0142odna","spot":"1","number":"9480","bikes":"6","bike_racks":"15","free_racks":"8","terminal_type":"7inch","bike_numbers":"28706,27779,27576,26201,29441,96059","bike_types":{"4":6},"place_type":"0","rack_locks":"1"},{"uid":"2585402","lat":"52.2344946","lng":"20.9905117","name":"\u017belazna - Grzybowska","spot":"1","number":"9481","bikes":"3","bike_racks":"20","free_racks":"17","terminal_type":"7inch","bike_numbers":"27727,27089,29451","bike_types":{"4":3},"place_type":"0","rack_locks":"1"},{"uid":"2585405","lat":"52.238666","lng":"20.9957314","name":"al. Jana Paw\u0142a II - Plac Mirowski","spot":"1","number":"9482","bikes":"5","bike_racks":"21","free_racks":"16","terminal_type":"7inch","bike_numbers":"27313,25671,96421,96354,29232","bike_types":{"4":5},"place_type":"0","rack_locks":"1"},{"uid":"2585406","lat":"52.2357151","lng":"20.9966071","name":"al. Jana Paw\u0142a II - Grzybowska","spot":"1","number":"9483","bikes":"2","bike_racks":"30","free_racks":"28","terminal_type":"7inch","bike_numbers":"27583,29226","bike_types":{"4":2},"place_type":"0","rack_locks":"1"},{"uid":"2585410","lat":"52.23958","lng":"21.00027","name":"Ptasia - Zimna","spot":"1","number":"9485","bikes":"13","bike_racks":"16","free_racks":"3","terminal_type":"7inch","bike_numbers":"24773,24724,27461,26446,26276,26237,26224,26188,25711,25384,96294,29263,29244","bike_types":{"4":13},"place_type":"0","rack_locks":"1"},{"uid":"2585412","lat":"52.2336314","lng":"21.0028795","name":"Emilii Plater - \u015awi\u0119tokrzyska","spot":"1","number":"9486","bikes":"7","bike_racks":"26","free_racks":"19","terminal_type":"7inch","bike_numbers":"24930,28585,28307,25209,96027,63630,29274","bike_types":{"4":7},"place_type":"0","rack_locks":"1"},{"uid":"2585413","lat":"52.2358704","lng":"21.0037806","name":"Plac Grzybowski","spot":"1","number":"9487","bikes":"4","bike_racks":"26","free_racks":"22","terminal_type":"7inch","bike_numbers":"24938,24004,27390,25820","bike_types":{"4":3,"26":1},"place_type":"0","rack_locks":"1"},{"uid":"2585416","lat":"52.2384853","lng":"21.0067552","name":"Marsza\u0142kowska - Kr\u00f3lewska","spot":"1","number":"9488","bikes":"1","bike_racks":"19","free_racks":"18","terminal_type":"7inch","bike_numbers":"27175","bike_types":{"4":1},"place_type":"0","rack_locks":"1"},{"uid":"2585417","lat":"52.2364206","lng":"21.0072407","name":"Marsza\u0142kowska - Zielna","spot":"1","number":"9489","bikes":"2","bike_racks":"30","free_racks":"28","terminal_type":"7inch","bike_numbers":"28596,29050","bike_types":{"4":2},"place_type":"0","rack_locks":"1"},{"uid":"2585420","lat":"52.2397008","lng":"21.0119292","name":"Plac Ma\u0142achowskiego","spot":"1","number":"9491","bikes":"4","bike_racks":"16","free_racks":"12","terminal_type":"7inch","bike_numbers":"24570,28714,27103,26559","bike_types":{"4":4},"place_type":"0","rack_locks":"1"},{"uid":"2585422","lat":"52.2359114","lng":"21.0135654","name":"Plac Powsta\u0144c\u00f3w Warszawy","spot":"1","number":"9492","bikes":"15","bike_racks":"20","free_racks":"5","terminal_type":"7inch","bike_numbers":"24538,28737,28600,28346,28061,27188,26769,26137,25894,25858,25339,25336,29338,29076,29012","bike_types":{"4":15},"place_type":"0","rack_locks":"1"},{"uid":"2585423","lat":"52.2393559","lng":"21.016603","name":"Krakowskie Przedmie\u015bcie - Traugutta","spot":"1","number":"9493","bikes":"12","bike_racks":"24","free_racks":"12","terminal_type":"7inch","bike_numbers":"24838,24566,24562,27926,27626,27000,26707,26641,25451,25071,29045,28994","bike_types":{"4":12},"place_type":"0","rack_locks":"1"},{"uid":"2585429","lat":"52.238298","lng":"21.0184014","name":"Obo\u017ana - Kopernika","spot":"1","number":"9495","bikes":"13","bike_racks":"22","free_racks":"9","terminal_type":"7inch","bike_numbers":"27941,27767,27455,27245,27239,26863,26833,26342,25999,25704,25442,25439,29426","bike_types":{"4":13},"place_type":"0","rack_locks":"1"},{"uid":"2585430","lat":"52.24190654256","lng":"21.024259328842","name":"Lipowa - Dobra","spot":"1","number":"9496","bikes":"10","bike_racks":"19","free_racks":"11","terminal_type":"7inch","bike_numbers":"24508,24467,28678,27157,25854,25211,29046,96564,96411,96264","bike_types":{"4":9,"51":1},"place_type":"0","rack_locks":"1"},{"uid":"2585431","lat":"52.2413087","lng":"21.0281727","name":"Centrum Nauki Kopernik","spot":"1","number":"9497","bikes":"48","bike_racks":"30","free_racks":"0","terminal_type":"7inch","bike_numbers":"24944,24940,24909,24871,24843,24726,24635,24573,24021,28898,28729,28579,28468,28445,28412,28329,28151,28076,28055,27851,27669,27573,27570,27377,27323,27303,27181,27148,26916,26751,26569,26394,26158,25934,25550,25518,25478,25330,29004,29639,28853,28990,96377,96320,96255,96093,29164,24050","bike_types":{"4":46,"26":1},"place_type":"0","rack_locks":"1"},{"uid":"2585432","lat":"52.2264464","lng":"20.9837164","name":"Kolejowa","spot":"1","number":"9498","bikes":"6","bike_racks":"16","free_racks":"10","terminal_type":"7inch","bike_numbers":"28752,27670,26514,25742,28799,96060","bike_types":{"4":6},"place_type":"0","rack_locks":"1"},{"uid":"2585433","lat":"52.22983","lng":"20.993996","name":"\u017belazna - Sienna","spot":"1","number":"9499","bikes":"6","bike_racks":"30","free_racks":"25","terminal_type":"7inch","bike_numbers":"26436,25787,25680,25654,96459,29217","bike_types":{"4":6},"place_type":"0","rack_locks":"1"},{"uid":"2585435","lat":"52.230201297582","lng":"20.999550819397","name":"al. Jana Paw\u0142a II - Z\u0142ota","spot":"1","number":"9500","bikes":"12","bike_racks":"16","free_racks":"4","terminal_type":"7inch","bike_numbers":"24976,28364,28316,28155,28031,27983,27612,25908,25458,25079,25024,96563","bike_types":{"4":12},"place_type":"0","rack_locks":"1"},{"uid":"2585438","lat":"52.2309778","lng":"21.0036755","name":"Emilii Plater - Z\u0142ota","spot":"1","number":"9501","bikes":"12","bike_racks":"30","free_racks":"22","terminal_type":"7inch","bike_numbers":"24609,28637,28502,28024,27846,26944,26865,26154,25825,96404,29152,29215","bike_types":{"4":12},"place_type":"0","rack_locks":"1"},{"uid":"2585440","lat":"52.232816601853","lng":"21.006980538368","name":"Pa\u0142ac Kultury i Nauki","spot":"1","number":"9502","bikes":"7","bike_racks":"17","free_racks":"10","terminal_type":"7inch","bike_numbers":"27231,26929,26482,29044,96016,96099,29259","bike_types":{"4":7},"place_type":"0","rack_locks":"1"},{"uid":"2585442","lat":"52.232934","lng":"21.0101791","name":"Marsza\u0142kowska - Z\u0142ota","spot":"1","number":"9503","bikes":"12","bike_racks":"22","free_racks":"10","terminal_type":"7inch","bike_numbers":"24792,24647,28592,27925,27774,27015,26917,26503,26141,25961,96522,96085","bike_types":{"4":12},"place_type":"0","rack_locks":"1"},{"uid":"2585445","lat":"52.231987","lng":"21.016092","name":"Bracka - Krucza","spot":"1","number":"9504","bikes":"10","bike_racks":"20","free_racks":"11","terminal_type":"7inch","bike_numbers":"28762,26930,26478,25888,25726,25169,25106,29017,96324,96587","bike_types":{"4":10},"place_type":"0","rack_locks":"1"},{"uid":"2585446","lat":"52.2355713","lng":"21.0179642","name":"Nowy \u015awiat - Warecka","spot":"1","number":"9505","bikes":"7","bike_racks":"24","free_racks":"15","terminal_type":"7inch","bike_numbers":"24960,24621,24479,28019,27129,25058,28996","bike_types":{"4":6,"51":1},"place_type":"0","rack_locks":"1"},{"uid":"2585447","lat":"52.2337571","lng":"21.0202789","name":"Ga\u0142czy\u0144skiego - Foksal","spot":"1","number":"9506","bikes":"19","bike_racks":"24","free_racks":"4","terminal_type":"7inch","bike_numbers":"24584,28427,27715,27654,26939,26750,26596,26555,25885,25828,25640,25576,25130,25085,29641,96248,96087,29252,24047","bike_types":{"4":18,"26":1},"place_type":"0","rack_locks":"1"},{"uid":"2585450","lat":"52.2375934","lng":"21.0256487","name":"Topiel - Tamka","spot":"1","number":"9507","bikes":"21","bike_racks":"20","free_racks":"3","terminal_type":"7inch","bike_numbers":"24629,28535,28033,27753,27638,27206,27171,26947,26793,26457,25991,25981,25319,25142,25119,28997,96550,96412,96373,96332,96323","bike_types":{"4":21},"place_type":"0","rack_locks":"1"},{"uid":"2585452","lat":"52.2358752","lng":"21.0317323","name":"Solec - Jaracza","spot":"1","number":"9508","bikes":"9","bike_racks":"15","free_racks":"6","terminal_type":"7inch","bike_numbers":"24858,28694,28663,27769,25960,25044,96526,96309,29276","bike_types":{"4":9},"place_type":"0","rack_locks":"1"},{"uid":"2585453","lat":"52.2218874","lng":"20.9795301","name":"al. Jerozolimskie - Niemcewicza","spot":"1","number":"9509","bikes":"4","bike_racks":"19","free_racks":"15","terminal_type":"7inch","bike_numbers":"28634,27537,25184,96460","bike_types":{"4":4},"place_type":"0","rack_locks":"1"},{"uid":"2585455","lat":"52.2222155","lng":"20.9866293","name":"Ochota-Ratusz","spot":"1","number":"9510","bikes":"11","bike_racks":"23","free_racks":"12","terminal_type":"7inch","bike_numbers":"27894,27515,26717,26674,26493,26405,26099,25322,29452,29460,28837","bike_types":{"4":11},"place_type":"0","rack_locks":"1"},{"uid":"2585457","lat":"52.2249718","lng":"20.9897661","name":"Plac Zawiszy","spot":"1","number":"9511","bikes":"12","bike_racks":"24","free_racks":"13","terminal_type":"7inch","bike_numbers":"24800,24721,28897,28419,28092,27874,26396,26057,25695,25429,25388,96114","bike_types":{"4":12},"place_type":"0","rack_locks":"1"},{"uid":"2585460","lat":"52.22626","lng":"20.9961309","name":"al. Jerozolimskie - Lindleya","spot":"1","number":"9512","bikes":"10","bike_racks":"15","free_racks":"5","terminal_type":"7inch","bike_numbers":"28773,28559,28456,28331,27423,27069,26754,29021,96543,96227","bike_types":{"4":10},"place_type":"0","rack_locks":"1"},{"uid":"2585462","lat":"52.2241455","lng":"20.9975244","name":"Lindleya - szpital","spot":"1","number":"9513","bikes":"5","bike_racks":"28","free_racks":"23","terminal_type":"7inch","bike_numbers":"24823,28685,27551,96296,96132","bike_types":{"4":5},"place_type":"0","rack_locks":"1"},{"uid":"2585464","lat":"52.227861","lng":"21.0008509","name":"Warszawa \u015ar\u00f3dmie\u015bcie WKD","spot":"1","number":"9514","bikes":"21","bike_racks":"18","free_racks":"4","terminal_type":"7inch","bike_numbers":"24955,24877,24585,28698,27538,27173,26586,26522,26307,26290,26001,25604,25555,25194,25100,24555,28978,96385,96357,96080,29195","bike_types":{"4":21},"place_type":"0","rack_locks":"1"},{"uid":"2585466","lat":"52.2249555","lng":"21.0031664","name":"Oczki - WUM","spot":"1","number":"9515","bikes":"2","bike_racks":"19","free_racks":"17","terminal_type":"7inch","bike_numbers":"26383,29086","bike_types":{"4":2},"place_type":"0","rack_locks":"1"},{"uid":"2585469","lat":"52.2290464","lng":"21.0054544","name":"Emilii Plater - Al. Jerozolimskie","spot":"1","number":"9517","bikes":"20","bike_racks":"30","free_racks":"10","terminal_type":"7inch","bike_numbers":"24913,24903,24560,28475,28154,27756,26922,26904,26810,26773,26590,26556,25723,25687,25590,25147,28879,28976,96316,24058","bike_types":{"4":19,"26":1},"place_type":"0","rack_locks":"1"},{"uid":"2585470","lat":"52.2259343","lng":"21.0067537","name":"Emilii Plater - Wsp\u00f3lna","spot":"1","number":"9518","bikes":"10","bike_racks":"15","free_racks":"5","terminal_type":"7inch","bike_numbers":"28568,28106,28051,27950,26900,26119,26031,96430,96368,96145","bike_types":{"4":10},"place_type":"0","rack_locks":"1"},{"uid":"2585472","lat":"52.23001","lng":"21.01088","name":"Metro Centrum","spot":"1","number":"9519","bikes":"13","bike_racks":"30","free_racks":"19","terminal_type":"7inch","bike_numbers":"28296,28132,27737,27341,27305,26859,26854,26174,26135,26019,25944,25346,96021","bike_types":{"4":13},"place_type":"0","rack_locks":"1"},{"uid":"2585473","lat":"52.229347019086","lng":"21.011314988136","name":"Marsza\u0142kowska - Al. Jerozolimskie","spot":"1","number":"9520","bikes":"27","bike_racks":"24","free_racks":"0","terminal_type":"7inch","bike_numbers":"24831,24671,28692,28398,28254,28149,27899,27892,27337,27199,26871,26737,26562,26445,26415,26356,26100,25152,25032,29032,29010,28811,28961,96536,96485,96433,96406","bike_types":{"4":27},"place_type":"0","rack_locks":"1"},{"uid":"2585476","lat":"52.230418150276","lng":"21.013610959053","name":"al. Jerozolimskie - rejon Rotundy","spot":"1","number":"9521","bikes":"20","bike_racks":"24","free_racks":"4","terminal_type":"7inch","bike_numbers":"24571,28801,28695,28034,28023,27815,27480,26979,26893,26635,26568,25745,25463,25290,25172,29013,28833,96495,96470,29166","bike_types":{"4":20},"place_type":"0","rack_locks":"1"},{"uid":"2585477","lat":"52.2262882","lng":"21.0135705","name":"Marsza\u0142kowska - Ho\u017ca","spot":"1","number":"9522","bikes":"5","bike_racks":"15","free_racks":"10","terminal_type":"7inch","bike_numbers":"24964,27037,28975,96265,96077","bike_types":{"4":5},"place_type":"0","rack_locks":"1"},{"uid":"2585492","lat":"52.2282923","lng":"21.0178542","name":"Krucza - Wsp\u00f3lna","spot":"1","number":"9523","bikes":"18","bike_racks":"28","free_racks":"10","terminal_type":"7inch","bike_numbers":"24775,24553,28440,28356,28263,27299,26187,26111,26034,25875,25595,25510,29340,29070,28992,28895,96424,96160","bike_types":{"4":18},"place_type":"0","rack_locks":"1"},{"uid":"2585684","lat":"52.23144","lng":"21.0213036","name":"Rondo de Gaulle'a","spot":"1","number":"9524","bikes":"1","bike_racks":"22","free_racks":"22","terminal_type":"7inch","bike_numbers":"26961","bike_types":{"4":1},"place_type":"0","rack_locks":"1"},{"uid":"2585694","lat":"52.2278487","lng":"21.0235084","name":"Plac Trzech Krzy\u017cy","spot":"1","number":"9525","bikes":"11","bike_racks":"23","free_racks":"12","maintenance":"1","terminal_type":"7inch","bike_numbers":"24747,28731,26912,26826,26643,25971,25693,25469,25092,29659,96465","bike_types":{"4":11},"place_type":"0","rack_locks":"1"},{"uid":"2585695","lat":"52.23324","lng":"21.0261179","name":"Smolna - PKP Powi\u015ble","spot":"1","number":"9526","bikes":"6","bike_racks":"18","free_racks":"12","terminal_type":"7inch","bike_numbers":"28111,28060,27748,26919,26379,25251","bike_types":{"4":6},"place_type":"0","rack_locks":"1"},{"uid":"2585699","lat":"52.2340191","lng":"21.0300328","name":"Herberta - PKP Powi\u015ble","spot":"1","number":"9527","bikes":"25","bike_racks":"26","free_racks":"2","terminal_type":"7inch","bike_numbers":"24794,24777,24598,24596,28118,28094,27952,27543,27328,27243,27209,26913,26906,26613,26433,26278,25689,25530,25375,25271,25035,29121,29182,29265,96592","bike_types":{"4":24,"0":1},"place_type":"0","rack_locks":"1"},{"uid":"2585704","lat":"52.2347879","lng":"21.0340991","name":"Solec - al. 3 Maja","spot":"1","number":"9528","bikes":"14","bike_racks":"24","free_racks":"7","terminal_type":"7inch","bike_numbers":"24945,24673,28899,28537,27945,27563,27562,27420,27338,26879,25974,25860,25771,25084","bike_types":{"4":14},"place_type":"0","rack_locks":"1"},{"uid":"2585708","lat":"52.2301405","lng":"21.0303694","name":"Ksi\u0105\u017c\u0119ca - Rozbrat","spot":"1","number":"9529","bikes":"13","bike_racks":"15","free_racks":"3","terminal_type":"7inch","bike_numbers":"24720,28530,28101,27730,27172,27149,26498,26200,25582,25427,29447,96580,96591","bike_types":{"4":13},"place_type":"0","rack_locks":"1"},{"uid":"2585711","lat":"52.2172177","lng":"20.9713608","name":"Szcz\u0119\u015bliwicka - APS","spot":"1","number":"9530","bikes":"20","bike_racks":"22","free_racks":"1","terminal_type":"7inch","bike_numbers":"24597,24020,28505,28089,27869,27244,27111,26749,26687,26047,25677,25183,25139,25061,29063,29049,29431,96486,96344,96283","bike_types":{"4":19,"26":1},"place_type":"0","rack_locks":"1"},{"uid":"2585712","lat":"52.2179474","lng":"20.9775567","name":"Kopi\u0144ska - Bia\u0142obrzeska","spot":"1","number":"9531","bikes":"4","bike_racks":"15","free_racks":"10","terminal_type":"7inch","bike_numbers":"28264,27240,28839,96082","bike_types":{"4":4},"place_type":"0","rack_locks":"1"},{"uid":"2585714","lat":"52.2178554","lng":"20.9828138","name":"Plac Narutowicza","spot":"1","number":"9532","bikes":"20","bike_racks":"30","free_racks":"11","terminal_type":"7inch","bike_numbers":"24676,28528,28510,27969,27599,27512,26813,26515,26372,26196,25369,25094,25012,29427,28896,96053,96451,96349,29157,29151","bike_types":{"4":20},"place_type":"0","rack_locks":"1"},{"uid":"2585716","lat":"52.216641","lng":"20.9879476","name":"Raszy\u0144ska - Wawelska","spot":"1","number":"9533","bikes":"8","bike_racks":"20","free_racks":"12","terminal_type":"7inch","bike_numbers":"24905,28741,28000,27591,26353,25935,29339,29448","bike_types":{"4":8},"place_type":"0","rack_locks":"1"},{"uid":"2585717","lat":"52.2191029","lng":"20.9890149","name":"Raszy\u0144ska - Filtrowa","spot":"1","number":"9534","bikes":"2","bike_racks":"22","free_racks":"18","terminal_type":"7inch","bike_numbers":"27856,25601","bike_types":{"4":2},"place_type":"0","rack_locks":"1"},{"uid":"2585720","lat":"52.220676","lng":"21.0045554","name":"al. Niepodleg\u0142o\u015bci - Nowowiejska","spot":"1","number":"9535","bikes":"6","bike_racks":"30","free_racks":"24","terminal_type":"7inch","bike_numbers":"24801,28490,27834,26129,25636,96442","bike_types":{"4":6},"place_type":"0","rack_locks":"1"},{"uid":"2585721","lat":"52.2174693","lng":"21.0056537","name":"Kaczy\u0144skiego - al. Niepodleg\u0142o\u015bci","spot":"1","number":"9536","bikes":"7","bike_racks":"16","free_racks":"9","terminal_type":"7inch","bike_numbers":"24841,24530,25004,28348,28006,27471,96096","bike_types":{"4":7},"place_type":"0","rack_locks":"1"},{"uid":"2585722","lat":"52.2226831","lng":"21.0081097","name":"Noakowskiego - Koszykowa","spot":"1","number":"9537","bikes":"8","bike_racks":"24","free_racks":"12","terminal_type":"7inch","bike_numbers":"28045,27434,27170,26655,26420,26319,25986,25309","bike_types":{"4":12},"place_type":"0","rack_locks":"1"},{"uid":"2585724","lat":"52.219916","lng":"21.0116824","name":"Plac Politechniki","spot":"1","number":"9538","bikes":"4","bike_racks":"27","free_racks":"23","terminal_type":"7inch","bike_numbers":"27308,27053,26027,25383","bike_types":{"4":4},"place_type":"0","rack_locks":"1"},{"uid":"2585727","lat":"52.223503","lng":"21.0128519","name":"Pozna\u0144ska - Zesp\u00f3\u0142 Szk\u00f3\u0142 Gastronomicznych","spot":"1","number":"9539","bikes":"16","bike_racks":"18","free_racks":"2","terminal_type":"7inch","bike_numbers":"28570,28460,28439,28251,27572,27440,27117,26787,26544,26531,26497,26467,25719,25215,25128,96238","bike_types":{"4":16},"place_type":"0","rack_locks":"1"},{"uid":"2585728","lat":"52.2174857","lng":"21.0142949","name":"Rondo Jazdy Polskiej","spot":"1","number":"9540","bikes":"11","bike_racks":"24","free_racks":"13","terminal_type":"7inch","bike_numbers":"24627,28720,28572,27860,26475,26073,25644,25504,28974,96488,96142","bike_types":{"4":11},"place_type":"0","rack_locks":"1"},{"uid":"2585729","lat":"52.2197435","lng":"21.0157353","name":"ul. Wary\u0144skiego-ul. Nowowiejska-Metro Politechnika","spot":"1","number":"9541","bikes":"3","bike_racks":"20","free_racks":"19","terminal_type":"7inch","bike_numbers":"26470,25020,29078","bike_types":{"4":3},"place_type":"0","rack_locks":"1"},{"uid":"2585731","lat":"52.2197681","lng":"21.0172775","name":"Plac Zbawiciela","spot":"1","number":"9542","bikes":"5","bike_racks":"12","free_racks":"6","terminal_type":"7inch","bike_numbers":"28757,26386,25874,29433,96370","bike_types":{"4":5},"place_type":"0","rack_locks":"1"},{"uid":"2585735","lat":"52.2229427","lng":"21.0158211","name":"Plac Konstytucji","spot":"1","number":"9543","bikes":"5","bike_racks":"30","free_racks":"26","terminal_type":"7inch","bike_numbers":"28044,29007,28888,96089,96582","bike_types":{"4":5},"place_type":"0","rack_locks":"1"},{"uid":"2585737","lat":"52.2238152","lng":"21.0207859","name":"Mokotowska - Pi\u0119kna","spot":"1","number":"9544","bikes":"1","bike_racks":"22","free_racks":"20","terminal_type":"7inch","bike_numbers":"26512","bike_types":{"4":1},"place_type":"0","rack_locks":"1"},{"uid":"2585738","lat":"52.2200212","lng":"21.0256299","name":"Plac na Rozdro\u017cu","spot":"1","number":"9545","bikes":"6","bike_racks":"26","free_racks":"18","terminal_type":"7inch","bike_numbers":"24718,24510,28128,27940,27913,26800","bike_types":{"4":6},"place_type":"0","rack_locks":"1"},{"uid":"2585742","lat":"52.2249504","lng":"21.0268155","name":"Matejki - Wiejska","spot":"1","number":"9546","bikes":"6","bike_racks":"20","free_racks":"15","terminal_type":"7inch","bike_numbers":"28422,27525,27306,26083,25936,25153","bike_types":{"4":6},"place_type":"0","rack_locks":"1"},{"uid":"2585747","lat":"52.2221129","lng":"21.0343873","name":"My\u015bliwiecka - Rozbrat","spot":"1","number":"9547","bikes":"29","bike_racks":"21","free_racks":"0","terminal_type":"7inch","bike_numbers":"24516,28723,28631,28481,27796,27594,27221,27211,26914,26710,26658,26414,26411,26063,26022,25893,25839,25534,25465,25457,25158,25098,25039,25022,29103,96311,96195,96176,29242","bike_types":{"4":29},"place_type":"0","rack_locks":"1"},{"uid":"2585748","lat":"52.2277124","lng":"21.0442955","name":"Port Czerniakowski","spot":"1","number":"9548","bikes":"11","bike_racks":"30","free_racks":"19","terminal_type":"7inch","bike_numbers":"24663,24637,24529,24522,27520,27380,25837,25363,25041,29248,96584","bike_types":{"4":11},"place_type":"0","rack_locks":"1"},{"uid":"2585749","lat":"52.2109711","lng":"20.9759125","name":"Gr\u00f3jecka - Bitwy Warszawskiej 1920 roku","spot":"1","number":"9549","bikes":"5","bike_racks":"20","free_racks":"14","terminal_type":"7inch","bike_numbers":"24497,24016,27082,27041,28965","bike_types":{"51":1,"26":1,"4":3},"place_type":"0","rack_locks":"1"},{"uid":"2585750","lat":"52.2130296","lng":"20.9819985","name":"Pasteura - Winnicka - UW","spot":"1","number":"9550","bikes":"4","bike_racks":"24","free_racks":"20","terminal_type":"7inch","bike_numbers":"24537,24509,28126,25040","bike_types":{"4":4},"place_type":"0","rack_locks":"1"},{"uid":"2585762","lat":"52.2107722","lng":"20.9847557","name":"Stefana Banacha - UW","spot":"1","number":"9551","bikes":"3","bike_racks":"29","free_racks":"27","terminal_type":"7inch","bike_numbers":"24006,25000,25076","bike_types":{"26":1,"4":2},"place_type":"0","rack_locks":"1"},{"uid":"2585764","lat":"52.212671","lng":"21.003437","name":"Biblioteka Narodowa","spot":"1","number":"9552","bikes":"20","bike_racks":"24","free_racks":"3","terminal_type":"7inch","bike_numbers":"24999,24887,24809,28588,28539,28482,28420,27611,26940,26755,26311,26219,25349,29112,95011,29140,25622,96556,96496,96154","bike_types":{"4":19,"0":1,"26":1},"place_type":"0","rack_locks":"1"},{"uid":"2585766","lat":"52.21691","lng":"21.01997","name":"Marsza\u0142kowska - Litewska","spot":"1","number":"9553","bikes":"2","bike_racks":"15","free_racks":"13","terminal_type":"7inch","bike_numbers":"28495,96177","bike_types":{"4":2},"place_type":"0","rack_locks":"1"},{"uid":"2585770","lat":"52.2083858","lng":"20.9631103","name":"P\u0119tla Szcz\u0119\u015bliwice","spot":"1","number":"9554","bikes":"9","bike_racks":"19","free_racks":"10","terminal_type":"7inch","bike_numbers":"28448,27287,26805,26777,26588,26571,25962,25702,25359","bike_types":{"4":9},"place_type":"0","rack_locks":"1"},{"uid":"2585771","lat":"52.206153650625","lng":"20.970287919044","name":"Dickensa - Geodet\u00f3w","spot":"1","number":"9555","bikes":"15","bike_racks":"16","free_racks":"1","terminal_type":"7inch","bike_numbers":"24908,28732,28317,28099,27216,26983,26592,26368,25890,25533,25283,96575,96553,29171,29158","bike_types":{"4":15},"place_type":"0","rack_locks":"1"},{"uid":"2585772","lat":"52.205361371875","lng":"20.984664559364","name":"\u017bwirki i Wigury - Ksi\u0119cia Trojdena","spot":"1","number":"9556","bikes":"6","bike_racks":"17","free_racks":"11","terminal_type":"7inch","bike_numbers":"28428,27284,26524,26392,96474,96225","bike_types":{"4":6},"place_type":"0","rack_locks":"1"},{"uid":"2585774","lat":"52.205801893754","lng":"20.998928546906","name":"Rakowiecka - \u015aw. A. Boboli","spot":"1","number":"9557","bikes":"14","bike_racks":"17","free_racks":"2","terminal_type":"7inch","bike_numbers":"24589,24495,28659,28022,27812,27696,27477,26816,26642,26358,25446,29362,96427,96333","bike_types":{"4":13,"51":1},"place_type":"0","rack_locks":"1"},{"uid":"2585776","lat":"52.209916","lng":"21.0067794","name":"al. Niepodleg\u0142o\u015bci - Batorego","spot":"1","number":"9558","bikes":"16","bike_racks":"26","free_racks":"17","terminal_type":"7inch","bike_numbers":"24925,24881,24705,28278,28071,28049,27639,27418,27025,26980,26866,25730,25675,25559,29360,96051","bike_types":{"4":16},"place_type":"0","rack_locks":"1"},{"uid":"2585779","lat":"52.2132375","lng":"21.0210568","name":"Plac Unii Lubelskiej","spot":"1","number":"9559","bikes":"1","bike_racks":"24","free_racks":"24","terminal_type":"7inch","bike_numbers":"96046","bike_types":{"4":1},"place_type":"0","rack_locks":"1"},{"uid":"2585781","lat":"52.2027557","lng":"20.9508951","name":"W\u0142odarzewska - Maszynowa","spot":"1","number":"9560","bikes":"24","bike_racks":"18","free_racks":"0","terminal_type":"7inch","bike_numbers":"24750,24717,24496,24465,27988,27965,27794,27743,27635,27070,27032,27008,26997,26886,26771,26601,26352,26257,26102,25767,25067,25625,96202,96576","bike_types":{"4":22,"51":2},"place_type":"0","rack_locks":"1"},{"uid":"2585782","lat":"52.2017647","lng":"20.9820897","name":"Sanocka - Pruszkowska","spot":"1","number":"9561","bikes":"14","bike_racks":"15","free_racks":"1","terminal_type":"7inch","bike_numbers":"28488,27484,27125,26896,26711,26706,26060,25718,25690,25308,25151,29213,96383,96197","bike_types":{"4":14},"place_type":"0","rack_locks":"1"},{"uid":"2585785","lat":"52.1981365","lng":"20.9833717","name":"\u017bwirki i Wigury - Rac\u0142awicka","spot":"1","number":"9562","bikes":"24","bike_racks":"18","free_racks":"0","terminal_type":"7inch","bike_numbers":"28270,28146,28121,28112,28102,28015,27760,27758,27648,27279,26972,26864,26855,26772,26215,26037,25979,25557,25554,25298,29116,29037,28942,28842","bike_types":{"4":24},"place_type":"0","rack_locks":"1"},{"uid":"2585787","lat":"52.20177","lng":"20.99969","name":"Wo\u0142oska - Kulskiego","spot":"1","number":"9563","bikes":"4","bike_racks":"15","free_racks":"9","terminal_type":"7inch","bike_numbers":"27123,27112,26824,26213","bike_types":{"4":4},"place_type":"0","rack_locks":"1"},{"uid":"2585788","lat":"52.2042638","lng":"21.014428","name":"Madali\u0144skiego - Kazimierzowska","spot":"1","number":"9564","bikes":"15","bike_racks":"24","free_racks":"11","terminal_type":"7inch","bike_numbers":"24678,24619,28450,28261,26962,26819,26726,26455,26339,26297,26112,25817,25798,25354,96234","bike_types":{"4":15},"place_type":"0","rack_locks":"1"},{"uid":"2585789","lat":"52.2055175","lng":"21.0231033","name":"Pu\u0142awska - Dworkowa","spot":"1","number":"9565","bikes":"19","bike_racks":"19","free_racks":"0","terminal_type":"7inch","bike_numbers":"28582,28334,28333,27503,27140,27098,27042,26963,26023,25766,25078,29015,28834,63619,96517,96501,96352,96134,29247","bike_types":{"4":19},"place_type":"0","rack_locks":"1"},{"uid":"2585790","lat":"52.2071756","lng":"21.0312643","name":"Belwederska - Gagarina","spot":"1","number":"9566","bikes":"39","bike_racks":"30","free_racks":"0","terminal_type":"7inch","bike_numbers":"24977,24946,24828,24580,24550,28632,28556,28143,27780,27775,27745,27711,27658,27482,27278,27248,27174,27045,27043,26785,26753,26605,26277,26078,25887,25603,25487,25410,25259,25036,28823,28914,28993,63629,96554,96366,96221,29220,96583","bike_types":{"4":39},"place_type":"0","rack_locks":"1"},{"uid":"2585791","lat":"52.2074193","lng":"21.0479621","name":"Czerniakowska - Gagarina","spot":"1","number":"9567","bikes":"48","bike_racks":"25","free_racks":"0","terminal_type":"7inch","bike_numbers":"24697,24613,24551,28719,28674,28573,28562,28472,28289,28253,28216,28135,27865,27699,27625,27534,27452,27235,27180,27165,26973,26752,26730,26516,26506,26502,26501,26425,26345,26059,26042,26039,26025,25747,25653,25353,25321,25300,25273,25260,25256,25195,96017,96513,96314,96279,96193,96151","bike_types":{"4":48},"place_type":"0","rack_locks":"1"},{"uid":"2585794","lat":"52.1938131","lng":"20.9914431","name":"Etiudy Rewolucyjnej - Mi\u0105czy\u0144ska","spot":"1","number":"9568","bikes":"2","bike_racks":"18","free_racks":"16","terminal_type":"7inch","bike_numbers":"24001,27989","bike_types":{"26":1,"4":1},"place_type":"0","rack_locks":"1"},{"uid":"2585799","lat":"52.1994156","lng":"21.0121384","name":"Metro Rac\u0142awicka","spot":"1","number":"9570","bikes":"10","bike_racks":"30","free_racks":"21","terminal_type":"7inch","bike_numbers":"28770,28666,28561,28409,27192,26244,25727,25485,29219,29216","bike_types":{"4":10},"place_type":"0","rack_locks":"1"},{"uid":"2585800","lat":"52.199505","lng":"21.0240975","name":"Pu\u0142awska - Dolna","spot":"1","number":"9571","bikes":"18","bike_racks":"18","free_racks":"0","terminal_type":"7inch","bike_numbers":"24914,24625,28734,28529,28498,27621,26527,26208,25937,25923,25507,25430,25316,25231,25120,25025,28812,96111","bike_types":{"4":18},"place_type":"0","rack_locks":"1"},{"uid":"2585802","lat":"52.2014754","lng":"21.0360047","name":"Sobieskiego - Che\u0142mska","spot":"1","number":"9572","bikes":"28","bike_racks":"15","free_racks":"0","terminal_type":"7inch","bike_numbers":"24969,24675,28703,28524,28431,28380,28336,28220,28028,27587,27536,27445,27266,27229,27210,27126,26694,26564,26547,26435,26091,25849,25720,25564,25551,63623,96292,96222","bike_types":{"4":28},"place_type":"0","rack_locks":"1"},{"uid":"2585804","lat":"52.1998446","lng":"21.05095","name":"Czerniakowska - ZUS","spot":"1","number":"9573","bikes":"17","bike_racks":"15","free_racks":"0","terminal_type":"7inch","bike_numbers":"24552,24506,28724,28436,27797,27429,27428,27133,26902,25379,29003,60815,28979,63608,96215,96117,29208","bike_types":{"4":17},"place_type":"0","rack_locks":"1"},{"uid":"2585807","lat":"52.1916776","lng":"20.8689688","name":"PKP Ursus-Nied\u017awiadek","spot":"1","number":"9574","bikes":"13","bike_racks":"15","free_racks":"2","terminal_type":"7inch","bike_numbers":"28758,28083,27659,27438,27370,26068,25642,25620,25161,96007,96398,96340,29278","bike_types":{"4":13},"place_type":"0","rack_locks":"1"},{"uid":"2585808","lat":"52.1960469","lng":"20.8849347","name":"PKP Ursus","spot":"1","number":"9575","bikes":"14","bike_racks":"16","free_racks":"5","terminal_type":"7inch","bike_numbers":"24862,24744,28514,28487,28287,27784,27388,26954,26143,25833,25380,25011,28825,96172","bike_types":{"4":14},"place_type":"0","rack_locks":"1"},{"uid":"2585809","lat":"52.1869936","lng":"20.8906478","name":"Sosnkowskiego - OSiR Ursus","spot":"1","number":"9576","bikes":"15","bike_racks":"15","free_racks":"0","terminal_type":"7inch","bike_numbers":"24855,24748,24507,24026,27974,27640,26471,25840,25814,25593,25340,25261,25171,25081,29129","bike_types":{"4":13,"26":1,"0":1},"place_type":"0","rack_locks":"1"},{"uid":"2585811","lat":"52.2005548","lng":"20.8937538","name":"Ursus-Ratusz","spot":"1","number":"9577","bikes":"6","bike_racks":"15","free_racks":"9","terminal_type":"7inch","bike_numbers":"28721,28350,25826,25500,25313,96483","bike_types":{"4":6},"place_type":"0","rack_locks":"1"},{"uid":"2585814","lat":"52.1906376","lng":"20.8999443","name":"Skoroszewska - Prystora","spot":"1","number":"9578","bikes":"20","bike_racks":"17","free_racks":"0","terminal_type":"7inch","bike_numbers":"24685,24631,27786,27453,26553,26459,26362,26258,26126,25856,25819,25366,25191,29095,29133,28806,96048,96524,96461,96372","bike_types":{"4":19,"0":1},"place_type":"0","rack_locks":"1"},{"uid":"2585817","lat":"52.1882609","lng":"20.9603771","name":"G\u0142adka - OSiR W\u0142ochy","spot":"1","number":"9579","bikes":"14","bike_racks":"16","free_racks":"2","terminal_type":"7inch","bike_numbers":"24714,24648,28538,28009,27858,27824,27076,26951,25947,25811,25649,25113,29648,96276","bike_types":{"4":14},"place_type":"0","rack_locks":"1"},{"uid":"2585820","lat":"52.2056441","lng":"20.9159142","name":"PKP W\u0142ochy","spot":"1","number":"9580","bikes":"8","bike_racks":"17","free_racks":"12","terminal_type":"7inch","bike_numbers":"28747,28046,27855,27509,27189,25613,29644,28893","bike_types":{"4":8},"place_type":"0","rack_locks":"1"},{"uid":"2585821","lat":"52.2012157","lng":"20.9353145","name":"al. Jerozolimskie - Popularna","spot":"1","number":"9581","bikes":"4","bike_racks":"19","free_racks":"15","terminal_type":"7inch","bike_numbers":"24719,26439,26249,25192","bike_types":{"4":4},"place_type":"0","rack_locks":"1"},{"uid":"2585824","lat":"52.1924709","lng":"20.9596664","name":"W\u0142ochy-Ratusz","spot":"1","number":"9582","bikes":"5","bike_racks":"15","free_racks":"10","terminal_type":"7inch","bike_numbers":"24901,26040,29117,96293,96147","bike_types":{"4":5},"place_type":"0","rack_locks":"1"},{"uid":"2585825","lat":"52.1946888","lng":"20.9667823","name":"1 Sierpnia - DK W\u0142ochy","spot":"1","number":"9583","bikes":"16","bike_racks":"15","free_racks":"0","terminal_type":"7inch","bike_numbers":"24576,28716,28680,27907,27837,27694,27542,26982,26623,26294,25788,25721,25568,29342,96520,29189","bike_types":{"4":16},"place_type":"0","rack_locks":"1"},{"uid":"2585827","lat":"52.1888962","lng":"21.0175887","name":"Metro Wierzbno","spot":"1","number":"9584","bikes":"1","bike_racks":"20","free_racks":"18","terminal_type":"7inch","bike_numbers":"24790","bike_types":{"4":1},"place_type":"0","rack_locks":"1"},{"uid":"2585830","lat":"52.18648","lng":"21.02538","name":"Pu\u0142awska - Idzikowskiego","spot":"1","number":"9585","bikes":"17","bike_racks":"17","free_racks":"1","terminal_type":"7inch","bike_numbers":"24745,28647,27605,27496,26713,26673,26645,26561,26138,26077,26004,25867,28921,96055,96464,29270,29237","bike_types":{"4":17},"place_type":"0","rack_locks":"1"},{"uid":"2585835","lat":"52.1882861","lng":"21.0498825","name":"Sobieskiego - Mangalia","spot":"1","number":"9586","bikes":"18","bike_racks":"15","free_racks":"0","terminal_type":"7inch","bike_numbers":"24927,24776,24642,28587,27742,27295,27293,27227,27218,26876,26729,26401,26280,26248,26195,26133,26008,25373","bike_types":{"4":18},"place_type":"0","rack_locks":"1"},{"uid":"2585837","lat":"52.178777","lng":"21.0016387","name":"Wo\u0142oska - Marynarska","spot":"1","number":"9588","bikes":"0","bike_racks":"26","free_racks":"26","terminal_type":"7inch","place_type":"0","rack_locks":"1","bike_numbers":null,"bike_types":[]},{"uid":"2585838","lat":"52.1800882","lng":"21.0207403","name":"al. Niepodleg\u0142o\u015bci - al. Wilanowska","spot":"1","number":"9589","bikes":"12","bike_racks":"22","free_racks":"10","terminal_type":"7inch","bike_numbers":"28623,28424,27513,27363,27081,26558,26061,26003,25411,29080,96539,96504","bike_types":{"4":12},"place_type":"0","rack_locks":"1"},{"uid":"2585839","lat":"52.1779163","lng":"21.049562","name":"P\u0119tla Stegny","spot":"1","number":"9590","bikes":"22","bike_racks":"23","free_racks":"1","terminal_type":"7inch","bike_numbers":"24827,24700,24691,24628,27616,27431,27381,27253,27179,26206,26104,25932,25710,25418,25371,25168,28857,28877,96043,63601,96423,24054","bike_types":{"4":21,"26":1},"place_type":"0","rack_locks":"1"},{"uid":"2585843","lat":"52.1818472","lng":"21.0562822","name":"Sobieskiego - \u015bw. Bonifacego","spot":"1","number":"9591","bikes":"20","bike_racks":"22","free_racks":"2","terminal_type":"7inch","bike_numbers":"24986,24985,24895,24884,24687,24681,24646,28497,28493,28464,28279,26890,26798,26377,25709,25412,25324,25015,29454,96198","bike_types":{"4":20},"place_type":"0","rack_locks":"1"},{"uid":"2585844","lat":"52.1702836","lng":"20.9959132","name":"P\u0119tla Bokserska","spot":"1","number":"9592","bikes":"9","bike_racks":"15","free_racks":"6","terminal_type":"7inch","bike_numbers":"24979,27075,27034,26071,25758,25708,25155,28956,96343","bike_types":{"4":9},"place_type":"0","rack_locks":"1"},{"uid":"2585846","lat":"52.1710498","lng":"21.0059144","name":"Gintrowskiego - Gotarda","spot":"1","number":"9593","bikes":"21","bike_racks":"15","free_racks":"0","terminal_type":"7inch","bike_numbers":"28551,27752,27479,27232,27220,26705,26323,26113,26105,25978,25748,25734,25686,25681,25679,25461,25102,28861,96052,96363,96090","bike_types":{"4":21},"place_type":"0","rack_locks":"1"},{"uid":"2585848","lat":"52.174435","lng":"21.0128814","name":"al. Lotnik\u00f3w - Kaczmarskiego","spot":"1","number":"9594","bikes":"21","bike_racks":"30","free_racks":"10","terminal_type":"7inch","bike_numbers":"24489,28565,27966,27617,27606,27049,26585,26110,26053,25863,25468,25404,25162,28814,28872,28988,96045,96491,96390,96290,96262","bike_types":{"51":1,"4":20},"place_type":"0","rack_locks":"1"},{"uid":"2585850","lat":"52.1733132","lng":"21.0257305","name":"Metro S\u0142u\u017cew","spot":"1","number":"9595","bikes":"14","bike_racks":"24","free_racks":"10","terminal_type":"7inch","bike_numbers":"24680,24599,24518,28374,27704,26679,26428,26365,26229,25775,25477,29026,28944,96502","bike_types":{"4":14},"place_type":"0","rack_locks":"1"},{"uid":"2585853","lat":"52.17343","lng":"21.03179","name":"Wa\u0142brzyska - Wr\u00f3bla","spot":"1","number":"9596","bikes":"24","bike_racks":"30","free_racks":"6","terminal_type":"7inch","bike_numbers":"24741,24732,24701,24664,28471,28434,27947,27909,27716,27410,27080,26907,26888,26390,26205,25886,25881,25682,25602,96037,96409,96378,96164,29282","bike_types":{"4":24},"place_type":"0","rack_locks":"1"},{"uid":"2585856","lat":"52.170135","lng":"21.0685748","name":"Jana III Sobieskiego - al. Wilanowska","spot":"1","number":"9597","bikes":"9","bike_racks":"15","free_racks":"6","terminal_type":"7inch","bike_numbers":"24476,27065,26565,25149,25019,96467,96395,96086,29172","bike_types":{"51":1,"4":8},"place_type":"0","rack_locks":"1"},{"uid":"2585860","lat":"52.1655879","lng":"21.0839331","name":"al. Wilanowska - Przycz\u00f3\u0142kowa","spot":"1","number":"9598","bikes":"12","bike_racks":"16","free_racks":"5","terminal_type":"7inch","bike_numbers":"28660,28047,27633,26987,26599,26454,26245,25532,60864,63605,96489,96169","bike_types":{"4":11,"0":1},"place_type":"0","rack_locks":"1"},{"uid":"2585863","lat":"52.16479","lng":"21.10925","name":"Vogla - Syta","spot":"1","number":"9599","bikes":"10","bike_racks":"16","free_racks":"6","terminal_type":"7inch","bike_numbers":"25007,27781,27346,27050,26434,25972,25910,25707,25431,25287","bike_types":{"4":10},"place_type":"0","rack_locks":"1"},{"uid":"2585868","lat":"52.1606257","lng":"21.0723245","name":"al. Rzeczypospolitej - Klimczaka","spot":"1","number":"9600","bikes":"17","bike_racks":"16","free_racks":"0","terminal_type":"7inch","bike_numbers":"28743,27510,27457,27139,27106,26616,26418,26065,26011,25733,25691,25664,25314,25297,25056,29456,96261","bike_types":{"4":17},"place_type":"0","rack_locks":"1"},{"uid":"2585871","lat":"52.1569168","lng":"21.0760903","name":"al. Rzeczypospolitej - Branickiego","spot":"1","number":"9601","bikes":"1","bike_racks":"16","free_racks":"15","terminal_type":"7inch","bike_numbers":"27739","bike_types":{"4":1},"place_type":"0","rack_locks":"1"},{"uid":"2585872","lat":"52.1593735","lng":"21.086449","name":"Przycz\u00f3\u0142kowa - Branickiego","spot":"1","number":"9602","bikes":"14","bike_racks":"16","free_racks":"2","terminal_type":"7inch","bike_numbers":"28136,26637,25351,25034,28980,28999,63628,96528,96525,96301,96249,96212,96181,29267","bike_types":{"4":14},"place_type":"0","rack_locks":"1"},{"uid":"2585873","lat":"52.1618136","lng":"21.0277355","name":"Metro Ursyn\u00f3w II","spot":"1","number":"9603","bikes":"12","bike_racks":"30","free_racks":"18","terminal_type":"7inch","bike_numbers":"24606,28696,28069,27768,27415,27247,26146,25541,25401,25154,28855,96512","bike_types":{"4":12},"place_type":"0","rack_locks":"1"},{"uid":"2585875","lat":"52.1622579","lng":"21.0280761","name":"Metro Ursyn\u00f3w I","spot":"1","number":"9604","bikes":"22","bike_racks":"30","free_racks":"8","terminal_type":"7inch","bike_numbers":"24543,28760,28494,28326,28303,28299,28293,27903,27814,27304,27027,26887,26306,25993,25476,29374,63618,63614,96555,96140,96088,29156","bike_types":{"4":22},"place_type":"0","rack_locks":"1"},{"uid":"2585876","lat":"52.162401","lng":"21.0383811","name":"Jastrz\u0119bowskiego - SGGW","spot":"1","number":"9605","bikes":"14","bike_racks":"28","free_racks":"14","terminal_type":"7inch","bike_numbers":"24950,24878,24524,28821,28509,27153,27011,26975,26923,26375,25898,25426,24819,28881","bike_types":{"4":14},"place_type":"0","rack_locks":"1"},{"uid":"2585880","lat":"52.1557534","lng":"21.0232776","name":"Romera - Pieciolinii","spot":"1","number":"9606","bikes":"3","bike_racks":"16","free_racks":"15","terminal_type":"7inch","bike_numbers":"25581,25117,29035","bike_types":{"4":3},"place_type":"0","rack_locks":"1"},{"uid":"2585883","lat":"52.1568674","lng":"21.0338401","name":"Metro Stok\u0142osy","spot":"1","number":"9607","bikes":"23","bike_racks":"27","free_racks":"8","terminal_type":"7inch","bike_numbers":"28887,28817,28599,28048,27862,27667,27655,27556,27205,26426,26351,25770,25462,25416,25223,25174,28940,60842,29554,60863,63606,96312,96105","bike_types":{"4":23},"place_type":"0","rack_locks":"1"},{"uid":"2585885","lat":"52.1572887","lng":"21.0440084","name":"Roso\u0142a - Ciszewskiego - SGGW","spot":"1","number":"9608","bikes":"26","bike_racks":"30","free_racks":"4","terminal_type":"7inch","bike_numbers":"24981,24890,24690,24532,28873,28756,28740,28511,28499,27953,27884,27488,27159,27029,26873,26716,26448,26207,25924,25343,25177,29106,28824,96347,96128,29258","bike_types":{"4":26},"place_type":"0","rack_locks":"1"},{"uid":"2585888","lat":"52.1521429","lng":"21.0181224","name":"Pu\u0142awska - Pileckiego","spot":"1","number":"9609","bikes":"18","bike_racks":"22","free_racks":"4","terminal_type":"7inch","bike_numbers":"28802,28396,28056,27384,27114,27009,26563,26177,26070,25806,25683,25556,25266,25038,28826,28894,96570,96342","bike_types":{"4":18},"place_type":"0","rack_locks":"1"},{"uid":"2585893","lat":"52.1495064","lng":"21.0332527","name":"Ciszewskiego - Pileckiego","spot":"1","number":"9610","bikes":"2","bike_racks":"22","free_racks":"18","terminal_type":"7inch","bike_numbers":"27957,26867","bike_types":{"4":2},"place_type":"0","rack_locks":"1"},{"uid":"2585894","lat":"52.1549453","lng":"21.0492977","name":"Roso\u0142a - Gandhi","spot":"1","number":"9611","bikes":"14","bike_racks":"22","free_racks":"8","terminal_type":"7inch","bike_numbers":"24661,24611,28700,28298,27881,27154,27141,26878,26279,25964,25725,25706,25045,29144","bike_types":{"4":13,"0":1},"place_type":"0","rack_locks":"1"},{"uid":"2585897","lat":"52.1493105","lng":"21.0453361","name":"Metro Imielin","spot":"1","number":"9612","bikes":"7","bike_racks":"22","free_racks":"15","terminal_type":"7inch","bike_numbers":"27184,25942,25645,25244,25204,28910,96146","bike_types":{"4":7},"place_type":"0","rack_locks":"1"},{"uid":"2585899","lat":"52.1522333","lng":"21.0563922","name":"Roso\u0142a - Weso\u0142a","spot":"1","number":"9613","bikes":"6","bike_racks":"23","free_racks":"17","terminal_type":"7inch","bike_numbers":"24677,26246,25173,60836,29141,25628","bike_types":{"4":5,"0":1},"place_type":"0","rack_locks":"1"},{"uid":"2585901","lat":"52.1427201","lng":"21.0383624","name":"Pileckiego - Alternatywy","spot":"1","number":"9614","bikes":"23","bike_racks":"30","free_racks":"7","terminal_type":"7inch","bike_numbers":"24954,24459,28726,28580,28086,28058,27178,26818,26388,26261,26114,26075,25816,25805,25761,25646,25579,25553,28868,96574,96243,96207,96579","bike_types":{"4":22,"51":1},"place_type":"0","rack_locks":"1"},{"uid":"2585902","lat":"52.142735","lng":"21.0448131","name":"Dereniowa - P\u0142askowickiej","spot":"1","number":"9615","bikes":"21","bike_racks":"22","free_racks":"0","terminal_type":"7inch","bike_numbers":"24921,24892,28566,28552,28473,28435,28372,27793,27524,27495,26966,26341,26288,26049,25917,25899,25877,25776,96040,60867,96231","bike_types":{"4":21},"place_type":"0","rack_locks":"1"},{"uid":"2585904","lat":"52.1376039","lng":"21.0505531","name":"Stryje\u0144skich - Belgradzka","spot":"1","number":"9616","bikes":"8","bike_racks":"15","free_racks":"7","terminal_type":"7inch","bike_numbers":"24554,24481,27840,27829,27207,25310,25111,28777","bike_types":{"4":7,"51":1},"place_type":"0","rack_locks":"1"},{"uid":"2585905","lat":"52.1403909","lng":"21.0568187","name":"Metro Natolin","spot":"1","number":"9617","bikes":"16","bike_racks":"30","free_racks":"14","terminal_type":"7inch","bike_numbers":"24798,24683,24031,28689,28134,27622,27506,27446,27379,26928,26507,25892,29053,60854,28800,96415","bike_types":{"4":15,"26":1},"place_type":"0","rack_locks":"1"},{"uid":"2585906","lat":"52.1420749","lng":"21.0659905","name":"Belgradzka - Roso\u0142a","spot":"1","number":"9618","bikes":"24","bike_racks":"23","free_racks":"1","terminal_type":"7inch","bike_numbers":"24942,28675,28626,28453,28005,27993,27970,27842,27631,27443,27425,26469,26369,25931,25731,25269,28854,96428,96388,96334,96307,96304,96158,96144","bike_types":{"4":24},"place_type":"0","rack_locks":"1"},{"uid":"2585908","lat":"52.1314333","lng":"21.0561562","name":"Stryje\u0144skich - W\u0105wozowa","spot":"1","number":"9619","bikes":"15","bike_racks":"23","free_racks":"9","terminal_type":"7inch","bike_numbers":"28068,28027,27351,27223,26612,26499,26407,26266,25873,25737,25252,25178,25050,60855,96184","bike_types":{"4":15},"place_type":"0","rack_locks":"1"},{"uid":"2585911","lat":"52.3326052","lng":"20.9418404","name":"Ordon\u00f3wny - \u015awiatowida","spot":"1","number":"9620","bikes":"20","bike_racks":"22","free_racks":"2","terminal_type":"7inch","bike_numbers":"24856,27895,27847,27787,27705,27579,27476,25865,25489,25483,25197,29077,28950,28938,96481,96434,96297,96239,96236,96185","bike_types":{"4":20},"place_type":"0","rack_locks":"1"},{"uid":"2585913","lat":"52.1310925","lng":"21.0654795","name":"Metro Kabaty","spot":"1","number":"9621","bikes":"21","bike_racks":"22","free_racks":"0","terminal_type":"7inch","bike_numbers":"24853,24032,28368,28367,28345,27880,27831,27251,27059,26831,26702,25699,25575,25519,25233,25114,28828,96022,96245,96237,96174","bike_types":{"4":20,"26":1},"place_type":"0","rack_locks":"1"},{"uid":"2585916","lat":"52.1332642","lng":"21.0747962","name":"W\u0105wozowa - Roso\u0142a","spot":"1","number":"9622","bikes":"19","bike_racks":"18","free_racks":"0","terminal_type":"7inch","bike_numbers":"24038,28361,27981,27975,27695,27366,27135,26584,26468,26168,25757,25728,25254,25104,28871,96571,96205,96188,24046","bike_types":{"26":2,"4":17},"place_type":"0","rack_locks":"1"},{"uid":"2585917","lat":"52.324116","lng":"21.05663","name":"Skarbka z G\u00f3r - Berensona","spot":"1","number":"9623","bikes":"5","bike_racks":"26","free_racks":"22","terminal_type":"7inch","bike_numbers":"28693,28526,27882,96511,96204","bike_types":{"4":5},"place_type":"0","rack_locks":"1"},{"uid":"2585919","lat":"52.3485329","lng":"20.9418336","name":"Aluzyjna - Tr\u0105by","spot":"1","number":"9624","bikes":"13","bike_racks":"16","free_racks":"3","terminal_type":"7inch","bike_numbers":"24896,24569,28591,27806,27158,26620,26472,25807,25609,29461,96531,96401,96337","bike_types":{"4":13},"place_type":"0","rack_locks":"1"},{"uid":"2585920","lat":"52.3226982","lng":"20.9448107","name":"\u015awiatowida - Mehoffera","spot":"1","number":"9625","bikes":"11","bike_racks":"16","free_racks":"4","terminal_type":"7inch","bike_numbers":"24882,24859,27721,27086,26597,26408,26338,26030,96015,96005,29160","bike_types":{"4":11},"place_type":"0","rack_locks":"1"},{"uid":"2585921","lat":"52.3212548","lng":"20.9477347","name":"Bia\u0142o\u0142\u0119cki O\u015brodek Sportu","spot":"1","number":"9626","bikes":"29","bike_racks":"30","free_racks":"1","terminal_type":"7inch","bike_numbers":"24993,24918,24900,24886,24802,24591,28749,28563,27897,27664,27345,27219,26941,26667,26651,26265,26263,25907,25900,25480,25264,29105,28864,28850,96044,96010,96137,29185,96586","bike_types":{"4":29},"place_type":"0","rack_locks":"1"},{"uid":"2585922","lat":"52.3211272","lng":"20.9712964","name":"Bia\u0142o\u0142\u0119ka-Ratusz","spot":"1","number":"9627","bikes":"14","bike_racks":"19","free_racks":"6","terminal_type":"7inch","bike_numbers":"28590,27986,27964,26915,26834,26024,25571,29108,29023,29005,96335,96306,96138,29261","bike_types":{"4":14},"place_type":"0","rack_locks":"1"},{"uid":"2585924","lat":"52.3132981","lng":"20.9655324","name":"My\u015bliborska - al. Kukli\u0144skiego","spot":"1","number":"9628","bikes":"19","bike_racks":"22","free_racks":"4","terminal_type":"7inch","bike_numbers":"24865,24470,28404,28391,28390,28084,27919,27833,27327,27030,27004,26461,26380,26210,26018,25156,25135,28995,96042","bike_types":{"4":18,"51":1},"place_type":"0","rack_locks":"1"},{"uid":"2585925","lat":"52.3031984","lng":"20.9891666","name":"Modli\u0144ska - \u017bera\u0144ska","spot":"1","number":"9629","bikes":"24","bike_racks":"30","free_racks":"6","terminal_type":"7inch","bike_numbers":"24743,28127,27912,27868,27646,27504,26763,26760,26738,26692,26309,26236,26184,25808,25738,25528,25479,25408,29135,96050,96521,96422,96263,96143","bike_types":{"4":23,"0":1},"place_type":"0","rack_locks":"1"},{"uid":"2585926","lat":"52.3150181","lng":"21.0610807","name":"Skarbka z G\u00f3r - Magiczna","spot":"1","number":"9630","bikes":"25","bike_racks":"30","free_racks":"4","terminal_type":"7inch","bike_numbers":"24526,28657,28645,28583,27870,27776,27342,27321,27147,27094,26815,26757,26685,26669,26640,26413,26346,26142,25990,25755,28865,28878,96505,96431,29272","bike_types":{"4":25},"place_type":"0","rack_locks":"1"},{"uid":"2585928","lat":"52.3000268","lng":"21.0425266","name":"P\u0119tla Br\u00f3dno - Podgrodzie","spot":"1","number":"9631","bikes":"17","bike_racks":"20","free_racks":"4","terminal_type":"7inch","bike_numbers":"24939,28686,28624,28120,27927,27916,27681,27354,26744,26709,26699,26086,25294,25127,96484,96322,29209","bike_types":{"4":17},"place_type":"0","rack_locks":"1"},{"uid":"2585929","lat":"52.2939957","lng":"21.0272258","name":"Rembieli\u0144ska - Kondratowicza","spot":"1","number":"9632","bikes":"25","bike_racks":"23","free_racks":"1","terminal_type":"7inch","bike_numbers":"24924,24011,28876,28610,28607,28156,28073,27541,27514,27454,27437,27294,26281,26087,25921,25878,25651,25572,25470,25350,28909,29137,28835,28970,96038","bike_types":{"4":23,"26":1,"0":1},"place_type":"0","rack_locks":"1"},{"uid":"2585931","lat":"52.2917236","lng":"21.0481189","name":"Targ\u00f3wek-Ratusz","spot":"1","number":"9633","bikes":"14","bike_racks":"28","free_racks":"14","terminal_type":"7inch","bike_numbers":"24014,28153,28001,26762,26735,26602,26589,26484,26033,25415,25075,96329,96103,29222","bike_types":{"26":1,"4":13},"place_type":"0","rack_locks":"1"},{"uid":"2585932","lat":"52.292208","lng":"21.0419554","name":"Kondratowicza - Chodecka","spot":"1","number":"9634","bikes":"7","bike_racks":"23","free_racks":"16","terminal_type":"7inch","bike_numbers":"24005,27575,27378,25772,25648,25539,96190","bike_types":{"26":1,"4":6},"place_type":"0","rack_locks":"1"},{"uid":"2585934","lat":"52.2925145","lng":"21.0573949","name":"Kondratowicza - Przy Grodzisku","spot":"1","number":"9635","bikes":"16","bike_racks":"18","free_racks":"2","terminal_type":"7inch","bike_numbers":"24527,28652,28342,28213,27580,27393,27383,26275,26103,25859,25760,25150,29084,28891,96487,96078","bike_types":{"4":16},"place_type":"0","rack_locks":"1"},{"uid":"2585936","lat":"52.2878069","lng":"21.0213829","name":"Wysockiego - Poborza\u0144ska","spot":"1","number":"9636","bikes":"22","bike_racks":"23","free_racks":"2","terminal_type":"7inch","bike_numbers":"24943,28707,28066,28017,27918,27835,27282,27051,27020,26270,26045,25666,25488,25221,25213,25170,25141,29422,96538,96516,96369,96346","bike_types":{"4":22},"place_type":"0","rack_locks":"1"},{"uid":"2585937","lat":"52.2885915","lng":"21.0310087","name":"Rembieli\u0144ska - Wyszogrodzka","spot":"1","number":"9637","bikes":"9","bike_racks":"30","free_racks":"20","terminal_type":"7inch","bike_numbers":"24811,24634,28065,26240,26194,25356,96397,96259,29161","bike_types":{"4":9},"place_type":"0","rack_locks":"1"},{"uid":"2585938","lat":"52.2864841","lng":"21.0401998","name":"Chodecka - \u017buromi\u0144ska","spot":"1","number":"9638","bikes":"19","bike_racks":"15","free_racks":"1","terminal_type":"7inch","bike_numbers":"24813,28688,28627,28533,28209,28142,27677,27549,27077,27017,26453,25243,25180,25124,29047,29039,28967,96351,96182","bike_types":{"4":19},"place_type":"0","rack_locks":"1"},{"uid":"2585939","lat":"52.281231017533","lng":"21.025852560997","name":"Wysockiego - Matki Teresy z Kalkuty","spot":"1","number":"9639","bikes":"21","bike_racks":"17","free_racks":"0","terminal_type":"7inch","bike_numbers":"24949,24754,24688,24630,28819,28775,28300,27344,27300,27225,26970,26841,26756,26678,26581,25768,25146,29034,29443,24498,96131","bike_types":{"4":20,"51":1},"place_type":"0","rack_locks":"1"},{"uid":"2585941","lat":"52.2835693","lng":"21.0720858","name":"Blokowa - DK Zacisze","spot":"1","number":"9640","bikes":"18","bike_racks":"18","free_racks":"0","terminal_type":"7inch","bike_numbers":"24614,28768,28496,27938,27810,27788,27761,27717,27459,26094,25926,25795,25364,29348,96054,96020,96546,29175","bike_types":{"4":18},"place_type":"0","rack_locks":"1"},{"uid":"2585942","lat":"52.276259","lng":"21.0530748","name":"P\u0119tla Targ\u00f3wek","spot":"1","number":"9641","bikes":"26","bike_racks":"22","free_racks":"0","terminal_type":"7inch","bike_numbers":"24972,24916,24655,24534,28417,28305,28081,27360,27119,26872,26791,26720,26491,26335,26285,26250,26214,26009,25946,25941,25125,28907,96478,96353,96156,96084","bike_types":{"4":26},"place_type":"0","rack_locks":"1"},{"uid":"2585943","lat":"52.27139","lng":"21.01566","name":"Jagiello\u0144ska - ALK","spot":"1","number":"9642","bikes":"13","bike_racks":"16","free_racks":"3","terminal_type":"7inch","bike_numbers":"28822,28611,28322,27902,27645,27444,26993,26441,25773,25010,28912,28809,96083","bike_types":{"4":13},"place_type":"0","rack_locks":"1"},{"uid":"2585947","lat":"52.2694683","lng":"21.0499817","name":"Ossowskiego","spot":"1","number":"9644","bikes":"13","bike_racks":"17","free_racks":"4","terminal_type":"7inch","bike_numbers":"28339,28004,27908,27854,27663,26948,26850,26675,26672,26652,25072,96497,96361","bike_types":{"4":13},"place_type":"0","rack_locks":"1"},{"uid":"2585951","lat":"52.272602123161","lng":"21.063210368156","name":"Radzymi\u0144ska -Trocka","spot":"1","number":"9645","bikes":"11","bike_racks":"20","free_racks":"7","terminal_type":"7inch","bike_numbers":"24668,27700,27274,26932,25456,25182,25027,28805,96394,96287,24049","bike_types":{"4":10,"26":1},"place_type":"0","rack_locks":"1"},{"uid":"2585953","lat":"52.27347","lng":"21.07698","name":"Bukowiecka - Zamkowa","spot":"1","number":"9646","bikes":"13","bike_racks":"15","free_racks":"4","terminal_type":"7inch","bike_numbers":"24575,28722,28501,27998,27255,26719,26657,26404,26041,25842,25621,96319,96209","bike_types":{"4":13},"place_type":"0","rack_locks":"1"},{"uid":"2585954","lat":"52.2668885","lng":"21.0585675","name":"Radzymi\u0144ska - Piotra Skargi","spot":"1","number":"9647","bikes":"23","bike_racks":"20","free_racks":"0","terminal_type":"7inch","bike_numbers":"24736,28869,28772,27740,27661,27585,27392,27202,27193,27167,27058,26462,25933,25911,25348,25234,25206,29072,28935,28858,28889,96330,96167","bike_types":{"4":23},"place_type":"0","rack_locks":"1"},{"uid":"2585955","lat":"52.2614369","lng":"21.0155744","name":"Wybrze\u017ce Helskie - ZOO","spot":"1","number":"9648","bikes":"5","bike_racks":"22","free_racks":"17","terminal_type":"7inch","bike_numbers":"26572,25973,25705,25390,96540","bike_types":{"4":5},"place_type":"0","rack_locks":"1"},{"uid":"2585956","lat":"52.2632492","lng":"21.0212231","name":"Rondo Starzy\u0144skiego","spot":"1","number":"9649","bikes":"29","bike_racks":"24","free_racks":"1","terminal_type":"7inch","bike_numbers":"24471,28736,27956,27703,27481,27353,27163,27116,27035,26734,26211,26204,26183,26171,26108,25493,25407,25376,25374,25274,25121,25043,29555,29126,96023,96327,96224,29179,29167","bike_types":{"51":1,"4":27,"0":1},"place_type":"0","rack_locks":"1"},{"uid":"2585958","lat":"52.26421","lng":"21.02618","name":"Darwina - Nusbauma-Hilarowicza","spot":"1","number":"9650","bikes":"11","bike_racks":"21","free_racks":"10","terminal_type":"7inch","bike_numbers":"24022,28461,28330,27259,26895,25598,29357,96544,96535,96162,29205","bike_types":{"26":1,"4":10},"place_type":"0","rack_locks":"1"},{"uid":"2585960","lat":"52.26554","lng":"21.03122","name":"Namys\u0142owska - Darwina","spot":"1","number":"9651","bikes":"15","bike_racks":"15","free_racks":"0","terminal_type":"7inch","bike_numbers":"28560,28458,28378,27922,27613,27546,27530,26766,26745,26088,25838,25831,25716,25099,96192","bike_types":{"4":15},"place_type":"0","rack_locks":"1"},{"uid":"2585961","lat":"52.2690405","lng":"21.0379493","name":"Rondo \u017baba","spot":"1","number":"9652","bikes":"17","bike_racks":"22","free_racks":"8","terminal_type":"7inch","bike_numbers":"24722,24708,24472,25006,28606,27747,27087,26945,26546,26333,25663,25460,25226,29347,29019,96552,24053","bike_types":{"4":15,"51":1,"26":1},"place_type":"0","rack_locks":"1"},{"uid":"2585963","lat":"52.2591682","lng":"21.0262224","name":"Jagiello\u0144ska - Plac Hallera","spot":"1","number":"9653","bikes":"8","bike_racks":"20","free_racks":"12","terminal_type":"7inch","bike_numbers":"28080,27386,27033,25744,25405,25341,29083,96026","bike_types":{"4":8},"place_type":"0","rack_locks":"1"},{"uid":"2585964","lat":"52.2613811","lng":"21.0305437","name":"Plac Hallera - Sawinkowa","spot":"1","number":"9654","bikes":"23","bike_racks":"28","free_racks":"5","terminal_type":"7inch","bike_numbers":"28484,28037,28016,27994,27951,27798,27559,27474,27072,26517,26225,26089,25658,25372,25360,25107,29041,29660,28847,63625,96472,96242,96232","bike_types":{"4":23},"place_type":"0","rack_locks":"1"},{"uid":"2585967","lat":"52.263","lng":"21.03418","name":"Namys\u0142owska - Szymanowskiego","spot":"1","number":"9655","bikes":"11","bike_racks":"16","free_racks":"5","terminal_type":"7inch","bike_numbers":"24607,27396,27152,27096,26861,26617,26079,25490,25088,29090,96358","bike_types":{"4":11},"place_type":"0","rack_locks":"1"},{"uid":"2585968","lat":"52.2538188","lng":"21.0231542","name":"Ratuszowa - ZOO","spot":"1","number":"9656","bikes":"23","bike_racks":"23","free_racks":"0","terminal_type":"7inch","bike_numbers":"24948,24898,24612,24556,25005,27888,27385,27028,26708,26649,26537,26267,26054,25851,25835,25792,25547,25525,25441,25023,29048,28972,29271","bike_types":{"4":23},"place_type":"0","rack_locks":"1"},{"uid":"2585971","lat":"52.256355","lng":"21.029538","name":"Jagiello\u0144ska - Ratuszowa","spot":"1","number":"9657","bikes":"12","bike_racks":"16","free_racks":"4","terminal_type":"7inch","bike_numbers":"24758,28687,27973,27751,27108,26159,26015,25850,25101,28948,29120,29231","bike_types":{"4":11,"0":1},"place_type":"0","rack_locks":"1"},{"uid":"2585972","lat":"52.261449","lng":"21.037614","name":"11 Listopada - Ratuszowa","spot":"1","number":"9658","bikes":"13","bike_racks":"30","free_racks":"17","terminal_type":"7inch","bike_numbers":"24870,24723,28104,27744,27597,27555,27018,26809,26801,26742,26610,26012,96118","bike_types":{"4":13},"place_type":"0","rack_locks":"1"},{"uid":"2585974","lat":"52.263109","lng":"21.0381895","name":"11 listopada - \u015arodkowa","spot":"1","number":"9659","bikes":"9","bike_racks":"18","free_racks":"9","terminal_type":"7inch","bike_numbers":"24778,28441,28021,26955,26732,26722,26344,25257,96419","bike_types":{"4":9},"place_type":"0","rack_locks":"1"},{"uid":"2585975","lat":"52.25839","lng":"21.03537","name":"Stalowa - 11 Listopada","spot":"1","number":"9660","bikes":"19","bike_racks":"24","free_racks":"5","terminal_type":"7inch","bike_numbers":"24907,28542,27757,27634,27411,27146,25965,25736,25577,25567,25398,29097,28952,96399,96362,96315,96299,96233,96124","bike_types":{"4":19},"place_type":"0","rack_locks":"1"},{"uid":"2585978","lat":"52.234791","lng":"21.07905","name":"al. Stan\u00f3w Zjednoczonych - Ostrobramska","spot":"1","number":"9661","bikes":"15","bike_racks":"20","free_racks":"5","terminal_type":"7inch","bike_numbers":"28341,28194,28103,28032,26064,26044,26026,25980,25433,25425,29107,28936,28971,96028,96437","bike_types":{"4":15},"place_type":"0","rack_locks":"1"},{"uid":"2585981","lat":"52.2524758","lng":"21.0303479","name":"Floria\u0144ska - Park Praski","spot":"1","number":"9662","bikes":"9","bike_racks":"23","free_racks":"14","terminal_type":"7inch","bike_numbers":"28050,27803,27493,27024,26466,26066,25453,96240,96189","bike_types":{"4":9},"place_type":"0","rack_locks":"1"},{"uid":"2585982","lat":"52.2549757","lng":"21.0339005","name":"Plac Wile\u0144ski","spot":"1","number":"9663","bikes":"40","bike_racks":"30","free_racks":"0","terminal_type":"7inch","bike_numbers":"24857,24620,24501,28820,28517,28515,28414,28393,28274,28193,27772,27473,27331,27312,27267,27127,27002,26938,26764,26690,26653,26638,26567,26504,26325,26189,26178,26156,26074,25925,25901,25536,25345,25070,28939,29652,96482,96194,96148,29228","bike_types":{"4":40},"place_type":"0","rack_locks":"1"},{"uid":"2585983","lat":"52.2579576","lng":"21.0399804","name":"Wile\u0144ska - Rzeszotarskiej","spot":"1","number":"9664","bikes":"10","bike_racks":"16","free_racks":"6","terminal_type":"7inch","bike_numbers":"24586,28075,27826,27818,26768,26570,26209,25064,96135,29238","bike_types":{"4":10},"place_type":"0","rack_locks":"1"},{"uid":"2585984","lat":"52.2475848","lng":"20.9568001","name":"al. Prymasa Tysi\u0105clecia - Obozowa","spot":"1","number":"9665","bikes":"10","bike_racks":"13","free_racks":"3","terminal_type":"7inch","bike_numbers":"24917,24602,24531,28401,28384,27800,25016,28841,28989,96094","bike_types":{"4":10},"place_type":"0","rack_locks":"1"},{"uid":"2585985","lat":"52.248607","lng":"21.029647","name":"Okrzei - Panie\u0144ska","spot":"1","number":"9666","bikes":"17","bike_racks":"16","free_racks":"0","terminal_type":"7inch","bike_numbers":"24616,28617,28574,28010,27915,27687,27421,27414,27330,27186,26807,25222,29098,29646,96534,96170,24055","bike_types":{"4":16,"26":1},"place_type":"0","rack_locks":"1"},{"uid":"2585987","lat":"52.2506334","lng":"21.0311174","name":"Sierakowskiego - K\u0142opotowskiego","spot":"1","number":"9667","bikes":"17","bike_racks":"25","free_racks":"8","terminal_type":"7inch","bike_numbers":"24820,24730,28275,28114,28030,27397,27275,26974,26701,26633,26543,25966,25943,25696,29143,28843,96166","bike_types":{"4":16,"0":1},"place_type":"0","rack_locks":"1"},{"uid":"2585990","lat":"52.2520876","lng":"21.0381368","name":"Targowa - Z\u0105bkowska","spot":"1","number":"9668","bikes":"16","bike_racks":"18","free_racks":"2","terminal_type":"7inch","bike_numbers":"27995,27980,27828,27376,27301,27228,27161,27005,26920,26686,26451,26127,25676,25660,96441,96127","bike_types":{"4":16},"place_type":"0","rack_locks":"1"},{"uid":"2585992","lat":"52.2544855","lng":"21.0433458","name":"Fabryka W\u00f3dek Koneser","spot":"1","number":"9669","bikes":"24","bike_racks":"25","free_racks":"2","terminal_type":"7inch","bike_numbers":"24920,24814,28683,28553,28520,28077,28054,27540,27372,27362,27262,27241,26874,26714,26554,26530,26508,26222,26166,26117,26076,26007,25159,28924","bike_types":{"4":24},"place_type":"0","rack_locks":"1"},{"uid":"2585994","lat":"52.2559027","lng":"21.0495613","name":"Radzymi\u0144ska - Wiosenna","spot":"1","number":"9670","bikes":"23","bike_racks":"26","free_racks":"5","terminal_type":"7inch","bike_numbers":"24788,24725,24617,28764,28491,27976,27755,27246,27212,27022,26837,26488,26359,26282,25896,25448,28829,96566,96457,96313,96122,29260,29225","bike_types":{"4":23},"place_type":"0","rack_locks":"1"},{"uid":"2585995","lat":"52.25965","lng":"21.0529","name":"Radzymi\u0144ska - \u0141om\u017cy\u0144ska","spot":"1","number":"9671","bikes":"11","bike_racks":"24","free_racks":"13","terminal_type":"7inch","bike_numbers":"24861,24770,24734,28892,28362,27343,27217,26232,25853,25327,28933","bike_types":{"4":11},"place_type":"0","rack_locks":"1"},{"uid":"2585996","lat":"52.2583512","lng":"21.0585337","name":"P\u0119tla Kaw\u0119czy\u0144ska-Bazylika","spot":"1","number":"9672","bikes":"13","bike_racks":"26","free_racks":"13","terminal_type":"7inch","bike_numbers":"24796,27813,27268,27137,26474,25802,25284,25097,29436,29551,96281,96186,96116","bike_types":{"4":13},"place_type":"0","rack_locks":"1"},{"uid":"2585997","lat":"52.249864871462","lng":"21.042911410332","name":"Targowa - Kijowska","spot":"1","number":"9673","bikes":"14","bike_racks":"18","free_racks":"4","terminal_type":"7inch","bike_numbers":"28527,27799,27720,27550,26780,26343,25563,25512,25148,25129,25046,29104,28913,29281","bike_types":{"4":14},"place_type":"0","rack_locks":"1"},{"uid":"2586000","lat":"52.252745","lng":"21.0510331","name":"Dworzec Wschodni - Kijowska","spot":"1","number":"9674","bikes":"36","bike_racks":"27","free_racks":"0","terminal_type":"7inch","bike_numbers":"24893,24844,24832,24766,24666,24640,25008,28702,28598,28432,28411,28053,27934,27764,27731,27683,27608,27441,27394,27156,27068,27026,26926,26545,26315,26016,25998,25855,25570,25474,29030,96568,96477,96386,29245,29227","bike_types":{"4":36},"place_type":"0","rack_locks":"1"},{"uid":"2586001","lat":"52.247314","lng":"21.042731","name":"Metro Stadion Narodowy","spot":"1","number":"9675","bikes":"3","bike_racks":"15","free_racks":"13","terminal_type":"7inch","bike_numbers":"24768,27155,26295","bike_types":{"4":3},"place_type":"0","rack_locks":"1"},{"uid":"2586003","lat":"52.2472308","lng":"21.0476456","name":"al. Zieleniecka - Teatr Powszechny","spot":"1","number":"9676","bikes":"8","bike_racks":"14","free_racks":"5","terminal_type":"7inch","bike_numbers":"24009,28477,27424,26622,26167,26048,29102,96519","bike_types":{"26":1,"4":7},"place_type":"0","rack_locks":"1"},{"uid":"2586005","lat":"52.247136","lng":"21.056658","name":"Grochowska - Mi\u0144ska","spot":"1","number":"9677","bikes":"24","bike_racks":"30","free_racks":"5","terminal_type":"7inch","bike_numbers":"24761,24615,28503,28082,27652,27260,27222,26427,26399,26192,25913,25876,25824,25746,25452,25126,25105,29081,29056,29123,29139,25958,29168,29204","bike_types":{"4":22,"0":2},"place_type":"0","rack_locks":"1"},{"uid":"2586009","lat":"52.2464","lng":"21.06868","name":"Praga-Po\u0142udnie-Ratusz","spot":"1","number":"9678","bikes":"10","bike_racks":"15","free_racks":"5","terminal_type":"7inch","bike_numbers":"28646,27673,26781,26118,25495,25475,28958,96201,96173,29207","bike_types":{"4":10},"place_type":"0","rack_locks":"1"},{"uid":"2586011","lat":"52.2501129","lng":"21.0772011","name":"Dwernickiego - Siennicka","spot":"1","number":"9679","bikes":"17","bike_racks":"25","free_racks":"11","terminal_type":"7inch","bike_numbers":"24779,24539,28697,27785,26696,26583,25969,25836,25703,25587,25394,25299,25199,29033,96548,96400,29249","bike_types":{"4":17},"place_type":"0","rack_locks":"1"},{"uid":"2586012","lat":"52.260428882956","lng":"21.041538119316","name":"Stalowa - Czynszowa","spot":"1","number":"9680","bikes":"16","bike_racks":"15","free_racks":"0","terminal_type":"7inch","bike_numbers":"24737,24559,24019,28310,28304,28018,27801,27519,26921,26109,25985,25882,29200,29127,29124,96387","bike_types":{"4":13,"26":1,"0":2},"place_type":"0","rack_locks":"1"},{"uid":"2586014","lat":"52.2372419","lng":"21.0437644","name":"Wybrze\u017ce Szczeci\u0144skie - Stadion Narodowy","spot":"1","number":"9681","bikes":"20","bike_racks":"23","free_racks":"5","terminal_type":"7inch","bike_numbers":"28531,28373,28297,28212,28144,27706,27371,27272,27270,27100,26842,26802,26790,26538,25751,25591,25473,29350,28981,96418","bike_types":{"4":20},"place_type":"0","rack_locks":"1"},{"uid":"2586018","lat":"52.2387103","lng":"21.0507515","name":"Rondo Waszyngtona - Stadion Narodowy","spot":"1","number":"9682","bikes":"12","bike_racks":"27","free_racks":"15","terminal_type":"7inch","bike_numbers":"24731,24665,28584,28192,27092,26875,26361,26179,25535,25334,25331,29146","bike_types":{"4":11,"0":1},"place_type":"0","rack_locks":"1"},{"uid":"2586019","lat":"52.242281006874","lng":"21.071160435677","name":"Waszyngtona - Kinowa","spot":"1","number":"9683","bikes":"10","bike_racks":"15","free_racks":"6","terminal_type":"7inch","bike_numbers":"24662,28363,27194,27130,26360,26331,25749,29656,29187,29236","bike_types":{"4":10},"place_type":"0","rack_locks":"1"},{"uid":"2586021","lat":"52.2445639","lng":"21.0838057","name":"Rondo Wiatraczna","spot":"1","number":"9684","bikes":"44","bike_racks":"30","free_racks":"0","terminal_type":"7inch","bike_numbers":"24706,24644,28630,28369,28290,28140,28130,28100,28002,27914,27883,27827,27713,27632,27569,27511,27463,27403,27302,27296,27276,27164,26883,26827,26424,26313,26264,26161,26014,25607,25594,25355,25216,25176,29119,96558,96533,96440,96356,96191,96171,96120,29190,29149","bike_types":{"4":44},"place_type":"0","rack_locks":"1"},{"uid":"2586022","lat":"52.2347451","lng":"21.053651","name":"Francuska - Walecznych","spot":"1","number":"9685","bikes":"13","bike_racks":"15","free_racks":"2","terminal_type":"7inch","bike_numbers":"24694,28351,28072,27733,27574,27505,26594,26579,26197,25610,29349,28954,96565","bike_types":{"4":13},"place_type":"0","rack_locks":"1"},{"uid":"2586024","lat":"52.236598","lng":"21.064774","name":"Mi\u0119dzynarodowa - Walecznych","spot":"1","number":"9686","bikes":"17","bike_racks":"15","free_racks":"1","terminal_type":"7inch","bike_numbers":"24967,24740,24490,28355,28286,28115,26052,25735,25338,29064,29043,28916,60850,29364,29125,96509,96155","bike_types":{"4":15,"51":1,"0":1},"place_type":"0","rack_locks":"1"},{"uid":"2586026","lat":"52.243020071904","lng":"21.102375984192","name":"Plac Szembeka","spot":"1","number":"9687","bikes":"20","bike_racks":"15","free_racks":"0","terminal_type":"7inch","bike_numbers":"24974,24669,24623,28418,28152,27491,27361,27213,27044,26964,26839,25694,25279,25200,25160,25047,28951,28918,96405,96203","bike_types":{"4":20},"place_type":"0","rack_locks":"1"},{"uid":"2586028","lat":"52.237559","lng":"21.120087","name":"P\u0119tla Goc\u0142awek","spot":"1","number":"9688","bikes":"6","bike_racks":"16","free_racks":"9","terminal_type":"7inch","bike_numbers":"24582,27709,27088,27056,29115,29113","bike_types":{"4":6},"place_type":"0","rack_locks":"1"},{"uid":"2586030","lat":"52.2258359","lng":"21.0600907","name":"Brukselska - PROM","spot":"1","number":"9689","bikes":"20","bike_racks":"15","free_racks":"0","terminal_type":"7inch","bike_numbers":"24992,28447,28116,27859,27789,27674,27589,27577,27368,27314,27031,26423,26051,25586,25524,25481,25438,25385,96013,63603","bike_types":{"4":20},"place_type":"0","rack_locks":"1"},{"uid":"2586031","lat":"52.260205610017","lng":"21.046854257584","name":"al. Solidarno\u015bci - Szwedzka","spot":"1","number":"9690","bikes":"10","bike_racks":"18","free_racks":"8","terminal_type":"7inch","bike_numbers":"28774,28656,28578,26996,26693,26354,25918,25793,28986,96041","bike_types":{"4":10},"place_type":"0","rack_locks":"1"},{"uid":"2586032","lat":"52.230088","lng":"21.067948","name":"al. Stan\u00f3w Zjednoczonych - Mi\u0119dzynarodowa","spot":"1","number":"9691","bikes":"12","bike_racks":"26","free_racks":"16","terminal_type":"7inch","bike_numbers":"24873,28717,28119,27961,27932,26217,25688,25296,25188,25186,25095,29038","bike_types":{"4":12},"place_type":"0","rack_locks":"1"},{"uid":"2586034","lat":"52.23483","lng":"21.09975","name":"Ostrobramska - Zamieniecka","spot":"1","number":"9692","bikes":"16","bike_racks":"23","free_racks":"6","terminal_type":"7inch","bike_numbers":"27770,27615,27464,27422,27201,26910,26817,26520,26292,26122,25513,25378,25238,28798,96500,96360","bike_types":{"4":16},"place_type":"0","rack_locks":"1"},{"uid":"2586037","lat":"52.2251969","lng":"21.0712892","name":"Afryka\u0144ska - Egipska","spot":"1","number":"9693","bikes":"16","bike_racks":"16","free_racks":"3","terminal_type":"7inch","bike_numbers":"28715,28389,28366,27584,27382,27237,26355,26067,25847,25650,25641,25639,25464,25295,25110,96211","bike_types":{"4":16},"place_type":"0","rack_locks":"1"},{"uid":"2586039","lat":"52.22837","lng":"21.08581","name":"Abrahama - Kapelan\u00f3w AK","spot":"1","number":"9694","bikes":"12","bike_racks":"15","free_racks":"3","terminal_type":"7inch","bike_numbers":"24911,24818,24793,24541,28352,27763,26598,26203,25605,25217,28845,63613","bike_types":{"4":12},"place_type":"0","rack_locks":"1"},{"uid":"2586042","lat":"52.2296088","lng":"21.0945572","name":"Fieldorfa - Bukowskiego","spot":"1","number":"9695","bikes":"12","bike_racks":"20","free_racks":"10","terminal_type":"7inch","bike_numbers":"24952,24577,24517,27889,27498,27143,27099,25496,25419,28884,96108,29243","bike_types":{"4":12},"place_type":"0","rack_locks":"1"},