[{"region_info":{"lat":"52.2345","lng":"21.0024","zoom":"11","name":"VETURILO Poland","hotline":"+4819115","domain":"vp","country":"PL","country_name":"Poland","terms":"http:\/\/www.veturilo.waw.pl\/terms\/?v=201701","policy":"","website":"http:\/\/www.veturilo.waw.pl\/","show_free_racks":"1","booked_bikes":"0","set_point_bikes":"5278","available_bikes":"4615"},"places_summary":{"lngMin":20.8689688,"lngMax":21.120087,"latMin":52.117285,"latMax":52.3485329,"lngAvg":21.007806372598,"latAvg":52.230618632679},"places":[{"uid":"2585259","lat":"52.296298","lng":"20.9583575","name":"Dewajtis - UKSW","spot":"1","number":"9402","bikes":"37","bike_racks":"30","free_racks":"9","terminal_type":"7inch","bike_numbers":"24907,24846,24724,24715,24682,24648,24574,24543,24513,28901,28645,28620,28478,28401,27966,27540,27217,26968,26632,26591,26338,26294,26278,25927,25848,25734,25544,25461,25460,25394,29088,28958,29428,96170,96153,29188,96584","bike_types":{"4":37},"place_type":"0","rack_locks":"1"},{"uid":"2585263","lat":"52.2909738","lng":"20.9295559","name":"Metro M\u0142ociny","spot":"1","number":"9403","bikes":"16","bike_racks":"30","free_racks":"15","terminal_type":"7inch","bike_numbers":"24036,28707,28483,28395,27548,27537,27465,27143,27098,26696,26579,25400,25625,96531,29162,29211","bike_types":{"54":1,"4":15},"place_type":"0","rack_locks":"1"},{"uid":"2585265","lat":"52.2901732","lng":"20.9503698","name":"Marymoncka - Dewajtis","spot":"1","number":"9404","bikes":"11","bike_racks":"30","free_racks":"17","terminal_type":"7inch","bike_numbers":"24847,24714,24509,28370,27849,26649,26242,25070,29010,28911,96350","bike_types":{"4":11},"place_type":"0","rack_locks":"1"},{"uid":"2585267","lat":"52.285914","lng":"20.940561","name":"Metro Wawrzyszew","spot":"1","number":"9405","bikes":"11","bike_racks":"20","free_racks":"8","terminal_type":"7inch","bike_numbers":"28634,28539,28065,27929,27768,27151,27145,26563,25727,25271,29128","bike_types":{"4":10,"0":1},"place_type":"0","rack_locks":"1"},{"uid":"2585269","lat":"52.2336142","lng":"21.0146353","name":"G\u00f3rskiego - Szpitalna","spot":"1","number":"9406","bikes":"2","bike_racks":"16","free_racks":"14","terminal_type":"7inch","bike_numbers":"28319,29163","bike_types":{"4":2},"place_type":"0","rack_locks":"1"},{"uid":"2585271","lat":"52.2816265","lng":"20.9498871","name":"Metro Stare Bielany","spot":"1","number":"9407","bikes":"17","bike_racks":"30","free_racks":"14","terminal_type":"7inch","bike_numbers":"24730,24024,28743,28073,28007,27327,27245,27119,27038,25468,28919,28871,96546,96375,96263,96227,29173","bike_types":{"4":16,"26":1},"place_type":"0","rack_locks":"1"},{"uid":"2585272","lat":"52.2361217","lng":"21.0219096","name":"Ordynacka - Uniwersytet Muzyczny","spot":"1","number":"9408","bikes":"12","bike_racks":"20","free_racks":"8","terminal_type":"7inch","bike_numbers":"28654,28610,28011,27140,26944,25911,25854,96009,96003,96461,96244,96109","bike_types":{"4":12},"place_type":"0","rack_locks":"1"},{"uid":"2585273","lat":"52.2768774","lng":"20.9481302","name":"Bielany-Ratusz","spot":"1","number":"9409","bikes":"9","bike_racks":"28","free_racks":"19","terminal_type":"7inch","bike_numbers":"24783,27990,27801,27480,27092,26539,25399,25358,96047","bike_types":{"4":9},"place_type":"0","rack_locks":"1"},{"uid":"2585275","lat":"52.2761569","lng":"20.9616673","name":"Metro S\u0142odowiec","spot":"1","number":"9410","bikes":"19","bike_racks":"30","free_racks":"11","terminal_type":"7inch","bike_numbers":"24843,28680,27514,27509,27350,27296,27110,27080,27008,26536,26475,26363,25551,25407,25191,96458,96374,96340,96337","bike_types":{"4":19},"place_type":"0","rack_locks":"1"},{"uid":"2585278","lat":"52.2777751","lng":"20.9856999","name":"Potocka - OSiR \u017boliborz","spot":"1","number":"9411","bikes":"9","bike_racks":"15","free_racks":"7","terminal_type":"7inch","bike_numbers":"24731,24553,24523,28759,27128,26238,25925,25738,96013","bike_types":{"4":9},"place_type":"0","rack_locks":"1"},{"uid":"2585280","lat":"52.273527782989","lng":"20.994186401367","name":"Gwia\u017adzista - Promyka","spot":"1","number":"9412","bikes":"8","bike_racks":"16","free_racks":"9","terminal_type":"7inch","bike_numbers":"24746,24538,27678,26466,26030,25477,96497,29249","bike_types":{"4":8},"place_type":"0","rack_locks":"1"},{"uid":"2585281","lat":"52.270941","lng":"20.9326269","name":"al. Reymonta - Conrada","spot":"1","number":"9413","bikes":"38","bike_racks":"30","free_racks":"1","terminal_type":"7inch","bike_numbers":"24930,24824,28601,28577,28486,28268,28138,28133,27955,27887,27661,27468,27396,27273,27132,26977,26774,26377,26361,26098,25991,25884,25869,25724,25634,25614,25609,25484,25235,25142,25961,28976,96514,96305,96293,96090,29152,29239","bike_types":{"4":38},"place_type":"0","rack_locks":"1"},{"uid":"2585283","lat":"52.2706441","lng":"20.9504181","name":"Broniewskiego - Perzy\u0144skiego","spot":"1","number":"9414","bikes":"21","bike_racks":"16","free_racks":"0","terminal_type":"7inch","bike_numbers":"24664,24026,24004,28757,28510,28363,28270,28213,27715,27671,27348,26999,26734,26135,25897,25322,29061,96496,96386,96332,96172","bike_types":{"4":19,"26":2},"place_type":"0","rack_locks":"1"},{"uid":"2585284","lat":"52.2714203","lng":"20.9727099","name":"Metro Marymont","spot":"1","number":"9415","bikes":"18","bike_racks":"30","free_racks":"6","terminal_type":"7inch","bike_numbers":"24931,24891,24690,27828,27810,27656,27284,27123,26927,26465,26259,25714,29026,29434,28962,96460,96406,96222","bike_types":{"4":18},"place_type":"0","rack_locks":"1"},{"uid":"2585285","lat":"52.2694081","lng":"20.9833664","name":"Metro Plac Wilsona","spot":"1","number":"9416","bikes":"15","bike_racks":"21","free_racks":"5","terminal_type":"7inch","bike_numbers":"24638,28737,28037,27944,27523,27386,27074,26971,26887,26758,25619,96307,96225,96163,96123","bike_types":{"4":15},"place_type":"0","rack_locks":"1"},{"uid":"2585286","lat":"52.2668623","lng":"20.9637032","name":"Broniewskiego - W\u0142o\u015bcia\u0144ska","spot":"1","number":"9417","bikes":"26","bike_racks":"19","free_racks":"0","terminal_type":"7inch","bike_numbers":"24927,24681,24536,24530,28633,28208,27703,27550,27419,27164,27104,26283,26270,26127,26011,25816,25568,25409,25230,29444,29448,96418,96160,96112,29161,96585","bike_types":{"4":26},"place_type":"0","rack_locks":"1"},{"uid":"2585288","lat":"52.2643984","lng":"20.9723179","name":"Broniewskiego - Krasi\u0144skiego","spot":"1","number":"9418","bikes":"18","bike_racks":"16","free_racks":"1","maintenance":"1","terminal_type":"7inch","bike_numbers":"24740,24660,28425,28332,28001,27524,27511,26603,26513,26470,26181,25955,25638,25364,25243,29040,29039,96214","bike_types":{"4":18},"place_type":"0","rack_locks":"1"},{"uid":"2585289","lat":"52.267875","lng":"21.0020667","name":"Wybrze\u017ce Gdy\u0144skie - KS Sp\u00f3jnia","spot":"1","number":"9419","bikes":"13","bike_racks":"15","free_racks":"2","terminal_type":"7inch","bike_numbers":"24966,24639,28533,28079,27686,27673,26912,26798,26199,29065,29127,29154,29228","bike_types":{"4":12,"0":1},"place_type":"0","rack_locks":"1"},{"uid":"2585291","lat":"52.2624054","lng":"20.9802551","name":"Plac Grunwaldzki","spot":"1","number":"9420","bikes":"14","bike_racks":"30","free_racks":"14","terminal_type":"7inch","bike_numbers":"24826,24643,24541,27380,27333,27214,26946,26451,25258,25176,25080,29352,96393,96131","bike_types":{"4":14},"place_type":"0","rack_locks":"1"},{"uid":"2585296","lat":"52.2612575","lng":"20.9863191","name":"Zaj\u0105czka - Bitwy Pod Rokitn\u0105","spot":"1","number":"9421","bikes":"13","bike_racks":"15","free_racks":"0","terminal_type":"7inch","bike_numbers":"24758,24015,27390,26564,26492,25899,25408,25404,25239,25237,28827,96001,96352","bike_types":{"4":12,"26":1},"place_type":"0","rack_locks":"1"},{"uid":"2585297","lat":"52.2645018","lng":"20.9895998","name":"Plac Inwalid\u00f3w","spot":"1","number":"9422","bikes":"10","bike_racks":"15","free_racks":"5","terminal_type":"7inch","bike_numbers":"27956,27844,27543,26668,26427,26336,25755,29123,96150,96578","bike_types":{"4":9,"0":1},"place_type":"0","rack_locks":"1"},{"uid":"2585299","lat":"52.258245356688","lng":"20.898613929749","name":"P\u0119tla Stare Bemowo","spot":"1","number":"9423","bikes":"17","bike_racks":"21","free_racks":"4","terminal_type":"7inch","bike_numbers":"24764,24694,28768,28462,28418,27683,27250,26380,25931,25566,25428,25171,25034,28810,28833,96035,96247","bike_types":{"4":17},"place_type":"0","rack_locks":"1"},{"uid":"2585301","lat":"52.260895125763","lng":"20.923923254013","name":"P\u0119tla Nowe Bemowo","spot":"1","number":"9424","bikes":"24","bike_racks":"25","free_racks":"2","terminal_type":"7inch","bike_numbers":"24790,28282,28260,28149,28147,27356,26955,26786,26773,26477,26449,26290,25220,28935,28934,96008,96504,96321,96314,96233,96206,96122,96110,29205","bike_types":{"4":24},"place_type":"0","rack_locks":"1"},{"uid":"2585304","lat":"52.2575903","lng":"20.9323374","name":"Obro\u0144c\u00f3w Tobruku - Pieni\u0105\u017cka","spot":"1","number":"9425","bikes":"11","bike_racks":"12","free_racks":"1","terminal_type":"7inch","bike_numbers":"24485,27231,26872,26007,26000,25293,25112,25081,28915,96354,96152","bike_types":{"51":1,"4":10},"place_type":"0","rack_locks":"1"},{"uid":"2585305","lat":"52.2593225","lng":"20.9605511","name":"Pow\u0105zkowska - Krasi\u0144skiego","spot":"1","number":"9426","bikes":"21","bike_racks":"23","free_racks":"0","terminal_type":"7inch","bike_numbers":"24944,24924,24906,24652,24486,28358,28324,28210,27690,27639,27486,27309,27306,25864,25278,25259,29013,28776,96031,96311,96298","bike_types":{"4":20,"51":1},"place_type":"0","rack_locks":"1"},{"uid":"2585306","lat":"52.2563145","lng":"20.9682307","name":"Pow\u0105zkowska - Plac Niemena","spot":"1","number":"9427","bikes":"10","bike_racks":"16","free_racks":"5","terminal_type":"7inch","bike_numbers":"28717,28663,27254,26888,26691,25971,29023,28861,96553,96434","bike_types":{"4":10},"place_type":"0","rack_locks":"1"},{"uid":"2585307","lat":"52.258524460024","lng":"20.970931649208","name":"Przasnyska - Rydygiera","spot":"1","number":"9428","bikes":"25","bike_racks":"15","free_racks":"1","terminal_type":"7inch","bike_numbers":"24684,24557,24506,28801,28589,28565,28535,28069,27989,27824,27802,27086,26868,26610,26508,26264,26216,25520,25416,25308,25280,29087,29076,29007,28834","bike_types":{"4":25},"place_type":"0","rack_locks":"1"},{"uid":"2585308","lat":"52.253594","lng":"20.9798744","name":"Pow\u0105zkowska - Burakowska","spot":"1","number":"9429","bikes":"13","bike_racks":"20","free_racks":"7","terminal_type":"7inch","bike_numbers":"28570,28130,27274,27072,26829,26532,26083,25804,25660,25339,25134,25104,96209","bike_types":{"4":13},"place_type":"0","rack_locks":"1"},{"uid":"2585311","lat":"52.2576018","lng":"20.9944975","name":"Metro Dworzec Gda\u0144ski","spot":"1","number":"9430","bikes":"19","bike_racks":"30","free_racks":"17","terminal_type":"7inch","bike_numbers":"24870,24805,28819,28727,28723,28593,27500,27235,26926,26833,26736,26717,26533,26435,26401,29338,29054,28993,29190","bike_types":{"4":19},"place_type":"0","rack_locks":"1"},{"uid":"2585315","lat":"52.2465952","lng":"20.9429216","name":"Obozowa - Cio\u0142ka","spot":"1","number":"9432","bikes":"10","bike_racks":"13","free_racks":"3","terminal_type":"7inch","bike_numbers":"24970,24813,28413,27948,27792,27600,27439,26559,26543,25152","bike_types":{"4":10},"place_type":"0","rack_locks":"1"},{"uid":"2585317","lat":"52.227621983552","lng":"20.956758856773","name":"al. Prymasa Tysi\u0105clecia - Kasprzaka","spot":"1","number":"9433","bikes":"24","bike_racks":"23","free_racks":"0","terminal_type":"7inch","bike_numbers":"28476,28457,28329,28296,27765,27055,26945,26876,26780,26776,26675,26299,26142,26099,25369,25340,25294,25188,28944,28828,96421,96362,96236,96136","bike_types":{"4":24},"place_type":"0","rack_locks":"1"},{"uid":"2585319","lat":"52.246037","lng":"20.962463","name":"Obozowa - Radziwie","spot":"1","number":"9434","bikes":"14","bike_racks":"13","free_racks":"0","terminal_type":"7inch","bike_numbers":"24020,24006,28728,28220,27840,27597,27004,26973,26045,25976,25611,28969,28991,96220","bike_types":{"26":2,"4":12},"place_type":"0","rack_locks":"1"},{"uid":"2585321","lat":"52.2514708","lng":"20.9857053","name":"al. Jana Paw\u0142a II - Stawki","spot":"1","number":"9435","bikes":"13","bike_racks":"23","free_racks":"10","terminal_type":"7inch","bike_numbers":"24625,24616,27641,27247,27135,26586,26463,25676,25427,25227,25189,25085,29241","bike_types":{"4":13},"place_type":"0","rack_locks":"1"},{"uid":"2585323","lat":"52.2535305","lng":"20.9924922","name":"Stawki - Dubois","spot":"1","number":"9436","bikes":"4","bike_racks":"13","free_racks":"8","terminal_type":"7inch","bike_numbers":"26562,26246,26118,29140","bike_types":{"4":3,"0":1},"place_type":"0","rack_locks":"1"},{"uid":"2585326","lat":"52.2541702","lng":"20.9980649","name":"Andersa - Muranowska","spot":"1","number":"9437","bikes":"8","bike_racks":"30","free_racks":"22","terminal_type":"7inch","bike_numbers":"24671,24668,28653,26079,96533,96176,29174,29276","bike_types":{"4":8},"place_type":"0","rack_locks":"1"},{"uid":"2585327","lat":"52.255877","lng":"21.0099819","name":"Sanguszki - Wybrze\u017ce Gda\u0144skie","spot":"1","number":"9438","bikes":"26","bike_racks":"28","free_racks":"8","terminal_type":"7inch","bike_numbers":"24980,24865,24864,24848,24774,24666,28602,28285,27977,27841,27108,26785,26751,26686,26455,25785,25719,25530,25253,29348,29449,28856,28850,96571,96540,29274","bike_types":{"4":26},"place_type":"0","rack_locks":"1"},{"uid":"2585330","lat":"52.24418","lng":"20.97794","name":"Okopowa - Anielewicza","spot":"1","number":"9440","bikes":"10","bike_racks":"20","free_racks":"10","terminal_type":"7inch","bike_numbers":"24976,24898,24747,24584,24526,28444,28438,27547,26809,26701","bike_types":{"4":10},"place_type":"0","rack_locks":"1"},{"uid":"2585333","lat":"52.2486","lng":"20.98352","name":"Smocza - Mi\u0142a","spot":"1","number":"9441","bikes":"10","bike_racks":"15","free_racks":"5","terminal_type":"7inch","bike_numbers":"24831,24019,24001,28116,27723,27635,27375,26839,25159,96268","bike_types":{"4":8,"26":2},"place_type":"0","rack_locks":"1"},{"uid":"2585334","lat":"52.24616","lng":"20.98538","name":"Smocza - Anielewicza","spot":"1","number":"9442","bikes":"6","bike_racks":"17","free_racks":"10","terminal_type":"7inch","bike_numbers":"27470,27443,26864,25585,25128,96411","bike_types":{"4":6},"place_type":"0","rack_locks":"1"},{"uid":"2585335","lat":"52.247226","lng":"20.9893155","name":"al. Jana Paw\u0142a II - Anielewicza","spot":"1","number":"9443","bikes":"10","bike_racks":"22","free_racks":"12","terminal_type":"7inch","bike_numbers":"28710,28504,27918,27010,26527,26046,29112,29435,96566,96506","bike_types":{"4":10},"place_type":"0","rack_locks":"1"},{"uid":"2585337","lat":"52.249052","lng":"20.9948923","name":"Anielewicza - Zamenhofa","spot":"1","number":"9444","bikes":"15","bike_racks":"15","free_racks":"0","terminal_type":"7inch","bike_numbers":"24592,28599,28548,27606,27432,27068,26980,26925,26618,26094,25405,25290,28857,96019,96427","bike_types":{"4":15},"place_type":"0","rack_locks":"1"},{"uid":"2585338","lat":"52.2492196","lng":"20.9971878","name":"Anielewicza - Andersa","spot":"1","number":"9445","bikes":"6","bike_racks":"20","free_racks":"12","terminal_type":"7inch","bike_numbers":"28691,27921,27451,26503,25039,96554","bike_types":{"4":6},"place_type":"0","rack_locks":"1"},{"uid":"2585340","lat":"52.251549","lng":"21.002749","name":"Bonifraterska - Franciszka\u0144ska","spot":"1","number":"9446","bikes":"9","bike_racks":"16","free_racks":"6","terminal_type":"7inch","bike_numbers":"28030,26480,25572,25464,25424,25309,25029,29043,96463","bike_types":{"4":9},"place_type":"0","rack_locks":"1"},{"uid":"2585342","lat":"52.2541119","lng":"21.0093342","name":"Ko\u015bcielna - Piesza","spot":"1","number":"9448","bikes":"12","bike_racks":"26","free_racks":"16","terminal_type":"7inch","bike_numbers":"24623,28754,27706,27109,26879,26428,26413,26353,25082,29122,96200,29258","bike_types":{"4":11,"0":1},"place_type":"0","rack_locks":"1"},{"uid":"2585344","lat":"52.2392622","lng":"20.8987641","name":"P\u0119tla Os. G\u00f3rczewska","spot":"1","number":"9449","bikes":"26","bike_racks":"15","free_racks":"0","terminal_type":"7inch","bike_numbers":"24631,28335,27968,27892,27771,27769,27497,27417,26496,25831,25661,25389,25241,25197,25138,25113,29339,28959,96433,96348,96271,96255,96159,96102,96082,29238","bike_types":{"4":26},"place_type":"0","rack_locks":"1"},{"uid":"2585345","lat":"52.2389287","lng":"20.9139535","name":"Bemowo-Ratusz","spot":"1","number":"9450","bikes":"20","bike_racks":"20","free_racks":"8","terminal_type":"7inch","bike_numbers":"24835,24507,24472,27898,27808,27226,26658,26439,25892,25805,25801,25788,25397,25135,25105,29436,96518,96246,29171,29221","bike_types":{"4":19,"51":1},"place_type":"0","rack_locks":"1"},{"uid":"2585346","lat":"52.2387861","lng":"20.9424946","name":"Okocimska - Olbrachta","spot":"1","number":"9451","bikes":"22","bike_racks":"18","free_racks":"0","terminal_type":"7inch","bike_numbers":"24736,24567,25005,25004,28672,28263,27806,27756,27434,27299,26859,26265,25889,25880,25633,25451,25095,25073,29051,28895,96422,29277","bike_types":{"4":22},"place_type":"0","rack_locks":"1"},{"uid":"2585349","lat":"52.2506241","lng":"21.0533611","name":"Dworzec Wschodni - Lubelska","spot":"1","number":"9452","bikes":"14","bike_racks":"15","free_racks":"5","terminal_type":"7inch","bike_numbers":"24964,24787,28741,28721,28468,28387,27353,27263,27208,26414,26179,29447,96229,29259","bike_types":{"4":14},"place_type":"0","rack_locks":"1"},{"uid":"2585351","lat":"52.2369249","lng":"20.9723559","name":"Leszno - M\u0142ynarska","spot":"1","number":"9453","bikes":"9","bike_racks":"30","free_racks":"21","terminal_type":"7inch","bike_numbers":"24853,24814,24576,24023,27883,27551,26136,25621,96428","bike_types":{"4":8,"26":1},"place_type":"0","rack_locks":"1"},{"uid":"2585352","lat":"52.2430451","lng":"20.9803864","name":"Dzielna - Bellottiego","spot":"1","number":"9454","bikes":"7","bike_racks":"13","free_racks":"7","terminal_type":"7inch","bike_numbers":"24951,28641,28269,27166,26093,96500,24048","bike_types":{"4":6,"26":1},"place_type":"0","rack_locks":"1"},{"uid":"2585353","lat":"52.24108","lng":"20.98316","name":"Wolno\u015b\u0107 - Bellottiego","spot":"1","number":"9455","bikes":"8","bike_racks":"16","free_racks":"8","terminal_type":"7inch","bike_numbers":"28738,28585,27967,27826,27707,26595,25822,96094","bike_types":{"4":8},"place_type":"0","rack_locks":"1"},{"uid":"2585354","lat":"52.2435448","lng":"20.9873507","name":"Smocza - Nowolipki","spot":"1","number":"9456","bikes":"16","bike_racks":"16","free_racks":"3","terminal_type":"7inch","bike_numbers":"24799,24675,28157,27908,27650,27447,27395,26986,26960,26129,26078,25597,25038,96468,96260,96105","bike_types":{"4":16},"place_type":"0","rack_locks":"1"},{"uid":"2585356","lat":"52.2445767","lng":"20.99177","name":"al. Jana Paw\u0142a II - Nowolipki","spot":"1","number":"9457","bikes":"2","bike_racks":"16","free_racks":"13","terminal_type":"7inch","bike_numbers":"28726,25178","bike_types":{"4":2},"place_type":"0","rack_locks":"1"},{"uid":"2585358","lat":"52.22868","lng":"20.91509","name":"Powsta\u0144c\u00f3w \u015al\u0105skich - Cz\u0142uchowska","spot":"1","number":"9458","bikes":"12","bike_racks":"16","free_racks":"3","terminal_type":"7inch","bike_numbers":"24603,28772,28664,27625,26481,26423,26124,25781,28847,96050,96503,29185","bike_types":{"4":12},"place_type":"0","rack_locks":"1"},{"uid":"2585360","lat":"52.2342032","lng":"20.934689","name":"Jana Olbrachta - Antka Rozpylacza","spot":"1","number":"9459","bikes":"17","bike_racks":"13","free_racks":"1","terminal_type":"7inch","bike_numbers":"24728,28677,28135,27676,27228,26764,26482,26443,26144,25022,29657,28808,28838,96147,29178,29166,29156","bike_types":{"4":17},"place_type":"0","rack_locks":"1"},{"uid":"2585364","lat":"52.2401623","lng":"20.9877277","name":"Wola-Ratusz","spot":"1","number":"9460","bikes":"14","bike_racks":"15","free_racks":"1","terminal_type":"7inch","bike_numbers":"24732,25000,28714,28477,27980,27889,27116,26471,26239,25794,25721,96373,96300,96278","bike_types":{"4":14},"place_type":"0","rack_locks":"1"},{"uid":"2585368","lat":"52.2445326","lng":"20.99998","name":"Plac Bankowy - Kino Muran\u00f3w","spot":"1","number":"9462","bikes":"12","bike_racks":"17","free_racks":"6","terminal_type":"7inch","bike_numbers":"27626,27566,27459,27216,26720,26682,26598,25618,25573,96032,96456,96440","bike_types":{"4":12},"place_type":"0","rack_locks":"1"},{"uid":"2585369","lat":"52.2449465","lng":"21.0012943","name":"Andersa - D\u0142uga","spot":"1","number":"9463","bikes":"7","bike_racks":"30","free_racks":"23","terminal_type":"7inch","bike_numbers":"24659,25008,26549,26438,26406,25554,96115","bike_types":{"4":7},"place_type":"0","rack_locks":"1"},{"uid":"2585370","lat":"52.2442666","lng":"21.0015893","name":"Marsza\u0142kowska - al. Solidarno\u015bci","spot":"1","number":"9464","bikes":"17","bike_racks":"30","free_racks":"13","terminal_type":"7inch","bike_numbers":"28665,28547,28128,27983,27685,27610,27415,27379,27275,27018,26282,26157,26087,29368,96551,96547,96121","bike_types":{"4":17},"place_type":"0","rack_locks":"1"},{"uid":"2585371","lat":"52.2431975","lng":"21.0016603","name":"Plac Bankowy - Ratusz","spot":"1","number":"9465","bikes":"22","bike_racks":"30","free_racks":"9","terminal_type":"7inch","bike_numbers":"24482,28626,28485,28132,28004,27957,27658,27173,26800,26488,26164,26003,25723,25718,25606,25578,25444,25260,25155,28952,96385,96315","bike_types":{"51":1,"4":21},"place_type":"0","rack_locks":"1"},{"uid":"2585373","lat":"52.2435719","lng":"21.0066801","name":"Senatorska - Biela\u0144ska","spot":"1","number":"9466","bikes":"6","bike_racks":"17","free_racks":"11","terminal_type":"7inch","bike_numbers":"28439,27907,27106,26997,26160,89809","bike_types":{"4":6},"place_type":"0","rack_locks":"1"},{"uid":"2585377","lat":"52.246314509834","lng":"21.0113042593","name":"Miodowa","spot":"1","number":"9467","bikes":"7","bike_racks":"24","free_racks":"18","terminal_type":"7inch","bike_numbers":"24908,24688,25009,26743,25960,25183,96169","bike_types":{"4":7},"place_type":"0","rack_locks":"1"},{"uid":"2585378","lat":"52.2435965","lng":"21.0140803","name":"Krakowskie Przedmie\u015bcie - Tr\u0119backa","spot":"1","number":"9468","bikes":"16","bike_racks":"14","free_racks":"0","terminal_type":"7inch","bike_numbers":"24845,28572,28534,27737,27501,27186,27126,26860,26486,25974,25713,25550,96021,96572,96501,29155","bike_types":{"4":16},"place_type":"0","rack_locks":"1"},{"uid":"2585379","lat":"52.2465625","lng":"21.0174345","name":"Mariensztat","spot":"1","number":"9469","bikes":"8","bike_racks":"15","free_racks":"7","terminal_type":"7inch","bike_numbers":"24474,28588,28517,28472,27995,27795,26840,96310","bike_types":{"51":1,"4":7},"place_type":"0","rack_locks":"1"},{"uid":"2585381","lat":"52.224934","lng":"20.945489","name":"Jana Kazimierza - Giz\u00f3w","spot":"1","number":"9471","bikes":"20","bike_racks":"13","free_racks":"5","terminal_type":"7inch","bike_numbers":"24742,24707,28574,28272,27774,27515,27463,27065,27022,26885,26791,26250,25511,25476,25372,29041,29361,28816,96562,96141","bike_types":{"4":20},"place_type":"0","rack_locks":"1"},{"uid":"2585385","lat":"52.23016","lng":"20.951558","name":"Wolska - Elekcyjna","spot":"1","number":"9472","bikes":"22","bike_racks":"20","free_racks":"2","terminal_type":"7inch","bike_numbers":"24935,24722,24612,24556,28142,27711,27338,26953,26452,26381,26040,26017,25939,25671,25303,25019,29012,28921,28979,96313,96275,96212","bike_types":{"4":22},"place_type":"0","rack_locks":"1"},{"uid":"2585387","lat":"52.237662392829","lng":"20.955492854118","name":"al. Prymasa Tysi\u0105clecia - G\u00f3rczewska","spot":"1","number":"9473","bikes":"4","bike_racks":"20","free_racks":"18","terminal_type":"7inch","bike_numbers":"28320,25456,96016,96095","bike_types":{"4":4},"place_type":"0","rack_locks":"1"},{"uid":"2585389","lat":"52.2333374","lng":"20.9652776","name":"Wolska - P\u0142ocka","spot":"1","number":"9474","bikes":"18","bike_racks":"15","free_racks":"5","terminal_type":"7inch","bike_numbers":"24837,24782,24028,28347,28035,27896,27481,27455,27027,26584,26580,26286,26057,25858,25717,25642,25538,96520","bike_types":{"4":17,"26":1},"place_type":"0","rack_locks":"1"},{"uid":"2585391","lat":"52.228522296173","lng":"20.969638824463","name":"Kasprzaka - Skierniewicka","spot":"1","number":"9475","bikes":"18","bike_racks":"21","free_racks":"3","terminal_type":"7inch","bike_numbers":"24621,24608,24588,24571,28898,28694,28503,28400,28017,27748,27314,27255,26906,26687,26051,25865,28846,96390","bike_types":{"4":18},"place_type":"0","rack_locks":"1"},{"uid":"2585394","lat":"52.22898","lng":"20.97843","name":"Kasprzaka - Karolkowa","spot":"1","number":"9476","bikes":"10","bike_racks":"15","free_racks":"5","terminal_type":"7inch","bike_numbers":"24916,28488,27978,27789,25382,25124,29028,29387,96322,96157","bike_types":{"4":10},"place_type":"0","rack_locks":"1"},{"uid":"2585396","lat":"52.2328752","lng":"20.9805411","name":"Muzeum Powstania Warszawskiego","spot":"1","number":"9477","bikes":"4","bike_racks":"10","free_racks":"7","terminal_type":"7inch","bike_numbers":"24832,28885,28453,25685","bike_types":{"4":4},"place_type":"0","rack_locks":"1"},{"uid":"2585398","lat":"52.22983","lng":"20.983123","name":"Metro Rondo Daszy\u0144skiego","spot":"1","number":"9478","bikes":"7","bike_racks":"26","free_racks":"20","terminal_type":"7inch","bike_numbers":"27483,27224,26712,25938,25109,25020,29014","bike_types":{"4":7},"place_type":"0","rack_locks":"1"},{"uid":"2585400","lat":"52.23145","lng":"20.98869","name":"Prosta - Wronia","spot":"1","number":"9479","bikes":"10","bike_racks":"15","free_racks":"5","terminal_type":"7inch","bike_numbers":"24492,28729,28576,28345,28334,28015,26893,25044,29141,29279","bike_types":{"51":1,"4":8,"0":1},"place_type":"0","rack_locks":"1"},{"uid":"2585401","lat":"52.2373141","lng":"20.9888488","name":"\u017belazna - Ch\u0142odna","spot":"1","number":"9480","bikes":"8","bike_racks":"15","free_racks":"7","terminal_type":"7inch","bike_numbers":"28131,27580,26171,26090,25830,28811,96376,96587","bike_types":{"4":8},"place_type":"0","rack_locks":"1"},{"uid":"2585402","lat":"52.2344946","lng":"20.9905117","name":"\u017belazna - Grzybowska","spot":"1","number":"9481","bikes":"0","bike_racks":"20","free_racks":"20","terminal_type":"7inch","place_type":"0","rack_locks":"1","bike_numbers":null,"bike_types":[]},{"uid":"2585405","lat":"52.238666","lng":"20.9957314","name":"al. Jana Paw\u0142a II - Plac Mirowski","spot":"1","number":"9482","bikes":"4","bike_racks":"16","free_racks":"12","terminal_type":"7inch","bike_numbers":"24032,28598,27950,27885","bike_types":{"26":1,"4":3},"place_type":"0","rack_locks":"1"},{"uid":"2585406","lat":"52.2357151","lng":"20.9966071","name":"al. Jana Paw\u0142a II - Grzybowska","spot":"1","number":"9483","bikes":"6","bike_racks":"23","free_racks":"17","terminal_type":"7inch","bike_numbers":"26939,26301,25941,25651,25508,96193","bike_types":{"4":6},"place_type":"0","rack_locks":"1"},{"uid":"2585410","lat":"52.23958","lng":"21.00027","name":"Ptasia - Zimna","spot":"1","number":"9485","bikes":"11","bike_racks":"16","free_racks":"4","terminal_type":"7inch","bike_numbers":"24595,28397,27152,26518,25824,25658,25324,29372,96507,96452,29225","bike_types":{"4":11},"place_type":"0","rack_locks":"1"},{"uid":"2585412","lat":"52.2336314","lng":"21.0028795","name":"Emilii Plater - \u015awi\u0119tokrzyska","spot":"1","number":"9486","bikes":"9","bike_racks":"26","free_racks":"15","terminal_type":"7inch","bike_numbers":"24877,28489,28379,27190,27082,27012,26796,96499,96457","bike_types":{"4":9},"place_type":"0","rack_locks":"1"},{"uid":"2585413","lat":"52.2358704","lng":"21.0037806","name":"Plac Grzybowski","spot":"1","number":"9487","bikes":"15","bike_racks":"26","free_racks":"11","terminal_type":"7inch","bike_numbers":"24750,28422,28091,28044,27757,27144,27024,26702,26457,26321,26240,26203,96568,96419,29256","bike_types":{"4":15},"place_type":"0","rack_locks":"1"},{"uid":"2585416","lat":"52.2384853","lng":"21.0067552","name":"Marsza\u0142kowska - Kr\u00f3lewska","spot":"1","number":"9488","bikes":"13","bike_racks":"19","free_racks":"6","terminal_type":"7inch","bike_numbers":"28299,28109,28025,27782,27603,27362,25272,25207,96049,96558,96168,96161,96100","bike_types":{"4":13},"place_type":"0","rack_locks":"1"},{"uid":"2585417","lat":"52.2364206","lng":"21.0072407","name":"Marsza\u0142kowska - Zielna","spot":"1","number":"9489","bikes":"8","bike_racks":"30","free_racks":"22","terminal_type":"7inch","bike_numbers":"24593,27934,27248,26714,29092,29422,96353,29270","bike_types":{"4":8},"place_type":"0","rack_locks":"1"},{"uid":"2585420","lat":"52.2397008","lng":"21.0119292","name":"Plac Ma\u0142achowskiego","spot":"1","number":"9491","bikes":"8","bike_racks":"16","free_racks":"11","terminal_type":"7inch","bike_numbers":"24040,27609,26424,26385,25793,25594,25432,25175","bike_types":{"26":1,"4":7},"place_type":"0","rack_locks":"1"},{"uid":"2585422","lat":"52.2359114","lng":"21.0135654","name":"Plac Powsta\u0144c\u00f3w Warszawy","spot":"1","number":"9492","bikes":"14","bike_racks":"20","free_racks":"6","terminal_type":"7inch","bike_numbers":"24806,24669,28674,28275,27075,26824,26379,25837,25310,25098,96517,96462,96407,96379","bike_types":{"4":14},"place_type":"0","rack_locks":"1"},{"uid":"2585423","lat":"52.2393559","lng":"21.016603","name":"Krakowskie Przedmie\u015bcie - Traugutta","spot":"1","number":"9493","bikes":"4","bike_racks":"24","free_racks":"21","terminal_type":"7inch","bike_numbers":"24999,28076,27262,29231","bike_types":{"4":4},"place_type":"0","rack_locks":"1"},{"uid":"2585429","lat":"52.238298","lng":"21.0184014","name":"Obo\u017ana - Kopernika","spot":"1","number":"9495","bikes":"7","bike_racks":"22","free_racks":"15","terminal_type":"7inch","bike_numbers":"27657,27429,26302,25212,29097,28970,96254","bike_types":{"4":7},"place_type":"0","rack_locks":"1"},{"uid":"2585430","lat":"52.24190654256","lng":"21.024259328842","name":"Lipowa - Dobra","spot":"1","number":"9496","bikes":"14","bike_racks":"19","free_racks":"5","terminal_type":"7inch","bike_numbers":"24867,24673,28715,27527,26921,26137,25842,25011,29426,28826,96285,96205,29203,29217","bike_types":{"4":14},"place_type":"0","rack_locks":"1"},{"uid":"2585431","lat":"52.2413087","lng":"21.0281727","name":"Centrum Nauki Kopernik","spot":"1","number":"9497","bikes":"22","bike_racks":"30","free_racks":"6","terminal_type":"7inch","bike_numbers":"24911,24637,28549,28352,28291,28276,27913,27633,27584,27449,27242,26672,26606,25654,25467,29072,29445,29647,96026,96450,96288,96277","bike_types":{"4":22},"place_type":"0","rack_locks":"1"},{"uid":"2585432","lat":"52.2264464","lng":"20.9837164","name":"Kolejowa","spot":"1","number":"9498","bikes":"7","bike_racks":"16","free_racks":"9","terminal_type":"7inch","bike_numbers":"28623,27638,27269,26967,96564,96125,29198","bike_types":{"4":7},"place_type":"0","rack_locks":"1"},{"uid":"2585433","lat":"52.22983","lng":"20.993996","name":"\u017belazna - Sienna","spot":"1","number":"9499","bikes":"2","bike_racks":"24","free_racks":"23","terminal_type":"7inch","bike_numbers":"24741,25942","bike_types":{"4":2},"place_type":"0","rack_locks":"1"},{"uid":"2585435","lat":"52.230201297582","lng":"20.999550819397","name":"al. Jana Paw\u0142a II - Z\u0142ota","spot":"1","number":"9500","bikes":"3","bike_racks":"16","free_racks":"13","terminal_type":"7inch","bike_numbers":"26177,25532,25353","bike_types":{"4":3},"place_type":"0","rack_locks":"1"},{"uid":"2585438","lat":"52.2309778","lng":"21.0036755","name":"Emilii Plater - Z\u0142ota","spot":"1","number":"9501","bikes":"18","bike_racks":"30","free_racks":"12","terminal_type":"7inch","bike_numbers":"24753,24520,28608,28114,28086,28033,27760,27100,26698,26407,25992,25981,25641,25604,25499,29144,96360,96083","bike_types":{"4":17,"0":1},"place_type":"0","rack_locks":"1"},{"uid":"2585440","lat":"52.232816601853","lng":"21.006980538368","name":"Pa\u0142ac Kultury i Nauki","spot":"1","number":"9502","bikes":"1","bike_racks":"17","free_racks":"16","terminal_type":"7inch","bike_numbers":"96523","bike_types":{"4":1},"place_type":"0","rack_locks":"1"},{"uid":"2585442","lat":"52.232934","lng":"21.0101791","name":"Marsza\u0142kowska - Z\u0142ota","spot":"1","number":"9503","bikes":"18","bike_racks":"22","free_racks":"5","terminal_type":"7inch","bike_numbers":"24839,24820,24755,24683,28764,28586,28351,27749,27401,27266,26783,25819,25438,29432,96573,96470,96230,96096","bike_types":{"4":18},"place_type":"0","rack_locks":"1"},{"uid":"2585445","lat":"52.231987","lng":"21.016092","name":"Bracka - Krucza","spot":"1","number":"9504","bikes":"5","bike_racks":"20","free_racks":"16","terminal_type":"7inch","bike_numbers":"27179,26990,26754,25252,25046","bike_types":{"4":5},"place_type":"0","rack_locks":"1"},{"uid":"2585446","lat":"52.2355713","lng":"21.0179642","name":"Nowy \u015awiat - Warecka","spot":"1","number":"9505","bikes":"12","bike_racks":"24","free_racks":"13","terminal_type":"7inch","bike_numbers":"24950,28156,27809,27139,25760,25463,25446,25058,29056,29362,96290,29264","bike_types":{"4":12},"place_type":"0","rack_locks":"1"},{"uid":"2585447","lat":"52.2337571","lng":"21.0202789","name":"Ga\u0142czy\u0144skiego - Foksal","spot":"1","number":"9506","bikes":"18","bike_racks":"24","free_racks":"2","terminal_type":"7inch","bike_numbers":"24974,24917,28690,28074,26963,26890,26816,26325,26318,26159,26158,26128,26020,25555,25441,25023,96017,96423","bike_types":{"4":18},"place_type":"0","rack_locks":"1"},{"uid":"2585450","lat":"52.2375934","lng":"21.0256487","name":"Topiel - Tamka","spot":"1","number":"9507","bikes":"16","bike_racks":"20","free_racks":"4","terminal_type":"7inch","bike_numbers":"24795,28775,27770,27444,27315,26830,26671,26420,26066,25728,25539,25071,96005,96472,96397,96292","bike_types":{"4":16},"place_type":"0","rack_locks":"1"},{"uid":"2585452","lat":"52.2358752","lng":"21.0317323","name":"Solec - Jaracza","spot":"1","number":"9508","bikes":"11","bike_racks":"15","free_racks":"0","terminal_type":"7inch","bike_numbers":"24940,27976,27653,27464,27259,27117,26923,26662,26069,28891,96309","bike_types":{"4":11},"place_type":"0","rack_locks":"1"},{"uid":"2585453","lat":"52.2218874","lng":"20.9795301","name":"al. Jerozolimskie - Niemcewicza","spot":"1","number":"9509","bikes":"4","bike_racks":"19","free_racks":"15","terminal_type":"7inch","bike_numbers":"28596,27646,26938,25304","bike_types":{"4":4},"place_type":"0","rack_locks":"1"},{"uid":"2585455","lat":"52.2222155","lng":"20.9866293","name":"Ochota-Ratusz","spot":"1","number":"9510","bikes":"6","bike_racks":"23","free_racks":"17","terminal_type":"7inch","bike_numbers":"26342,26307,25729,25343,25317,25012","bike_types":{"4":6},"place_type":"0","rack_locks":"1"},{"uid":"2585457","lat":"52.2249718","lng":"20.9897661","name":"Plac Zawiszy","spot":"1","number":"9511","bikes":"6","bike_racks":"24","free_racks":"17","terminal_type":"7inch","bike_numbers":"28543,25035,28980,96276,96114,29215","bike_types":{"4":6},"place_type":"0","rack_locks":"1"},{"uid":"2585460","lat":"52.22626","lng":"20.9961309","name":"al. Jerozolimskie - Lindleya","spot":"1","number":"9512","bikes":"4","bike_racks":"15","free_racks":"11","terminal_type":"7inch","bike_numbers":"24487,25006,26369,96023","bike_types":{"51":1,"4":3},"place_type":"0","rack_locks":"1"},{"uid":"2585462","lat":"52.2241455","lng":"20.9975244","name":"Lindleya - szpital","spot":"1","number":"9513","bikes":"4","bike_racks":"28","free_racks":"24","terminal_type":"7inch","bike_numbers":"24734,27529,26826,26545","bike_types":{"4":4},"place_type":"0","rack_locks":"1"},{"uid":"2585464","lat":"52.227861","lng":"21.0008509","name":"Warszawa \u015ar\u00f3dmie\u015bcie WKD","spot":"1","number":"9514","bikes":"30","bike_racks":"18","free_racks":"2","terminal_type":"7inch","bike_numbers":"24965,24670,28637,28575,28551,27924,27915,27181,27097,27006,26851,26765,26469,26267,26049,25923,25906,25878,25730,25683,25602,25447,25332,25177,25064,29343,29114,96455,96435,24052","bike_types":{"4":29,"26":1},"place_type":"0","rack_locks":"1"},{"uid":"2585466","lat":"52.2249555","lng":"21.0031664","name":"Oczki - WUM","spot":"1","number":"9515","bikes":"9","bike_racks":"19","free_racks":"11","terminal_type":"7inch","bike_numbers":"28753,28695,26981,26555,26141,25866,25163,28912,29656","bike_types":{"4":9},"place_type":"0","rack_locks":"1"},{"uid":"2585469","lat":"52.2290464","lng":"21.0054544","name":"Emilii Plater - Al. Jerozolimskie","spot":"1","number":"9517","bikes":"8","bike_racks":"30","free_racks":"22","terminal_type":"7inch","bike_numbers":"27902,26502,26198,26185,25893,25589,29042,96394","bike_types":{"4":8},"place_type":"0","rack_locks":"1"},{"uid":"2585470","lat":"52.2259343","lng":"21.0067537","name":"Emilii Plater - Wsp\u00f3lna","spot":"1","number":"9518","bikes":"1","bike_racks":"15","free_racks":"15","terminal_type":"7inch","bike_numbers":"24943","bike_types":{"4":1},"place_type":"0","rack_locks":"1"},{"uid":"2585472","lat":"52.23001","lng":"21.01088","name":"Metro Centrum","spot":"1","number":"9519","bikes":"15","bike_racks":"30","free_racks":"15","terminal_type":"7inch","bike_numbers":"28592,28152,27651,27146,26996,26162,26145,26131,25753,25418,25319,28916,96445,96113,29257","bike_types":{"4":15},"place_type":"0","rack_locks":"1"},{"uid":"2585473","lat":"52.229347019086","lng":"21.011314988136","name":"Marsza\u0142kowska - Al. Jerozolimskie","spot":"1","number":"9520","bikes":"22","bike_racks":"24","free_racks":"2","terminal_type":"7inch","bike_numbers":"24649,24043,28528,28464,28312,28265,28158,27043,27007,26962,26929,26710,26372,26015,25986,25849,25612,29079,60845,25626,28883,96545","bike_types":{"4":21,"26":1},"place_type":"0","rack_locks":"1"},{"uid":"2585476","lat":"52.230418150276","lng":"21.013610959053","name":"al. Jerozolimskie - rejon Rotundy","spot":"1","number":"9521","bikes":"8","bike_racks":"24","free_racks":"16","terminal_type":"7inch","bike_numbers":"24463,26462,26358,26028,25900,25279,25270,29275","bike_types":{"51":1,"4":7},"place_type":"0","rack_locks":"1"},{"uid":"2585477","lat":"52.2262882","lng":"21.0135705","name":"Marsza\u0142kowska - Ho\u017ca","spot":"1","number":"9522","bikes":"10","bike_racks":"15","free_racks":"8","terminal_type":"7inch","bike_numbers":"24979,24834,26822,26750,26232,26010,25886,25704,28879,96586","bike_types":{"4":10},"place_type":"0","rack_locks":"1"},{"uid":"2585492","lat":"52.2282923","lng":"21.0178542","name":"Krucza - Wsp\u00f3lna","spot":"1","number":"9523","bikes":"4","bike_racks":"28","free_racks":"24","terminal_type":"7inch","bike_numbers":"24642,28745,28941,29255","bike_types":{"4":4},"place_type":"0","rack_locks":"1"},{"uid":"2585684","lat":"52.23144","lng":"21.0213036","name":"Rondo de Gaulle'a","spot":"1","number":"9524","bikes":"9","bike_racks":"22","free_racks":"12","terminal_type":"7inch","bike_numbers":"28584,27720,27087,26248,26219,29107,96442,96197,29224","bike_types":{"4":9},"place_type":"0","rack_locks":"1"},{"uid":"2585694","lat":"52.2278487","lng":"21.0235084","name":"Plac Trzech Krzy\u017cy","spot":"1","number":"9525","bikes":"5","bike_racks":"23","free_racks":"18","maintenance":"1","terminal_type":"7inch","bike_numbers":"28688,27374,26590,25062,96438","bike_types":{"4":5},"place_type":"0","rack_locks":"1"},{"uid":"2585695","lat":"52.23324","lng":"21.0261179","name":"Smolna - PKP Powi\u015ble","spot":"1","number":"9526","bikes":"7","bike_racks":"18","free_racks":"11","terminal_type":"7inch","bike_numbers":"28529,28121,27634,26802,25527,96384,29148","bike_types":{"4":7},"place_type":"0","rack_locks":"1"},{"uid":"2585699","lat":"52.2340191","lng":"21.0300328","name":"Herberta - PKP Powi\u015ble","spot":"1","number":"9527","bikes":"21","bike_racks":"26","free_racks":"0","terminal_type":"7inch","bike_numbers":"24997,24933,28341,27733,27452,27371,27165,27130,27096,26988,26037,25859,25838,25726,25643,25449,25133,25040,29110,29194,29266","bike_types":{"4":21},"place_type":"0","rack_locks":"1"},{"uid":"2585704","lat":"52.2347879","lng":"21.0340991","name":"Solec - al. 3 Maja","spot":"1","number":"9528","bikes":"18","bike_racks":"24","free_racks":"4","terminal_type":"7inch","bike_numbers":"24856,24804,24726,28734,28119,27835,27784,27249,27034,26896,26022,25895,25764,25615,28972,96370,96151,96589","bike_types":{"4":18},"place_type":"0","rack_locks":"1"},{"uid":"2585708","lat":"52.2301405","lng":"21.0303694","name":"Ksi\u0105\u017c\u0119ca - Rozbrat","spot":"1","number":"9529","bikes":"18","bike_racks":"15","free_racks":"0","terminal_type":"7inch","bike_numbers":"24654,24585,24510,28685,27611,26819,26673,26252,25843,25820,25360,25254,25219,25086,96542,96527,96510,29195","bike_types":{"4":18},"place_type":"0","rack_locks":"1"},{"uid":"2585711","lat":"52.2172177","lng":"20.9713608","name":"Szcz\u0119\u015bliwicka - APS","spot":"1","number":"9530","bikes":"12","bike_racks":"22","free_racks":"10","terminal_type":"7inch","bike_numbers":"27244,27195,26942,26663,26243,26170,26156,26031,25379,28949,96318,96164","bike_types":{"4":12},"place_type":"0","rack_locks":"1"},{"uid":"2585712","lat":"52.2179474","lng":"20.9775567","name":"Kopi\u0144ska - Bia\u0142obrzeska","spot":"1","number":"9531","bikes":"10","bike_racks":"15","free_racks":"5","terminal_type":"7inch","bike_numbers":"24542,27880,27619,27272,26453,26315,26047,25457,25261,96550","bike_types":{"4":10},"place_type":"0","rack_locks":"1"},{"uid":"2585714","lat":"52.2178554","lng":"20.9828138","name":"Plac Narutowicza","spot":"1","number":"9532","bikes":"16","bike_racks":"30","free_racks":"14","terminal_type":"7inch","bike_numbers":"24033,28739,27953,27876,27843,27295,27215,26983,26948,26552,26388,26063,25856,28851,96469,96262","bike_types":{"26":1,"4":15},"place_type":"0","rack_locks":"1"},{"uid":"2585716","lat":"52.216641","lng":"20.9879476","name":"Raszy\u0144ska - Wawelska","spot":"1","number":"9533","bikes":"10","bike_racks":"20","free_racks":"9","terminal_type":"7inch","bike_numbers":"24549,28193,27965,27866,26728,26432,26291,25825,25345,29458","bike_types":{"4":10},"place_type":"0","rack_locks":"1"},{"uid":"2585717","lat":"52.2191029","lng":"20.9890149","name":"Raszy\u0144ska - Filtrowa","spot":"1","number":"9534","bikes":"6","bike_racks":"22","free_racks":"14","terminal_type":"7inch","bike_numbers":"27867,27270,26690,26261,25240,25125","bike_types":{"4":6},"place_type":"0","rack_locks":"1"},{"uid":"2585720","lat":"52.220676","lng":"21.0045554","name":"al. Niepodleg\u0142o\u015bci - Nowowiejska","spot":"1","number":"9535","bikes":"2","bike_racks":"30","free_racks":"28","terminal_type":"7inch","bike_numbers":"27938,25789","bike_types":{"4":2},"place_type":"0","rack_locks":"1"},{"uid":"2585721","lat":"52.2174693","lng":"21.0056537","name":"Kaczy\u0144skiego - al. Niepodleg\u0142o\u015bci","spot":"1","number":"9536","bikes":"1","bike_racks":"16","free_racks":"15","terminal_type":"7inch","bike_numbers":"28648","bike_types":{"4":1},"place_type":"0","rack_locks":"1"},{"uid":"2585722","lat":"52.2226831","lng":"21.0081097","name":"Noakowskiego - Koszykowa","spot":"1","number":"9537","bikes":"7","bike_racks":"24","free_racks":"17","terminal_type":"7inch","bike_numbers":"24876,24779,24602,27988,27963,27577,25338","bike_types":{"4":7},"place_type":"0","rack_locks":"1"},{"uid":"2585724","lat":"52.219916","lng":"21.0116824","name":"Plac Politechniki","spot":"1","number":"9538","bikes":"1","bike_racks":"27","free_racks":"26","terminal_type":"7inch","bike_numbers":"28207","bike_types":{"4":1},"place_type":"0","rack_locks":"1"},{"uid":"2585727","lat":"52.223503","lng":"21.0128519","name":"Pozna\u0144ska - Zesp\u00f3\u0142 Szk\u00f3\u0142 Gastronomicznych","spot":"1","number":"9539","bikes":"6","bike_racks":"18","free_racks":"12","terminal_type":"7inch","bike_numbers":"28755,27823,26985,26326,96279,29260","bike_types":{"4":6},"place_type":"0","rack_locks":"1"},{"uid":"2585728","lat":"52.2174857","lng":"21.0142949","name":"Rondo Jazdy Polskiej","spot":"1","number":"9540","bikes":"17","bike_racks":"24","free_racks":"8","terminal_type":"7inch","bike_numbers":"24958,24954,24702,28409,28060,27899,27372,26959,26831,26749,25873,25705,25336,25144,29078,96479,96464","bike_types":{"4":17},"place_type":"0","rack_locks":"1"},{"uid":"2585729","lat":"52.2197435","lng":"21.0157353","name":"ul. Wary\u0144skiego-ul. Nowowiejska-Metro Politechnika ","spot":"1","number":"9541","bikes":"6","bike_racks":"20","free_racks":"17","terminal_type":"7inch","bike_numbers":"24987,28899,27202,25669,29050,96556","bike_types":{"4":6},"place_type":"0","rack_locks":"1"},{"uid":"2585731","lat":"52.2197681","lng":"21.0172775","name":"Plac Zbawiciela","spot":"1","number":"9542","bikes":"2","bike_racks":"12","free_racks":"7","terminal_type":"7inch","bike_numbers":"28897,29280","bike_types":{"4":2},"place_type":"0","rack_locks":"1"},{"uid":"2585735","lat":"52.2229427","lng":"21.0158211","name":"Plac Konstytucji","spot":"1","number":"9543","bikes":"4","bike_racks":"30","free_racks":"25","terminal_type":"7inch","bike_numbers":"24786,25967,25687,96022","bike_types":{"4":4},"place_type":"0","rack_locks":"1"},{"uid":"2585737","lat":"52.2238152","lng":"21.0207859","name":"Mokotowska - Pi\u0119kna","spot":"1","number":"9544","bikes":"1","bike_racks":"20","free_racks":"19","terminal_type":"7inch","bike_numbers":"27369","bike_types":{"4":1},"place_type":"0","rack_locks":"1"},{"uid":"2585738","lat":"52.2200212","lng":"21.0256299","name":"Plac na Rozdro\u017cu","spot":"1","number":"9545","bikes":"5","bike_racks":"26","free_racks":"21","terminal_type":"7inch","bike_numbers":"27786,27740,25431,25100,96251","bike_types":{"4":5},"place_type":"0","rack_locks":"1"},{"uid":"2585742","lat":"52.2249504","lng":"21.0268155","name":"Matejki - Wiejska","spot":"1","number":"9546","bikes":"11","bike_racks":"20","free_racks":"9","terminal_type":"7inch","bike_numbers":"27282,27277,27187,27063,26919,26907,26760,26441,25792,25771,28867","bike_types":{"4":11},"place_type":"0","rack_locks":"1"},{"uid":"2585747","lat":"52.2221129","lng":"21.0343873","name":"My\u015bliwiecka - Rozbrat","spot":"1","number":"9547","bikes":"20","bike_racks":"21","free_racks":"0","terminal_type":"7inch","bike_numbers":"24983,25001,28761,28300,28112,27677,27183,27044,26889,26858,26787,26514,26493,26095,26042,25489,29036,28805,96492,29169","bike_types":{"4":20},"place_type":"0","rack_locks":"1"},{"uid":"2585748","lat":"52.2277124","lng":"21.0442955","name":"Port Czerniakowski","spot":"1","number":"9548","bikes":"17","bike_racks":"30","free_racks":"0","terminal_type":"7inch","bike_numbers":"24775,24529,28573,28552,28516,28355,27534,27256,27218,26636,26478,26092,26034,25299,29083,96048,96565","bike_types":{"4":17},"place_type":"0","rack_locks":"1"},{"uid":"2585749","lat":"52.2109711","lng":"20.9759125","name":"Gr\u00f3jecka - Bitwy Warszawskiej 1920 roku","spot":"1","number":"9549","bikes":"9","bike_racks":"20","free_racks":"11","terminal_type":"7inch","bike_numbers":"24605,28393,26262,25565,25149,29344,28967,96416,96264","bike_types":{"4":9},"place_type":"0","rack_locks":"1"},{"uid":"2585750","lat":"52.2130296","lng":"20.9819985","name":"Pasteura - Winnicka - UW","spot":"1","number":"9550","bikes":"13","bike_racks":"24","free_racks":"11","terminal_type":"7inch","bike_numbers":"24949,28903,27865,27697,27409,27321,26630,25302,29649,28806,96010,96320,96296","bike_types":{"4":13},"place_type":"0","rack_locks":"1"},{"uid":"2585762","lat":"52.2107722","lng":"20.9847557","name":"Stefana Banacha - UW","spot":"1","number":"9551","bikes":"1","bike_racks":"29","free_racks":"28","terminal_type":"7inch","bike_numbers":"24857","bike_types":{"4":1},"place_type":"0","rack_locks":"1"},{"uid":"2585764","lat":"52.212671","lng":"21.003437","name":"Biblioteka Narodowa","spot":"1","number":"9552","bikes":"8","bike_racks":"24","free_racks":"16","terminal_type":"7inch","bike_numbers":"24828,28752,28482,27420,26288,25720,29386,96493","bike_types":{"4":8},"place_type":"0","rack_locks":"1"},{"uid":"2585766","lat":"52.21691","lng":"21.01997","name":"Marsza\u0142kowska - Litewska","spot":"1","number":"9553","bikes":"11","bike_racks":"15","free_racks":"4","terminal_type":"7inch","bike_numbers":"24767,27564,27545,27261,26540,25811,25282,25091,28956,25631,96408","bike_types":{"4":11},"place_type":"0","rack_locks":"1"},{"uid":"2585770","lat":"52.2083858","lng":"20.9631103","name":"P\u0119tla Szcz\u0119\u015bliwice","spot":"1","number":"9554","bikes":"14","bike_racks":"19","free_racks":"5","terminal_type":"7inch","bike_numbers":"24564,24466,27970,27848,27604,27582,27410,26852,26059,25920,25761,25234,29071,29164","bike_types":{"4":13,"51":1},"place_type":"0","rack_locks":"1"},{"uid":"2585771","lat":"52.206153650625","lng":"20.970287919044","name":"Dickensa - Geodet\u00f3w","spot":"1","number":"9555","bikes":"19","bike_racks":"16","free_racks":"0","terminal_type":"7inch","bike_numbers":"28904,28817,28009,27539,27387,27355,27157,26823,26402,25877,25844,25523,25487,25285,25249,29374,28996,96036,96366","bike_types":{"4":19},"place_type":"0","rack_locks":"1"},{"uid":"2585772","lat":"52.205361371875","lng":"20.984664559364","name":"\u017bwirki i Wigury - Ksi\u0119cia Trojdena","spot":"1","number":"9556","bikes":"3","bike_racks":"17","free_racks":"14","terminal_type":"7inch","bike_numbers":"27324,29063,28815","bike_types":{"4":3},"place_type":"0","rack_locks":"1"},{"uid":"2585774","lat":"52.205801893754","lng":"20.998928546906","name":"Rakowiecka - \u015aw. A. Boboli","spot":"1","number":"9557","bikes":"4","bike_racks":"17","free_racks":"12","terminal_type":"7inch","bike_numbers":"24946,26873,25947,96188","bike_types":{"4":4},"place_type":"0","rack_locks":"1"},{"uid":"2585776","lat":"52.209916","lng":"21.0067794","name":"al. Niepodleg\u0142o\u015bci - Batorego","spot":"1","number":"9558","bikes":"39","bike_racks":"26","free_racks":"5","terminal_type":"7inch","bike_numbers":"24925,24860,24716,24680,24478,28740,28662,28479,28064,28038,28036,27935,27719,27473,27317,27156,27095,27079,27061,26993,26821,26422,26359,26222,26026,25862,25853,25762,25691,25422,25388,25284,25132,28910,29146,96004,96409,96181,29189","bike_types":{"4":37,"51":1,"0":1},"place_type":"0","rack_locks":"1"},{"uid":"2585779","lat":"52.2132375","lng":"21.0210568","name":"Plac Unii Lubelskiej","spot":"1","number":"9559","bikes":"5","bike_racks":"24","free_racks":"19","terminal_type":"7inch","bike_numbers":"24691,24657,28259,26752,29278","bike_types":{"4":5},"place_type":"0","rack_locks":"1"},{"uid":"2585781","lat":"52.2027557","lng":"20.9508951","name":"W\u0142odarzewska - Maszynowa","spot":"1","number":"9560","bikes":"12","bike_racks":"18","free_racks":"7","terminal_type":"7inch","bike_numbers":"24640,24455,28766,27565,27233,26932,26236,26074,25547,25315,25222,96331","bike_types":{"4":11,"51":1},"place_type":"0","rack_locks":"1"},{"uid":"2585782","lat":"52.2017647","lng":"20.9820897","name":"Sanocka - Pruszkowska","spot":"1","number":"9561","bikes":"9","bike_racks":"15","free_racks":"8","terminal_type":"7inch","bike_numbers":"24765,24713,24582,28424,26713,26167,25620,29455,28884","bike_types":{"4":9},"place_type":"0","rack_locks":"1"},{"uid":"2585785","lat":"52.1981365","lng":"20.9833717","name":"\u017bwirki i Wigury - Rac\u0142awicka","spot":"1","number":"9562","bikes":"9","bike_racks":"18","free_racks":"9","terminal_type":"7inch","bike_numbers":"24768,28556,27851,27403,27222,25997,96372,96238,96187","bike_types":{"4":9},"place_type":"0","rack_locks":"1"},{"uid":"2585787","lat":"52.20177","lng":"20.99969","name":"Wo\u0142oska - Kulskiego","spot":"1","number":"9563","bikes":"9","bike_racks":"15","free_racks":"6","terminal_type":"7inch","bike_numbers":"24914,24518,27705,27377,26498,25952,25827,25173,24555","bike_types":{"4":9},"place_type":"0","rack_locks":"1"},{"uid":"2585788","lat":"52.2042638","lng":"21.014428","name":"Madali\u0144skiego - Kazimierzowska","spot":"1","number":"9564","bikes":"11","bike_racks":"24","free_racks":"12","terminal_type":"7inch","bike_numbers":"24881,24781,28473,27368,26854,26613,25686,25193,60855,96099,29227","bike_types":{"4":11},"place_type":"0","rack_locks":"1"},{"uid":"2585789","lat":"52.2055175","lng":"21.0231033","name":"Pu\u0142awska - Dworkowa","spot":"1","number":"9565","bikes":"10","bike_racks":"19","free_racks":"9","terminal_type":"7inch","bike_numbers":"24996,24885,27351,26556,25871,25795,25732,28951,29454,96485","bike_types":{"4":10},"place_type":"0","rack_locks":"1"},{"uid":"2585790","lat":"52.2071756","lng":"21.0312643","name":"Belwederska - Gagarina","spot":"1","number":"9566","bikes":"24","bike_racks":"30","free_racks":"3","terminal_type":"7inch","bike_numbers":"24956,24890,24580,24470,24459,28769,28540,28527,28154,28012,27979,27975,27767,27084,26597,26101,25846,25535,25174,25158,28946,29136,96342,96242","bike_types":{"4":21,"51":2,"0":1},"place_type":"0","rack_locks":"1"},{"uid":"2585791","lat":"52.2074193","lng":"21.0479621","name":"Czerniakowska - Gagarina","spot":"1","number":"9567","bikes":"35","bike_racks":"25","free_racks":"0","terminal_type":"7inch","bike_numbers":"24816,24645,28604,28559,28546,28421,28286,28136,28093,28018,27927,27732,27071,27069,26709,26699,26445,26399,26362,26285,26115,25972,25542,25232,25225,29104,29089,29080,29137,28900,28977,96038,96028,96466,96177","bike_types":{"4":34,"0":1},"place_type":"0","rack_locks":"1"},{"uid":"2585794","lat":"52.1938131","lng":"20.9914431","name":"Etiudy Rewolucyjnej - Mi\u0105czy\u0144ska","spot":"1","number":"9568","bikes":"15","bike_racks":"18","free_racks":"3","terminal_type":"7inch","bike_numbers":"28640,28622,28384,28338,28262,27568,27477,26916,25586,25584,25465,29113,29034,96192,29252","bike_types":{"4":15},"place_type":"0","rack_locks":"1"},{"uid":"2585799","lat":"52.1994156","lng":"21.0121384","name":"Metro Rac\u0142awicka","spot":"1","number":"9570","bikes":"9","bike_racks":"30","free_racks":"19","terminal_type":"7inch","bike_numbers":"28398,27198,27051,26546,26376,25921,25223,96053,96274","bike_types":{"4":9},"place_type":"0","rack_locks":"1"},{"uid":"2585800","lat":"52.199505","lng":"21.0240975","name":"Pu\u0142awska - Dolna","spot":"1","number":"9571","bikes":"16","bike_racks":"18","free_racks":"2","terminal_type":"7inch","bike_numbers":"24617,28458,27911,27488,26745,26365,26191,26006,25823,25595,25380,28858,28843,96156,96119,96093","bike_types":{"4":16},"place_type":"0","rack_locks":"1"},{"uid":"2585802","lat":"52.2014754","lng":"21.0360047","name":"Sobieskiego - Che\u0142mska","spot":"1","number":"9572","bikes":"20","bike_racks":"15","free_racks":"0","terminal_type":"7inch","bike_numbers":"24902,24497,28104,28103,27962,27763,27741,27622,27454,27383,27127,26863,26403,26036,25678,25592,25206,28894,96530,96295","bike_types":{"4":19,"51":1},"place_type":"0","rack_locks":"1"},{"uid":"2585804","lat":"52.1998446","lng":"21.05095","name":"Czerniakowska - ZUS","spot":"1","number":"9573","bikes":"11","bike_racks":"15","free_racks":"1","terminal_type":"7inch","bike_numbers":"24739,24517,28617,28459,28356,28029,26797,26193,26133,25914,25737","bike_types":{"4":11},"place_type":"0","rack_locks":"1"},{"uid":"2585807","lat":"52.1916776","lng":"20.8689688","name":"PKP Ursus-Nied\u017awiadek","spot":"1","number":"9574","bikes":"12","bike_racks":"15","free_racks":"5","terminal_type":"7inch","bike_numbers":"24744,24465,28905,27598,27205,25922,25888,25840,29131,96512,96364,96345","bike_types":{"4":10,"51":1,"0":1},"place_type":"0","rack_locks":"1"},{"uid":"2585808","lat":"52.1960469","lng":"20.8849347","name":"PKP Ursus","spot":"1","number":"9575","bikes":"10","bike_racks":"16","free_racks":"6","terminal_type":"7inch","bike_numbers":"28591,28336,28287,28083,26602,26328,25835,25262,25221,29639","bike_types":{"4":10},"place_type":"0","rack_locks":"1"},{"uid":"2585809","lat":"52.1869936","lng":"20.8906478","name":"Sosnkowskiego - OSiR Ursus","spot":"1","number":"9576","bikes":"16","bike_racks":"15","free_racks":"0","terminal_type":"7inch","bike_numbers":"28122,27942,27569,27508,26676,26659,26431,26397,26393,26339,25667,25436,25256,28893,96024,96091","bike_types":{"4":16},"place_type":"0","rack_locks":"1"},{"uid":"2585811","lat":"52.2005548","lng":"20.8937538","name":"Ursus-Ratusz","spot":"1","number":"9577","bikes":"4","bike_racks":"15","free_racks":"11","terminal_type":"7inch","bike_numbers":"27047,26708,26334,25655","bike_types":{"4":4},"place_type":"0","rack_locks":"1"},{"uid":"2585814","lat":"52.1906376","lng":"20.8999443","name":"Skoroszewska - Prystora","spot":"1","number":"9578","bikes":"8","bike_racks":"17","free_racks":"9","terminal_type":"7inch","bike_numbers":"24705,28460,27131,26024,25194,28842,96400,96301","bike_types":{"4":8},"place_type":"0","rack_locks":"1"},{"uid":"2585817","lat":"52.1882609","lng":"20.9603771","name":"G\u0142adka - OSiR W\u0142ochy","spot":"1","number":"9579","bikes":"14","bike_racks":"16","free_racks":"1","terminal_type":"7inch","bike_numbers":"24619,24596,28636,28538,28049,27813,27416,26528,26426,26065,25664,25214,96377,96259","bike_types":{"4":14},"place_type":"0","rack_locks":"1"},{"uid":"2585820","lat":"52.2056441","lng":"20.9159142","name":"PKP W\u0142ochy","spot":"1","number":"9580","bikes":"12","bike_racks":"17","free_racks":"6","terminal_type":"7inch","bike_numbers":"24674,28325,28318,28304,28117,27969,27797,27005,26974,26013,25517,25363","bike_types":{"4":12},"place_type":"0","rack_locks":"1"},{"uid":"2585821","lat":"52.2012157","lng":"20.9353145","name":"al. Jerozolimskie - Popularna","spot":"1","number":"9581","bikes":"5","bike_racks":"17","free_racks":"12","terminal_type":"7inch","bike_numbers":"28522,26843,26727,26215,28832","bike_types":{"4":5},"place_type":"0","rack_locks":"1"},{"uid":"2585824","lat":"52.1924709","lng":"20.9596664","name":"W\u0142ochy-Ratusz","spot":"1","number":"9582","bikes":"12","bike_racks":"14","free_racks":"2","terminal_type":"7inch","bike_numbers":"28031,27919,27727,26705,26657,26510,25413,25199,29106,29452,29138,96237","bike_types":{"4":11,"0":1},"place_type":"0","rack_locks":"1"},{"uid":"2585825","lat":"52.1946888","lng":"20.9667823","name":"1 Sierpnia - DK W\u0142ochy","spot":"1","number":"9583","bikes":"13","bike_racks":"15","free_racks":"4","terminal_type":"7inch","bike_numbers":"28731,28003,27743,27546,27493,26878,26125,26029,25434,29200,28942,29359,29652","bike_types":{"4":13},"place_type":"0","rack_locks":"1"},{"uid":"2585827","lat":"52.1888962","lng":"21.0175887","name":"Metro Wierzbno","spot":"1","number":"9584","bikes":"12","bike_racks":"20","free_racks":"8","terminal_type":"7inch","bike_numbers":"28713,28143,27910,27088,26494,26304,26230,26052,25528,25295,29055,96570","bike_types":{"4":12},"place_type":"0","rack_locks":"1"},{"uid":"2585830","lat":"52.18648","lng":"21.02538","name":"Pu\u0142awska - Idzikowskiego","spot":"1","number":"9585","bikes":"9","bike_racks":"17","free_racks":"9","terminal_type":"7inch","bike_numbers":"28497,27223,26748,26746,26640,26187,25826,25758,29035","bike_types":{"4":9},"place_type":"0","rack_locks":"1"},{"uid":"2585835","lat":"52.1882861","lng":"21.0498825","name":"Sobieskiego - Mangalia","spot":"1","number":"9586","bikes":"13","bike_racks":"15","free_racks":"4","terminal_type":"7inch","bike_numbers":"24697,24011,28071,27631,27629,26900,26573,26476,26206,25084,25059,28938,28814","bike_types":{"4":12,"26":1},"place_type":"0","rack_locks":"1"},{"uid":"2585837","lat":"52.178777","lng":"21.0016387","name":"Wo\u0142oska - Marynarska","spot":"1","number":"9588","bikes":"10","bike_racks":"26","free_racks":"16","terminal_type":"7inch","bike_numbers":"28008,27712,27219,26922,26639,26612,26375,25316,29461,29427","bike_types":{"4":10},"place_type":"0","rack_locks":"1"},{"uid":"2585838","lat":"52.1800882","lng":"21.0207403","name":"al. Niepodleg\u0142o\u015bci - al. Wilanowska","spot":"1","number":"9589","bikes":"11","bike_racks":"22","free_racks":"12","terminal_type":"7inch","bike_numbers":"28032,27045,26726,26509,25702,25681,25583,25513,25116,96447,29150","bike_types":{"4":11},"place_type":"0","rack_locks":"1"},{"uid":"2585839","lat":"52.1779163","lng":"21.049562","name":"P\u0119tla Stegny","spot":"1","number":"9590","bikes":"37","bike_racks":"23","free_racks":"0","terminal_type":"7inch","bike_numbers":"24844,24527,24501,24458,28611,28580,28107,27804,27729,27695,27466,27391,27297,27039,26861,26324,26097,26075,25945,25935,25875,25533,25333,25236,25111,25103,29340,28839,96025,63626,63625,96488,96312,96145,29268,29250,29242","bike_types":{"4":36,"51":1},"place_type":"0","rack_locks":"1"},{"uid":"2585843","lat":"52.1818472","lng":"21.0562822","name":"Sobieskiego - \u015bw. Bonifacego","spot":"1","number":"9591","bikes":"19","bike_racks":"22","free_racks":"3","terminal_type":"7inch","bike_numbers":"24737,24522,28822,28696,28108,27890,27793,27402,27318,27093,26467,26070,26005,25026,29365,60863,96043,96405,96224","bike_types":{"4":19},"place_type":"0","rack_locks":"1"},{"uid":"2585844","lat":"52.1702836","lng":"20.9959132","name":"P\u0119tla Bokserska","spot":"1","number":"9592","bikes":"7","bike_racks":"15","free_racks":"8","terminal_type":"7inch","bike_numbers":"28326,28024,26615,25495,25067,25047,28968","bike_types":{"4":7},"place_type":"0","rack_locks":"1"},{"uid":"2585846","lat":"52.1710498","lng":"21.0059144","name":"Gintrowskiego - Gotarda","spot":"1","number":"9593","bikes":"27","bike_racks":"15","free_racks":"0","terminal_type":"7inch","bike_numbers":"24646,24512,28708,28668,28666,28196,28062,27854,27772,27702,27669,27211,27114,26964,26936,26813,26742,26531,25562,25516,25469,29084,29431,25958,28913,96426,96323","bike_types":{"4":27},"place_type":"0","rack_locks":"1"},{"uid":"2585848","lat":"52.174435","lng":"21.0128814","name":"al. Lotnik\u00f3w - Kaczmarskiego","spot":"1","number":"9594","bikes":"20","bike_racks":"30","free_racks":"10","terminal_type":"7inch","bike_numbers":"24489,28502,28467,28437,28216,27993,27820,27425,27392,27091,26561,26524,26356,25772,25414,25267,25153,28964,96051,29208","bike_types":{"51":1,"4":19},"place_type":"0","rack_locks":"1"},{"uid":"2585850","lat":"52.1733132","lng":"21.0257305","name":"Metro S\u0142u\u017cew","spot":"1","number":"9595","bikes":"19","bike_racks":"24","free_racks":"3","terminal_type":"7inch","bike_numbers":"24910,24858,28466,28340,27842,27836,27819,27783,26781,26280,25912,25504,25425,25102,29017,28943,96217,96130,29267","bike_types":{"4":19},"place_type":"0","rack_locks":"1"},{"uid":"2585853","lat":"52.17343","lng":"21.03179","name":"Wa\u0142brzyska - Wr\u00f3bla","spot":"1","number":"9596","bikes":"20","bike_racks":"30","free_racks":"10","terminal_type":"7inch","bike_numbers":"24601,28520,28481,28311,28002,27831,27812,27399,27036,26880,26850,26722,25426,25410,25251,25242,25172,96471,96355,96202","bike_types":{"4":20},"place_type":"0","rack_locks":"1"},{"uid":"2585856","lat":"52.170135","lng":"21.0685748","name":"Jana III Sobieskiego - al. Wilanowska","spot":"1","number":"9597","bikes":"14","bike_racks":"15","free_racks":"0","terminal_type":"7inch","bike_numbers":"24012,27884,27859,27713,27614,27129,27053,27049,26638,26146,25999,25204,25097,25045","bike_types":{"26":1,"4":13},"place_type":"0","rack_locks":"1"},{"uid":"2585860","lat":"52.1655879","lng":"21.0839331","name":"al. Wilanowska - Przycz\u00f3\u0142kowa","spot":"1","number":"9598","bikes":"15","bike_racks":"16","free_racks":"5","terminal_type":"7inch","bike_numbers":"24610,28433,28051,27407,26677,26512,26114,26009,25507,25501,29095,28881,28997,96162,29201","bike_types":{"4":15},"place_type":"0","rack_locks":"1"},{"uid":"2585863","lat":"52.16479","lng":"21.10925","name":"Vogla - Syta","spot":"1","number":"9599","bikes":"10","bike_racks":"16","free_racks":"7","terminal_type":"7inch","bike_numbers":"28448,28256,27834,27825,27474,27373,26557,26434,26345,25808","bike_types":{"4":10},"place_type":"0","rack_locks":"1"},{"uid":"2585868","lat":"52.1606257","lng":"21.0723245","name":"al. Rzeczypospolitej - Klimczaka","spot":"1","number":"9600","bikes":"19","bike_racks":"16","free_racks":"2","terminal_type":"7inch","bike_numbers":"28704,28365,28146,27992,27894,27549,27461,26589,26544,26421,25639,29421,29134,28829,96033,63630,96454,96272,96178","bike_types":{"4":19},"place_type":"0","rack_locks":"1"},{"uid":"2585871","lat":"52.1569168","lng":"21.0760903","name":"al. Rzeczypospolitej - Branickiego","spot":"1","number":"9601","bikes":"13","bike_racks":"16","free_racks":"3","terminal_type":"7inch","bike_numbers":"24484,28321,28092,27433,26966,26695,26520,25870,25697,25502,25274,96424,29220","bike_types":{"51":1,"4":12},"place_type":"0","rack_locks":"1"},{"uid":"2585872","lat":"52.1593735","lng":"21.086449","name":"Przycz\u00f3\u0142kowa - Branickiego","spot":"1","number":"9602","bikes":"11","bike_racks":"16","free_racks":"6","terminal_type":"7inch","bike_numbers":"28513,28416,28257,27196,27169,26484,25361,96040,96343,96338,96330","bike_types":{"4":11},"place_type":"0","rack_locks":"1"},{"uid":"2585873","lat":"52.1618136","lng":"21.0277355","name":"Metro Ursyn\u00f3w II","spot":"1","number":"9603","bikes":"11","bike_racks":"30","free_racks":"20","terminal_type":"7inch","bike_numbers":"24031,28331,27506,26905,26306,25833,25814,29032,28844,96184,96182","bike_types":{"26":1,"4":10},"place_type":"0","rack_locks":"1"},{"uid":"2585875","lat":"52.1622579","lng":"21.0280761","name":"Metro Ursyn\u00f3w I","spot":"1","number":"9604","bikes":"14","bike_racks":"30","free_racks":"16","terminal_type":"7inch","bike_numbers":"24708,24632,24475,24022,28689,27994,27032,26415,26195,25525,29098,96006,96358,29251","bike_types":{"4":12,"51":1,"26":1},"place_type":"0","rack_locks":"1"},{"uid":"2585876","lat":"52.162401","lng":"21.0383811","name":"Jastrz\u0119bowskiego - SGGW","spot":"1","number":"9605","bikes":"22","bike_racks":"28","free_racks":"6","terminal_type":"7inch","bike_numbers":"24975,24862,24611,24476,27981,27878,27694,27431,27147,26904,26818,26357,25776,25512,25493,25442,25196,29346,29024,25628,28974,96465","bike_types":{"4":21,"51":1},"place_type":"0","rack_locks":"1"},{"uid":"2585880","lat":"52.1557534","lng":"21.0232776","name":"Romera - Pieciolinii","spot":"1","number":"9606","bikes":"14","bike_racks":"16","free_racks":"2","terminal_type":"7inch","bike_numbers":"28803,28661,28353,28034,27174,27025,26753,26716,26149,25874,25326,25210,29096,29066","bike_types":{"4":14},"place_type":"0","rack_locks":"1"},{"uid":"2585883","lat":"52.1568674","lng":"21.0338401","name":"Metro Stok\u0142osy","spot":"1","number":"9607","bikes":"21","bike_racks":"27","free_racks":"6","terminal_type":"7inch","bike_numbers":"24797,24712,28698,28349,28343,27471,27453,27077,26525,26458,25934,25571,25482,25384,25373,25331,25184,28940,28868,63621,96195","bike_types":{"4":21},"place_type":"0","rack_locks":"1"},{"uid":"2585885","lat":"52.1572887","lng":"21.0440084","name":"Roso\u0142a - Ciszewskiego - SGGW","spot":"1","number":"9608","bikes":"27","bike_racks":"30","free_racks":"3","terminal_type":"7inch","bike_numbers":"24981,24934,24823,28419,27724,27659,27570,27496,27015,26515,26217,26205,26189,26096,25839,25741,25561,25557,25556,25481,25015,28848,28906,96037,96459,96270,29170","bike_types":{"4":27},"place_type":"0","rack_locks":"1"},{"uid":"2585888","lat":"52.1521429","lng":"21.0181224","name":"Pu\u0142awska - Pileckiego","spot":"1","number":"9609","bikes":"19","bike_racks":"22","free_racks":"4","terminal_type":"7inch","bike_numbers":"24977,24822,28650,28630,28480,27111,26984,26928,26694,26329,25863,25653,25269,60836,28824,28870,96552,96387,29237","bike_types":{"4":19},"place_type":"0","rack_locks":"1"},{"uid":"2585893","lat":"52.1495064","lng":"21.0332527","name":"Ciszewskiego - Pileckiego","spot":"1","number":"9610","bikes":"11","bike_racks":"22","free_racks":"12","terminal_type":"7inch","bike_numbers":"24850,24038,25665,25536,25454,25377,25375,25346,28845,96198,29158","bike_types":{"4":10,"26":1},"place_type":"0","rack_locks":"1"},{"uid":"2585894","lat":"52.1549453","lng":"21.0492977","name":"Roso\u0142a - Gandhi","spot":"1","number":"9611","bikes":"6","bike_racks":"22","free_racks":"16","terminal_type":"7inch","bike_numbers":"24624,26245,25559,25068,63605,96495","bike_types":{"4":6},"place_type":"0","rack_locks":"1"},{"uid":"2585897","lat":"52.1493105","lng":"21.0453361","name":"Metro Imielin","spot":"1","number":"9612","bikes":"1","bike_racks":"22","free_racks":"21","terminal_type":"7inch","bike_numbers":"24886","bike_types":{"4":1},"place_type":"0","rack_locks":"1"},{"uid":"2585899","lat":"52.1522333","lng":"21.0563922","name":"Roso\u0142a - Weso\u0142a","spot":"1","number":"9613","bikes":"12","bike_racks":"23","free_racks":"11","terminal_type":"7inch","bike_numbers":"28366,28361,28215,28048,27923,27745,27672,27585,27234,26883,25648,96245","bike_types":{"4":12},"place_type":"0","rack_locks":"1"},{"uid":"2585901","lat":"52.1427201","lng":"21.0383624","name":"Pileckiego - Alternatywy","spot":"1","number":"9614","bikes":"6","bike_racks":"30","free_racks":"24","terminal_type":"7inch","bike_numbers":"28701,28372,29660,63608,96399,96395","bike_types":{"4":6},"place_type":"0","rack_locks":"1"},{"uid":"2585902","lat":"52.142735","lng":"21.0448131","name":"Dereniowa - P\u0142askowickiej","spot":"1","number":"9615","bikes":"31","bike_racks":"22","free_racks":"0","terminal_type":"7inch","bike_numbers":"24991,24777,24609,28735,28537,28251,28144,28040,27987,27941,27855,27613,27382,27352,26626,26574,26437,26244,26067,25735,25581,25474,25273,29053,29021,28854,63613,96304,96084,29204,96592","bike_types":{"4":31},"place_type":"0","rack_locks":"1"},{"uid":"2585904","lat":"52.1376039","lng":"21.0505531","name":"Stryje\u0144skich - Belgradzka","spot":"1","number":"9616","bikes":"6","bike_racks":"15","free_racks":"9","terminal_type":"7inch","bike_numbers":"24851,27583,27304,26499,96561,96437","bike_types":{"4":6},"place_type":"0","rack_locks":"1"},{"uid":"2585905","lat":"52.1403909","lng":"21.0568187","name":"Metro Natolin","spot":"1","number":"9617","bikes":"23","bike_racks":"30","free_racks":"8","terminal_type":"7inch","bike_numbers":"24953,24629,24554,28748,28099,27829,27781,27618,27507,27251,26845,26688,26341,26212,26105,26102,25964,25255,29552,63614,96107,29192,29177","bike_types":{"4":23},"place_type":"0","rack_locks":"1"},{"uid":"2585906","lat":"52.1420749","lng":"21.0659905","name":"Belgradzka - Roso\u0142a","spot":"1","number":"9618","bikes":"14","bike_racks":"23","free_racks":"9","terminal_type":"7inch","bike_numbers":"24892,28621,28505,28377,27739,27599,26487,26186,29342,28982,96052,96045,63629,29184","bike_types":{"4":14},"place_type":"0","rack_locks":"1"},{"uid":"2585908","lat":"52.1314333","lng":"21.0561562","name":"Stryje\u0144skich - W\u0105wozowa","spot":"1","number":"9619","bikes":"21","bike_racks":"23","free_racks":"2","terminal_type":"7inch","bike_numbers":"24695,28773,28383,28298,28221,28068,28057,27790,27525,26637,26609,25978,25966,25894,25673,25490,25412,25370,25226,63623,60867","bike_types":{"4":21},"place_type":"0","rack_locks":"1"},{"uid":"2585911","lat":"52.3326052","lng":"20.9418404","name":"Ordon\u00f3wny - \u015awiatowida","spot":"1","number":"9620","bikes":"24","bike_racks":"22","free_racks":"0","terminal_type":"7inch","bike_numbers":"24882,24743,28682,28642,28314,27986,27664,27612,26865,26692,26582,26461,26225,26018,25936,25577,25305,25300,25036,25030,96522,96448,96257,96248","bike_types":{"4":24},"place_type":"0","rack_locks":"1"},{"uid":"2585913","lat":"52.1310925","lng":"21.0654795","name":"Metro Kabaty","spot":"1","number":"9621","bikes":"3","bike_racks":"22","free_racks":"18","terminal_type":"7inch","bike_numbers":"27189,63606,24047","bike_types":{"4":2,"26":1},"place_type":"0","rack_locks":"1"},{"uid":"2585916","lat":"52.1332642","lng":"21.0747962","name":"W\u0105wozowa - Roso\u0142a","spot":"1","number":"9622","bikes":"5","bike_racks":"18","free_racks":"12","terminal_type":"7inch","bike_numbers":"28403,28388,29064,28800,96333","bike_types":{"4":5},"place_type":"0","rack_locks":"1"},{"uid":"2585917","lat":"52.324116","lng":"21.05663","name":"Skarbka z G\u00f3r - Berensona","spot":"1","number":"9623","bikes":"22","bike_racks":"26","free_racks":"5","terminal_type":"7inch","bike_numbers":"24939,28657,28619,28607,28277,28090,27821,27680,27632,27279,26881,26768,26707,26430,26194,26152,25916,25587,28812,96020,96430,29246","bike_types":{"4":22},"place_type":"0","rack_locks":"1"},{"uid":"2585919","lat":"52.3485329","lng":"20.9418336","name":"Aluzyjna - Tr\u0105by","spot":"1","number":"9624","bikes":"13","bike_racks":"16","free_racks":"6","terminal_type":"7inch","bike_numbers":"24504,28612,27721,26759,26655,26623,25841,29045,29555,96391,96327,96265,96199","bike_types":{"4":13},"place_type":"0","rack_locks":"1"},{"uid":"2585920","lat":"52.3226982","lng":"20.9448107","name":"\u015awiatowida - Mehoffera","spot":"1","number":"9625","bikes":"12","bike_racks":"16","free_racks":"4","terminal_type":"7inch","bike_numbers":"28821,27779,27335,27170,26674,26651,26330,25646,29077,29373,28878,96190","bike_types":{"4":12},"place_type":"0","rack_locks":"1"},{"uid":"2585921","lat":"52.3212548","lng":"20.9477347","name":"Bia\u0142o\u0142\u0119cki O\u015brodek Sportu","spot":"1","number":"9626","bikes":"23","bike_racks":"30","free_racks":"7","terminal_type":"7inch","bike_numbers":"24993,24926,28671,28652,28426,28072,27847,27445,26954,26941,26575,26551,26489,26172,28995,96044,96042,96486,96481,96137,29181,29223,96591","bike_types":{"4":23},"place_type":"0","rack_locks":"1"},{"uid":"2585922","lat":"52.3211272","lng":"20.9712964","name":"Bia\u0142o\u0142\u0119ka-Ratusz","spot":"1","number":"9627","bikes":"13","bike_racks":"19","free_racks":"6","terminal_type":"7inch","bike_numbers":"24900,24833,24677,28771,28431,27996,27167,26915,25607,29108,96396,96138,29197","bike_types":{"4":13},"place_type":"0","rack_locks":"1"},{"uid":"2585924","lat":"52.3132981","lng":"20.9655324","name":"My\u015bliborska - al. Kukli\u0144skiego","spot":"1","number":"9628","bikes":"14","bike_racks":"22","free_racks":"8","terminal_type":"7inch","bike_numbers":"28190,27952,27868,27303,26835,26834,26620,26076,25915,25736,25599,25139,96306,96185","bike_types":{"4":14},"place_type":"0","rack_locks":"1"},{"uid":"2585925","lat":"52.3031984","lng":"20.9891666","name":"Modli\u0144ska - \u017bera\u0144ska","spot":"1","number":"9629","bikes":"34","bike_racks":"30","free_racks":"0","terminal_type":"7inch","bike_numbers":"24849,24560,28886,28308,28127,27982,27961,27960,27895,27871,27725,27704,26769,26763,26757,26678,26645,26592,26188,25968,25784,25710,25470,25398,25349,25297,25229,25092,29125,29133,96544,96129,96117,29254","bike_types":{"4":32,"0":2},"place_type":"0","rack_locks":"1"},{"uid":"2585926","lat":"52.3150181","lng":"21.0610807","name":"Skarbka z G\u00f3r - Magiczna","spot":"1","number":"9630","bikes":"31","bike_racks":"30","free_racks":"3","terminal_type":"7inch","bike_numbers":"24830,24692,24042,25002,28587,28583,28526,28456,28440,28301,28067,27954,27538,27513,27487,27360,27354,27115,26827,26820,26460,26400,25786,25591,25376,25146,29130,96451,96128,96120,29233","bike_types":{"4":29,"26":1,"0":1},"place_type":"0","rack_locks":"1"},{"uid":"2585928","lat":"52.3000268","lng":"21.0425266","name":"P\u0119tla Br\u00f3dno - Podgrodzie","spot":"1","number":"9631","bikes":"13","bike_racks":"16","free_racks":"8","terminal_type":"7inch","bike_numbers":"28566,28442,28350,27450,27427,27260,27089,26292,25807,25701,25198,28863,29157","bike_types":{"4":13},"place_type":"0","rack_locks":"1"},{"uid":"2585929","lat":"52.2939957","lng":"21.0272258","name":"Rembieli\u0144ska - Kondratowicza","spot":"1","number":"9632","bikes":"11","bike_racks":"23","free_racks":"12","terminal_type":"7inch","bike_numbers":"24700,24672,27742,27462,27435,27037,26208,25526,25089,28849,29160","bike_types":{"4":11},"place_type":"0","rack_locks":"1"},{"uid":"2585931","lat":"52.2917236","lng":"21.0481189","name":"Targ\u00f3wek-Ratusz","spot":"1","number":"9633","bikes":"32","bike_racks":"22","free_racks":"2","terminal_type":"7inch","bike_numbers":"24883,24573,24039,24008,28699,28675,28553,28420,28402,28022,27575,26815,26738,26719,26364,26173,26058,25988,25943,25780,25552,25510,25494,25180,29075,29124,96490,96369,96282,96103,29182,96577","bike_types":{"4":29,"26":2,"0":1},"place_type":"0","rack_locks":"1"},{"uid":"2585932","lat":"52.292208","lng":"21.0419554","name":"Kondratowicza - Chodecka","spot":"1","number":"9634","bikes":"16","bike_racks":"23","free_racks":"6","terminal_type":"7inch","bike_numbers":"28151,28082,28075,27601,27313,26642,26587,26253,26231,25928,25458,25118,29350,29143,96329,29247","bike_types":{"4":15,"0":1},"place_type":"0","rack_locks":"1"},{"uid":"2585934","lat":"52.2925145","lng":"21.0573949","name":"Kondratowicza - Przy Grodzisku","spot":"1","number":"9635","bikes":"13","bike_racks":"18","free_racks":"5","terminal_type":"7inch","bike_numbers":"28651,28278,28120,27342,27300,26817,26433,26140,26048,25712,29082,96041,96526","bike_types":{"4":13},"place_type":"0","rack_locks":"1"},{"uid":"2585936","lat":"52.2878069","lng":"21.0213829","name":"Wysockiego - Poborza\u0144ska","spot":"1","number":"9636","bikes":"24","bike_racks":"23","free_racks":"3","terminal_type":"7inch","bike_numbers":"24644,28758,28524,28368,28305,27138,26979,26599,26472,26313,26153,26138,26108,25929,25815,25462,25406,25170,96015,96574,96539,96524,96080,29222","bike_types":{"4":24},"place_type":"0","rack_locks":"1"},{"uid":"2585937","lat":"52.2885915","lng":"21.0310087","name":"Rembieli\u0144ska - Wyszogrodzka","spot":"1","number":"9637","bikes":"21","bike_racks":"30","free_racks":"10","terminal_type":"7inch","bike_numbers":"28658,28150,28137,28126,28100,27220,26756,26537,26346,26331,26273,26122,26110,25901,28908,29388,28971,96046,96363,96336,96326","bike_types":{"4":21},"place_type":"0","rack_locks":"1"},{"uid":"2585938","lat":"52.2864841","lng":"21.0401998","name":"Chodecka - \u017buromi\u0144ska","spot":"1","number":"9638","bikes":"17","bike_racks":"15","free_racks":"2","terminal_type":"7inch","bike_numbers":"24921,24859,28705,28702,28530,28414,27778,27512,27035,26994,26857,26767,25896,28777,96516,96368,29253","bike_types":{"4":17},"place_type":"0","rack_locks":"1"},{"uid":"2585939","lat":"52.281231017533","lng":"21.025852560997","name":"Wysockiego - Matki Teresy z Kalkuty","spot":"1","number":"9639","bikes":"23","bike_racks":"17","free_racks":"2","terminal_type":"7inch","bike_numbers":"24552,24030,28762,28628,28550,28498,28392,28374,27663,27328,27290,26771,26667,26395,26221,26130,26060,25351,29117,29046,24498,29151,96580","bike_types":{"4":21,"26":1,"51":1},"place_type":"0","rack_locks":"1"},{"uid":"2585941","lat":"52.2835693","lng":"21.0720858","name":"Blokowa - DK Zacisze","spot":"1","number":"9640","bikes":"17","bike_racks":"18","free_racks":"1","terminal_type":"7inch","bike_numbers":"28348,28267,27922,27914,27799,27730,27670,27561,27122,26275,26237,25821,25707,25357,96261,96132,29193","bike_types":{"4":17},"place_type":"0","rack_locks":"1"},{"uid":"2585942","lat":"52.276259","lng":"21.0530748","name":"P\u0119tla Targ\u00f3wek","spot":"1","number":"9641","bikes":"14","bike_racks":"22","free_racks":"8","terminal_type":"7inch","bike_numbers":"24600,28088,27794,27776,27615,27344,26793,26459,26305,26204,25910,25775,25162,29243","bike_types":{"4":14},"place_type":"0","rack_locks":"1"},{"uid":"2585943","lat":"52.27139","lng":"21.01566","name":"Jagiello\u0144ska - ALK","spot":"1","number":"9642","bikes":"9","bike_racks":"16","free_racks":"7","terminal_type":"7inch","bike_numbers":"24548,24525,28294,27667,27644,27361,25560,25167,25075","bike_types":{"4":9},"place_type":"0","rack_locks":"1"},{"uid":"2585947","lat":"52.2694683","lng":"21.0499817","name":"Ossowskiego","spot":"1","number":"9644","bikes":"12","bike_racks":"17","free_racks":"6","terminal_type":"7inch","bike_numbers":"27939,27499,27489,27421,26814,26390,26256,25783,25706,29030,29165,29245","bike_types":{"4":12},"place_type":"0","rack_locks":"1"},{"uid":"2585951","lat":"52.272602123161","lng":"21.063210368156","name":"Radzymi\u0144ska -Trocka","spot":"1","number":"9645","bikes":"21","bike_racks":"20","free_racks":"7","terminal_type":"7inch","bike_numbers":"28686,28362,28359,27814,27422,27397,27341,27134,26718,26281,26163,25882,25169,25148,25122,25117,29004,29003,29135,29199,29230","bike_types":{"4":20,"0":1},"place_type":"0","rack_locks":"1"},{"uid":"2585953","lat":"52.27347","lng":"21.07698","name":"Bukowiecka - Zamkowa","spot":"1","number":"9646","bikes":"10","bike_racks":"15","free_racks":"5","terminal_type":"7inch","bike_numbers":"24604,28106,27405,26263,26151,25977,25483,28954,28778,28963","bike_types":{"4":10},"place_type":"0","rack_locks":"1"},{"uid":"2585954","lat":"52.2668885","lng":"21.0585675","name":"Radzymi\u0144ska - Piotra Skargi","spot":"1","number":"9647","bikes":"26","bike_racks":"20","free_racks":"0","terminal_type":"7inch","bike_numbers":"24901,28339,28274,27916,27807,27751,27133,26491,26396,26214,25926,25919,25596,25359,25337,25323,25263,25248,25228,25141,25032,25016,29120,96106,29202,29226","bike_types":{"4":25,"0":1},"place_type":"0","rack_locks":"1"},{"uid":"2585955","lat":"52.2614369","lng":"21.0155744","name":"Wybrze\u017ce Helskie - ZOO","spot":"1","number":"9648","bikes":"17","bike_racks":"22","free_racks":"6","terminal_type":"7inch","bike_numbers":"24855,24662,28554,28115,27675,27073,27030,26998,26874,26761,26257,26143,26068,29364,29360,96221,96173","bike_types":{"4":17},"place_type":"0","rack_locks":"1"},{"uid":"2585956","lat":"52.2632492","lng":"21.0212231","name":"Rondo Starzy\u0144skiego","spot":"1","number":"9649","bikes":"22","bike_racks":"24","free_racks":"2","terminal_type":"7inch","bike_numbers":"24636,28874,28667,28408,28101,28098,27764,27268,27020,26871,26588,26002,25598,25334,25052,29659,28809,96559,96555,96439,96143,96089","bike_types":{"4":22},"place_type":"0","rack_locks":"1"},{"uid":"2585958","lat":"52.26421","lng":"21.02618","name":"Darwina - Nusbauma-Hilarowicza","spot":"1","number":"9650","bikes":"24","bike_racks":"21","free_racks":"0","terminal_type":"7inch","bike_numbers":"24938,24866,28606,28417,27734,27343,27019,26930,26777,26119,25890,25799,25754,25751,25466,25298,25217,25099,29347,96491,96356,96299,96208,29269","bike_types":{"4":24},"place_type":"0","rack_locks":"1"},{"uid":"2585960","lat":"52.26554","lng":"21.03122","name":"Namys\u0142owska - Darwina","spot":"1","number":"9651","bikes":"18","bike_racks":"15","free_racks":"0","terminal_type":"7inch","bike_numbers":"24780,24701,25003,28719,27503,26529,26501,26081,26073,25700,25663,28936,29429,29142,96286,96267,96116,96581","bike_types":{"4":17,"0":1},"place_type":"0","rack_locks":"1"},{"uid":"2585961","lat":"52.2690405","lng":"21.0379493","name":"Rondo \u017baba","spot":"1","number":"9652","bikes":"12","bike_racks":"22","free_racks":"10","terminal_type":"7inch","bike_numbers":"24606,28357,27520,27437,27323,26847,26844,26440,25564,25246,96302,24049","bike_types":{"4":11,"26":1},"place_type":"0","rack_locks":"1"},{"uid":"2585963","lat":"52.2591682","lng":"21.0262224","name":"Jagiello\u0144ska - Plac Hallera","spot":"1","number":"9653","bikes":"26","bike_racks":"20","free_racks":"0","terminal_type":"7inch","bike_numbers":"24842,24687,24599,24496,24481,28385,28134,27998,27893,27652,27627,26982,26862,26456,26297,26168,26033,25993,25933,25725,25677,25325,96482,96281,96126,29214","bike_types":{"4":24,"51":2},"place_type":"0","rack_locks":"1"},{"uid":"2585964","lat":"52.2613811","lng":"21.0305437","name":"Plac Hallera - Sawinkowa","spot":"1","number":"9654","bikes":"30","bike_racks":"28","free_racks":"3","terminal_type":"7inch","bike_numbers":"24955,24776,24729,24581,28647,28375,28264,28258,28214,28148,27877,27696,27557,27518,27239,27090,27028,26886,26715,26505,26327,25836,25350,25076,25053,29116,96569,96494,96474,96328","bike_types":{"4":30},"place_type":"0","rack_locks":"1"},{"uid":"2585967","lat":"52.263","lng":"21.03418","name":"Namys\u0142owska - Szymanowskiego","spot":"1","number":"9655","bikes":"16","bike_racks":"16","free_racks":"0","terminal_type":"7inch","bike_numbers":"28624,28432,28405,28096,28066,28054,27574,26565,26323,26089,25368,25161,96543,96498,96216,96196","bike_types":{"4":16},"place_type":"0","rack_locks":"1"},{"uid":"2585968","lat":"52.2538188","lng":"21.0231542","name":"Ratuszowa - ZOO","spot":"1","number":"9656","bikes":"22","bike_racks":"23","free_racks":"1","terminal_type":"7inch","bike_numbers":"24811,28732,28616,28560,28303,27833,27502,27446,27385,26846,26229,26150,26111,26085,25989,25767,25415,25130,28960,29644,28859,96401","bike_types":{"4":22},"place_type":"0","rack_locks":"1"},{"uid":"2585971","lat":"52.256355","lng":"21.029538","name":"Jagiello\u0144ska - Ratuszowa","spot":"1","number":"9657","bikes":"11","bike_racks":"16","free_racks":"4","terminal_type":"7inch","bike_numbers":"27837,27484,27413,27331,26730,26685,25813,25739,25182,25150,28989","bike_types":{"4":11},"place_type":"0","rack_locks":"1"},{"uid":"2585972","lat":"52.261449","lng":"21.037614","name":"11 Listopada - Ratuszowa","spot":"1","number":"9658","bikes":"18","bike_racks":"30","free_racks":"14","terminal_type":"7inch","bike_numbers":"24978,24793,28569,28295,28089,28026,27761,27744,27560,26987,26958,26404,26366,26166,25810,25419,96431,29248","bike_types":{"4":18},"place_type":"0","rack_locks":"1"},{"uid":"2585974","lat":"52.263109","lng":"21.0381895","name":"11 listopada - \u015arodkowa","spot":"1","number":"9659","bikes":"14","bike_racks":"18","free_racks":"6","terminal_type":"7inch","bike_numbers":"28515,28369,28006,27818,27660,27576,26611,26464,26360,26224,25445,25018,29446,96167","bike_types":{"4":14},"place_type":"0","rack_locks":"1"},{"uid":"2585975","lat":"52.25839","lng":"21.03537","name":"Stalowa - 11 Listopada","spot":"1","number":"9660","bikes":"19","bike_racks":"24","free_racks":"5","terminal_type":"7inch","bike_numbers":"24770,24456,28660,28659,28471,27800,27384,27366,27158,26517,26104,25787,25588,25541,25341,25264,25157,29037,96108","bike_types":{"4":18,"51":1},"place_type":"0","rack_locks":"1"},{"uid":"2585978","lat":"52.234791","lng":"21.07905","name":"al. Stan\u00f3w Zjednoczonych - Ostrobramska","spot":"1","number":"9661","bikes":"2","bike_racks":"20","free_racks":"18","terminal_type":"7inch","bike_numbers":"27505,26383","bike_types":{"4":2},"place_type":"0","rack_locks":"1"},{"uid":"2585981","lat":"52.2524758","lng":"21.0303479","name":"Floria\u0144ska - Park Praski","spot":"1","number":"9662","bikes":"20","bike_racks":"23","free_racks":"3","terminal_type":"7inch","bike_numbers":"24809,24794,24531,24528,28736,28423,28110,28014,27803,27363,26949,26740,26276,26027,25918,25659,25154,25114,28981,96283","bike_types":{"4":20},"place_type":"0","rack_locks":"1"},{"uid":"2585982","lat":"52.2549757","lng":"21.0339005","name":"Plac Wile\u0144ski","spot":"1","number":"9663","bikes":"27","bike_racks":"30","free_racks":"0","terminal_type":"7inch","bike_numbers":"24913,24838,24696,24537,24044,28697,28678,28511,28499,27775,27424,27406,27054,26644,26197,25778,25635,25580,25553,25491,25268,25093,29456,28978,96487,96398,24046","bike_types":{"4":25,"26":2},"place_type":"0","rack_locks":"1"},{"uid":"2585983","lat":"52.2579576","lng":"21.0399804","name":"Wile\u0144ska - Rzeszotarskiej","spot":"1","number":"9664","bikes":"14","bike_racks":"16","free_racks":"2","terminal_type":"7inch","bike_numbers":"24800,28209,28078,27862,27533,27394,26368,29367,28907,28961,28987,96382,96252,96203","bike_types":{"4":14},"place_type":"0","rack_locks":"1"},{"uid":"2585984","lat":"52.2475848","lng":"20.9568001","name":"al. Prymasa Tysi\u0105clecia - Obozowa","spot":"1","number":"9665","bikes":"4","bike_racks":"13","free_racks":"8","terminal_type":"7inch","bike_numbers":"27710,26209,26062,28888","bike_types":{"4":4},"place_type":"0","rack_locks":"1"},{"uid":"2585985","lat":"52.248607","lng":"21.029647","name":"Okrzei - Panie\u0144ska","spot":"1","number":"9666","bikes":"14","bike_racks":"16","free_racks":"1","terminal_type":"7inch","bike_numbers":"28673,28435,28297,27817,27330,27312,26154,25985,25740,29105,96484,96231,96133,24055","bike_types":{"4":13,"26":1},"place_type":"0","rack_locks":"1"},{"uid":"2585987","lat":"52.2506334","lng":"21.0311174","name":"Sierakowskiego - K\u0142opotowskiego","spot":"1","number":"9667","bikes":"7","bike_racks":"25","free_racks":"19","terminal_type":"7inch","bike_numbers":"27959,26648,26247,26113,25990,25881,25480","bike_types":{"4":7},"place_type":"0","rack_locks":"1"},{"uid":"2585990","lat":"52.2520876","lng":"21.0381368","name":"Targowa - Z\u0105bkowska","spot":"1","number":"9668","bikes":"22","bike_racks":"18","free_racks":"2","terminal_type":"7inch","bike_numbers":"28676,28292,27974,27888,27869,27856,26908,26848,26807,26506,26161,26041,25950,25766,25200,28860,28830,96055,96002,96441,96284,29261","bike_types":{"4":22,"16":1},"place_type":"0","rack_locks":"1"},{"uid":"2585992","lat":"52.2544855","lng":"21.0433458","name":"Fabryka W\u00f3dek Koneser","spot":"1","number":"9669","bikes":"26","bike_racks":"25","free_racks":"0","terminal_type":"7inch","bike_numbers":"24947,24551,24514,25007,28053,28005,27925,27879,27389,27329,27316,27229,27014,26901,26894,26808,26706,26629,26554,25709,25636,25534,25195,96476,96359,29283","bike_types":{"4":26},"place_type":"0","rack_locks":"1"},{"uid":"2585994","lat":"52.2559027","lng":"21.0495613","name":"Radzymi\u0144ska - Wiosenna","spot":"1","number":"9670","bikes":"21","bike_racks":"26","free_racks":"5","terminal_type":"7inch","bike_numbers":"24725,28750,28509,28052,27586,27365,27212,27188,26875,26866,26789,26109,25954,25944,25649,25356,25330,25287,25250,28909,29183","bike_types":{"4":21},"place_type":"0","rack_locks":"1"},{"uid":"2585995","lat":"52.25965","lng":"21.0529","name":"Radzymi\u0144ska - \u0141om\u017cy\u0144ska","spot":"1","number":"9671","bikes":"21","bike_racks":"24","free_racks":"3","terminal_type":"7inch","bike_numbers":"24570,28629,28542,28394,28364,28050,27554,27393,27291,27184,26446,25876,25593,25567,25402,25074,29049,28865,28988,96392,29244","bike_types":{"4":21},"place_type":"0","rack_locks":"1"},{"uid":"2585996","lat":"52.2583512","lng":"21.0585337","name":"P\u0119tla Kaw\u0119czy\u0144ska-Bazylika","spot":"1","number":"9672","bikes":"24","bike_racks":"26","free_racks":"3","terminal_type":"7inch","bike_numbers":"24880,24577,28446,28302,28010,27827,27621,27530,27283,27064,27062,26995,26842,26530,26241,25998,25051,29081,29020,28799,28836,96118,29262,96579","bike_types":{"4":24},"place_type":"0","rack_locks":"1"},{"uid":"2585997","lat":"52.249864871462","lng":"21.042911410332","name":"Targowa - Kijowska","spot":"1","number":"9673","bikes":"12","bike_racks":"18","free_racks":"6","terminal_type":"7inch","bike_numbers":"24658,28404,27755,27717,27225,26522,26495,25855,25782,96536,96361,96127","bike_types":{"4":12},"place_type":"0","rack_locks":"1"},{"uid":"2586000","lat":"52.252745","lng":"21.0510331","name":"Dworzec Wschodni - Kijowska","spot":"1","number":"9674","bikes":"37","bike_racks":"27","free_racks":"1","terminal_type":"7inch","bike_numbers":"24932,24871,24796,24720,24647,24017,28760,28749,28681,28218,28087,28058,28020,28000,27559,27430,27428,27381,27301,26961,26951,26918,26627,26547,26392,26271,25471,25321,25101,25096,25077,25025,29022,28992,29641,96402,29232","bike_types":{"4":36,"26":1},"place_type":"0","rack_locks":"1"},{"uid":"2586001","lat":"52.247314","lng":"21.042731","name":"Metro Stadion Narodowy","spot":"1","number":"9675","bikes":"10","bike_racks":"15","free_racks":"9","terminal_type":"7inch","bike_numbers":"24771,24010,24002,28484,28452,27701,27448,26387,25937,96319","bike_types":{"4":8,"26":2},"place_type":"0","rack_locks":"1"},{"uid":"2586003","lat":"52.2472308","lng":"21.0476456","name":"al. Zieleniecka - Teatr Powszechny","spot":"1","number":"9676","bikes":"1","bike_racks":"14","free_racks":"13","terminal_type":"7inch","bike_numbers":"24761","bike_types":{"4":1},"place_type":"0","rack_locks":"1"},{"uid":"2586005","lat":"52.247346","lng":"21.055947","name":"Grochowska - Mi\u0144ska","spot":"1","number":"9677","bikes":"24","bike_racks":"22","free_racks":"6","terminal_type":"7inch","bike_numbers":"24817,24575,24546,28718,28603,28139,27714,27440,27414,27094,26766,26744,26666,26646,26596,26287,26147,26106,25857,25211,29441,25632,96417,96158","bike_types":{"4":24},"place_type":"0","rack_locks":"1"},{"uid":"2586009","lat":"52.2464","lng":"21.06868","name":"Praga-Po\u0142udnie-Ratusz","spot":"1","number":"9678","bikes":"13","bike_racks":"15","free_racks":"2","terminal_type":"7inch","bike_numbers":"24524,24467,28614,28279,27951,27838,27716,26711,25973,25790,25748,96502,96383","bike_types":{"4":12,"51":1},"place_type":"0","rack_locks":"1"},{"uid":"2586011","lat":"52.2501129","lng":"21.0772011","name":"Dwernickiego - Siennicka","spot":"1","number":"9679","bikes":"33","bike_racks":"25","free_racks":"0","terminal_type":"7inch","bike_numbers":"24915,24893,24626,24483,28490,28412,28406,28330,28254,27886,27388,27276,27017,26965,26957,26660,26654,26571,26213,26211,26126,26054,25699,25283,25245,25160,25126,25065,96034,96563,96266,96146,29265","bike_types":{"4":32,"51":1},"place_type":"0","rack_locks":"1"},{"uid":"2586012","lat":"52.260428882956","lng":"21.041538119316","name":"Stalowa - Czynszowa","spot":"1","number":"9680","bikes":"11","bike_racks":"15","free_racks":"4","terminal_type":"7inch","bike_numbers":"28578,28194,26732,26616,26061,25969,25924,25498,25127,29281,29271","bike_types":{"4":11},"place_type":"0","rack_locks":"1"},{"uid":"2586014","lat":"52.2372419","lng":"21.0437644","name":"Wybrze\u017ce Szczeci\u0144skie - Stadion Narodowy","spot":"1","number":"9681","bikes":"15","bike_racks":"23","free_racks":"8","terminal_type":"7inch","bike_numbers":"24928,24665,24655,24494,28597,28077,27971,27700,27178,26200,25779,25063,96334,96253","bike_types":{"4":13,"51":1},"place_type":"0","rack_locks":"1"},{"uid":"2586018","lat":"52.2387103","lng":"21.0507515","name":"Rondo Waszyngtona - Stadion Narodowy","spot":"1","number":"9682","bikes":"16","bike_racks":"27","free_racks":"10","terminal_type":"7inch","bike_numbers":"28391,28028,28016,27562,27412,26023,26004,25980,25674,25563,25543,25151,29213,28975,96058,96582","bike_types":{"4":16},"place_type":"0","rack_locks":"1"},{"uid":"2586019","lat":"52.242281006874","lng":"21.071160435677","name":"Waszyngtona - Kinowa","spot":"1","number":"9683","bikes":"12","bike_racks":"15","free_racks":"4","terminal_type":"7inch","bike_numbers":"24545,28496,27182,26386,26183,26117,25885,25362,25238,25106,96357,96191","bike_types":{"4":12},"place_type":"0","rack_locks":"1"},{"uid":"2586021","lat":"52.2445639","lng":"21.0838057","name":"Rondo Wiatraczna","spot":"1","number":"9684","bikes":"34","bike_racks":"30","free_racks":"3","terminal_type":"7inch","bike_numbers":"24960,24905,24841,24676,24613,24479,24005,28700,28557,28521,28310,27936,27168,26933,26837,26772,26653,26643,26473,26043,25953,25904,25749,25652,25435,25056,29070,29033,25630,28985,96449,96149,29206,96576","bike_types":{"4":32,"51":1,"26":1},"place_type":"0","rack_locks":"1"},{"uid":"2586022","lat":"52.2347451","lng":"21.053651","name":"Francuska - Walecznych","spot":"1","number":"9685","bikes":"13","bike_racks":"15","free_racks":"2","terminal_type":"7inch","bike_numbers":"24661,28544,27482,26601,26071,25802,25548,25347,25202,25049,25010,28973,28966","bike_types":{"4":13},"place_type":"0","rack_locks":"1"},{"uid":"2586024","lat":"52.236598","lng":"21.064774","name":"Mi\u0119dzynarodowa - Walecznych","spot":"1","number":"9686","bikes":"23","bike_racks":"15","free_racks":"1","terminal_type":"7inch","bike_numbers":"24971,24929,24895,24634,28892,28411,28290,27777,27642,27423,27271,26855,26794,26293,25693,25485,25478,25233,29015,96297,96294,96142,29191","bike_types":{"4":23},"place_type":"0","rack_locks":"1"},{"uid":"2586026","lat":"52.243020071904","lng":"21.102375984192","name":"Plac Szembeka","spot":"1","number":"9687","bikes":"11","bike_racks":"15","free_racks":"4","terminal_type":"7inch","bike_numbers":"24633,28693,27861,27404,27026,26371,26014,25917,25107,28872,96165","bike_types":{"4":11},"place_type":"0","rack_locks":"1"},{"uid":"2586028","lat":"52.237559","lng":"21.120087","name":"P\u0119tla Goc\u0142awek","spot":"1","number":"9688","bikes":"11","bike_racks":"16","free_racks":"5","terminal_type":"7inch","bike_numbers":"24009,27608,27589,27408,27118,25996,25905,25731,25448,96207,96092","bike_types":{"26":1,"4":10},"place_type":"0","rack_locks":"1"},{"uid":"2586030","lat":"52.2258359","lng":"21.0600907","name":"Brukselska - PROM","spot":"1","number":"9689","bikes":"17","bike_racks":"15","free_racks":"1","terminal_type":"7inch","bike_numbers":"24982,24685,24502,28475,28371,28315,27932,27858,27785,27699,27469,26684,26053,25666,29057,25622,29175","bike_types":{"4":17},"place_type":"0","rack_locks":"1"},{"uid":"2586031","lat":"52.260205610017","lng":"21.046854257584","name":"al. Solidarno\u015bci - Szwedzka","spot":"1","number":"9690","bikes":"10","bike_racks":"18","free_racks":"8","terminal_type":"7inch","bike_numbers":"24815,28410,27864,26956,26032,25746,25088,96549,96287,24051","bike_types":{"4":9,"26":1},"place_type":"0","rack_locks":"1"},{"uid":"2586032","lat":"52.230088","lng":"21.067948","name":"al. Stan\u00f3w Zjednoczonych - Mi\u0119dzynarodowa","spot":"1","number":"9691","bikes":"33","bike_racks":"26","free_racks":"0","terminal_type":"7inch","bike_numbers":"24861,24635,24620,24016,28724,28564,28555,28436,28253,28102,27796,27648,27536,27398,27070,26935,26934,26581,25913,25756,25570,25546,25381,25292,25119,25072,28950,29646,28853,28994,96346,96148,96078","bike_types":{"4":32,"26":1},"place_type":"0","rack_locks":"1"},{"uid":"2586034","lat":"52.23483","lng":"21.09975","name":"Ostrobramska - Zamieniecka","spot":"1","number":"9692","bikes":"13","bike_racks":"23","free_racks":"10","terminal_type":"7inch","bike_numbers":"24945,28558,27815,27112,26665,25722,25514,25421,25060,29115,28798,96291,96087","bike_types":{"4":13},"place_type":"0","rack_locks":"1"},{"uid":"2586037","lat":"52.2251969","lng":"21.0712892","name":"Afryka\u0144ska - Egipska","spot":"1","number":"9693","bikes":"8","bike_racks":"16","free_racks":"9","terminal_type":"7inch","bike_numbers":"24969,24539,28802,28491,26176,25344,25314,28864","bike_types":{"4":8},"place_type":"0","rack_locks":"1"},{"uid":"2586039","lat":"52.22837","lng":"21.08581","name":"Abrahama - Kapelan\u00f3w AK","spot":"1","number":"9694","bikes":"14","bike_racks":"15","free_racks":"4","terminal_type":"7inch","bike_numbers":"24972,24918,24748,24589,24029,27920,27243,26897,26442,25744,25079,25627,29187,29147","bike_types":{"4":13,"26":1},"place_type":"0","rack_locks":"1"},{"uid":"2586044","lat":"52.22974","lng":"21.10624","name":"Rechniewskiego - Nowaka-Jeziora\u0144skiego","spot":"1","number":"9696","bikes":"27","bike_racks":"30","free_racks":"4","terminal_type":"7inch","bike_numbers":"24984,24973,24888,28873,28309,28195,28105,28085,27267,27176,26542,26352,26091,26025,25902,25745,25670,25327,25275,25028,28862,28823,96429,96341,96155,29176,29240","bike_types":{"4":27},"place_type":"0","rack_locks":"1"},{"uid":"2586045","lat":"52.2223071","lng":"21.0907259","name":"Meissnera - Fieldorfa","spot":"1","number":"9697","bikes":"15","bike_racks":"15","free_racks":"0","terminal_type":"7inch","bike_numbers":"24505,28465,28322,27870,27693,26367,25296,25013,29451,28852,28841,96054,96410,96324,96249","bike_types":{"4":15},"place_type":"0","rack_locks":"1"},{"uid":"2586268","lat":"52.23938046828","lng":"21.016716957092","name":"Krakowskie Przedmie\u015bcie - Traugutta 2","spot":"1","number":"94931","bikes":"2","bike_racks":"24","free_racks":"22","terminal_type":"7inch","bike_numbers":"27000,29149","bike_types":{"4":2},"place_type":"0","rack_locks":"1"},