[{"region_info":{"lat":"52.2345","lng":"21.0024","zoom":"11","name":"VETURILO Poland","hotline":"+4819115","domain":"vp","country":"PL","country_name":"Poland","terms":"http:\/\/www.veturilo.waw.pl\/terms\/?v=201701","policy":"","website":"http:\/\/www.veturilo.waw.pl\/","show_free_racks":"1","booked_bikes":"0","set_point_bikes":"5277","available_bikes":"4514"},"places_summary":{"lngMin":20.8689688,"lngMax":21.120087,"latMin":52.117285,"latMax":52.3485329,"lngAvg":21.00781180628,"latAvg":52.230676799541},"places":[{"uid":"2585259","lat":"52.296298","lng":"20.9583575","name":"Dewajtis - UKSW","spot":"1","number":"9402","bikes":"28","bike_racks":"30","free_racks":"2","terminal_type":"7inch","bike_numbers":"24931,24846,28768,28680,28620,28442,27097,26991,26968,26923,26860,26786,26774,26608,26475,26294,25956,25612,25472,25461,25433,25407,25077,28958,29428,96392,96249,96112","bike_types":{"4":28},"place_type":"0","rack_locks":"1"},{"uid":"2585263","lat":"52.2909738","lng":"20.9295559","name":"Metro M\u0142ociny","spot":"1","number":"9403","bikes":"25","bike_racks":"30","free_racks":"4","terminal_type":"7inch","bike_numbers":"24874,24680,28707,28682,27784,27756,27752,27098,27038,27007,26915,26696,26477,25931,25914,25592,25586,25322,25249,29364,25961,28878,96524,96448,96265","bike_types":{"4":25},"place_type":"0","rack_locks":"1"},{"uid":"2585265","lat":"52.2901732","lng":"20.9503698","name":"Marymoncka - Dewajtis","spot":"1","number":"9404","bikes":"5","bike_racks":"30","free_racks":"26","terminal_type":"7inch","bike_numbers":"26338,26330,25044,29010,28913","bike_types":{"4":5},"place_type":"0","rack_locks":"1"},{"uid":"2585267","lat":"52.285914","lng":"20.940561","name":"Metro Wawrzyszew","spot":"1","number":"9405","bikes":"16","bike_racks":"20","free_racks":"4","terminal_type":"7inch","bike_numbers":"24847,24574,28280,28071,27801,27631,26798,26632,26555,26506,26286,25937,25544,25114,96376,96321","bike_types":{"4":16},"place_type":"0","rack_locks":"1"},{"uid":"2585269","lat":"52.2336142","lng":"21.0146353","name":"G\u00f3rskiego - Szpitalna","spot":"1","number":"9406","bikes":"14","bike_racks":"16","free_racks":"2","terminal_type":"7inch","bike_numbers":"24907,24774,24671,28704,28098,27463,27211,27162,26139,26052,26015,25460,25360,96156","bike_types":{"4":14},"place_type":"0","rack_locks":"1"},{"uid":"2585271","lat":"52.2816265","lng":"20.9498871","name":"Metro Stare Bielany","spot":"1","number":"9407","bikes":"2","bike_racks":"30","free_racks":"13","terminal_type":"7inch","bike_numbers":"28633,26363","bike_types":{"4":2},"place_type":"0","rack_locks":"1"},{"uid":"2585272","lat":"52.2361217","lng":"21.0219096","name":"Ordynacka - Uniwersytet Muzyczny","spot":"1","number":"9408","bikes":"18","bike_racks":"20","free_racks":"2","terminal_type":"7inch","bike_numbers":"24834,24813,27936,27760,27667,27629,27625,26898,26712,26531,26241,25950,25862,25337,96551,96389,96359,96142","bike_types":{"4":18},"place_type":"0","rack_locks":"1"},{"uid":"2585273","lat":"52.2768774","lng":"20.9481302","name":"Bielany-Ratusz","spot":"1","number":"9409","bikes":"8","bike_racks":"28","free_racks":"20","terminal_type":"7inch","bike_numbers":"24004,28612,28526,27134,26346,26100,25080,96245","bike_types":{"26":1,"4":7},"place_type":"0","rack_locks":"1"},{"uid":"2585275","lat":"52.2761569","lng":"20.9616673","name":"Metro S\u0142odowiec","spot":"1","number":"9410","bikes":"17","bike_racks":"30","free_racks":"13","terminal_type":"7inch","bike_numbers":"24731,28718,28390,27678,27263,27151,26614,26442,26377,25972,25683,25468,25147,29072,28959,96298,96136","bike_types":{"4":17},"place_type":"0","rack_locks":"1"},{"uid":"2585278","lat":"52.2777751","lng":"20.9856999","name":"Potocka - OSiR \u017boliborz","spot":"1","number":"9411","bikes":"13","bike_racks":"15","free_racks":"2","terminal_type":"7inch","bike_numbers":"24891,24491,24006,28478,27143,27119,27072,26841,26834,26343,26083,25796,96546","bike_types":{"4":11,"51":1,"26":1},"place_type":"0","rack_locks":"1"},{"uid":"2585280","lat":"52.273527782989","lng":"20.994186401367","name":"Gwia\u017adzista - Promyka","spot":"1","number":"9412","bikes":"1","bike_racks":"16","free_racks":"15","terminal_type":"7inch","bike_numbers":"29343","bike_types":{"4":1},"place_type":"0","rack_locks":"1"},{"uid":"2585281","lat":"52.270941","lng":"20.9326269","name":"al. Reymonta - Conrada","spot":"1","number":"9413","bikes":"18","bike_racks":"30","free_racks":"12","terminal_type":"7inch","bike_numbers":"24926,28822,28268,27849,27683,27581,26699,26651,26508,26361,26090,26044,25252,25201,29060,29444,28997,96297","bike_types":{"4":18},"place_type":"0","rack_locks":"1"},{"uid":"2585283","lat":"52.2706441","lng":"20.9504181","name":"Broniewskiego - Perzy\u0144skiego","spot":"1","number":"9414","bikes":"26","bike_racks":"16","free_racks":"0","terminal_type":"7inch","bike_numbers":"24843,24730,28409,27912,27824,27412,27191,26963,26564,26464,26386,25970,25939,25734,25677,25178,25090,29087,28936,28831,96511,96484,96439,96408,96390,96332","bike_types":{"4":26},"place_type":"0","rack_locks":"1"},{"uid":"2585284","lat":"52.2714203","lng":"20.9727099","name":"Metro Marymont","spot":"1","number":"9415","bikes":"19","bike_racks":"30","free_racks":"11","terminal_type":"7inch","bike_numbers":"24538,28635,28600,28401,28138,27980,27908,27814,27768,27196,26965,26829,26200,26194,29090,96519,96252,96170,29179","bike_types":{"4":19},"place_type":"0","rack_locks":"1"},{"uid":"2585285","lat":"52.2694081","lng":"20.9833664","name":"Metro Plac Wilsona","spot":"1","number":"9416","bikes":"32","bike_racks":"21","free_racks":"2","terminal_type":"7inch","bike_numbers":"24643,24611,24581,28391,28353,28072,27876,27222,27190,27160,26971,26795,26607,26462,26199,26183,26118,26059,25967,25726,25599,25500,25465,25093,25088,29101,29036,29138,29136,28840,96021,96419","bike_types":{"4":30,"0":2},"place_type":"0","rack_locks":"1"},{"uid":"2585286","lat":"52.2668623","lng":"20.9637032","name":"Broniewskiego - W\u0142o\u015bcia\u0144ska","spot":"1","number":"9417","bikes":"16","bike_racks":"19","free_racks":"8","terminal_type":"7inch","bike_numbers":"24557,28210,27843,27550,27509,27073,26887,26780,26606,26140,25520,25436,29345,96004,96514,96160","bike_types":{"4":16},"place_type":"0","rack_locks":"1"},{"uid":"2585288","lat":"52.2643984","lng":"20.9723179","name":"Broniewskiego - Krasi\u0144skiego","spot":"1","number":"9418","bikes":"1","bike_racks":"16","free_racks":"15","maintenance":"1","terminal_type":"7inch","bike_numbers":"24924","bike_types":{"4":1},"place_type":"0","rack_locks":"1"},{"uid":"2585289","lat":"52.267875","lng":"21.0020667","name":"Wybrze\u017ce Gdy\u0144skie - KS Sp\u00f3jnia","spot":"1","number":"9419","bikes":"10","bike_racks":"15","free_racks":"5","terminal_type":"7inch","bike_numbers":"24835,28533,28318,27867,27789,27329,26801,25993,25230,25036","bike_types":{"4":10},"place_type":"0","rack_locks":"1"},{"uid":"2585291","lat":"52.2624054","lng":"20.9802551","name":"Plac Grunwaldzki","spot":"1","number":"9420","bikes":"24","bike_racks":"30","free_racks":"5","terminal_type":"7inch","bike_numbers":"24558,28775,28743,28710,28696,28598,28584,27893,27782,26946,26278,26181,26135,25719,25642,25176,25081,29352,28910,29128,96288,96200,96131,96591","bike_types":{"4":23,"0":1},"place_type":"0","rack_locks":"1"},{"uid":"2585296","lat":"52.2612575","lng":"20.9863191","name":"Zaj\u0105czka - Bitwy Pod Rokitn\u0105","spot":"1","number":"9421","bikes":"10","bike_racks":"15","free_racks":"5","terminal_type":"7inch","bike_numbers":"24758,28021,26796,26192,25762,96264,96244,96225,96196,29151","bike_types":{"4":10},"place_type":"0","rack_locks":"1"},{"uid":"2585297","lat":"52.2645018","lng":"20.9895998","name":"Plac Inwalid\u00f3w","spot":"1","number":"9422","bikes":"5","bike_racks":"15","free_racks":"10","terminal_type":"7inch","bike_numbers":"24608,27970,26539,25493,96471","bike_types":{"4":5},"place_type":"0","rack_locks":"1"},{"uid":"2585299","lat":"52.258245356688","lng":"20.898613929749","name":"P\u0119tla Stare Bemowo","spot":"1","number":"9423","bikes":"10","bike_racks":"21","free_racks":"10","terminal_type":"7inch","bike_numbers":"27299,26380,25724,25138,28852,28911,96538,96269,96221,29163","bike_types":{"4":10},"place_type":"0","rack_locks":"1"},{"uid":"2585301","lat":"52.260895125763","lng":"20.923923254013","name":"P\u0119tla Nowe Bemowo","spot":"1","number":"9424","bikes":"18","bike_racks":"25","free_racks":"7","terminal_type":"7inch","bike_numbers":"24559,28514,27771,26773,26292,26076,25633,25306,25220,25629,96384,96375,96374,96314,96285,96279,96233,96206","bike_types":{"4":18},"place_type":"0","rack_locks":"1"},{"uid":"2585304","lat":"52.2575903","lng":"20.9323374","name":"Obro\u0144c\u00f3w Tobruku - Pieni\u0105\u017cka","spot":"1","number":"9425","bikes":"11","bike_racks":"12","free_racks":"7","terminal_type":"7inch","bike_numbers":"24582,28694,28316,28049,28047,27438,26394,25197,29061,28824,96007","bike_types":{"4":11},"place_type":"0","rack_locks":"1"},{"uid":"2585305","lat":"52.2593225","lng":"20.9605511","name":"Pow\u0105zkowska - Krasi\u0144skiego","spot":"1","number":"9426","bikes":"20","bike_racks":"23","free_racks":"3","terminal_type":"7inch","bike_numbers":"24966,24905,24898,28032,27459,26279,26223,26098,25869,25866,25404,25102,25073,29039,29654,28844,96543,96355,29178,24050","bike_types":{"4":19,"26":1},"place_type":"0","rack_locks":"1"},{"uid":"2585306","lat":"52.2563145","lng":"20.9682307","name":"Pow\u0105zkowska - Plac Niemena","spot":"1","number":"9427","bikes":"16","bike_racks":"16","free_racks":"4","terminal_type":"7inch","bike_numbers":"24857,24681,24513,28477,28438,28066,27898,27860,27416,27252,26435,26110,26031,25943,25237,29647","bike_types":{"4":16},"place_type":"0","rack_locks":"1"},{"uid":"2585307","lat":"52.258524460024","lng":"20.970931649208","name":"Przasnyska - Rydygiera","spot":"1","number":"9428","bikes":"14","bike_racks":"15","free_racks":"0","terminal_type":"7inch","bike_numbers":"24684,24530,24015,28715,26913,26497,25864,25413,25097,96497,96428,29191,29159,29220","bike_types":{"4":13,"26":1},"place_type":"0","rack_locks":"1"},{"uid":"2585308","lat":"52.253594","lng":"20.9798744","name":"Pow\u0105zkowska - Burakowska","spot":"1","number":"9429","bikes":"12","bike_racks":"20","free_racks":"8","terminal_type":"7inch","bike_numbers":"24662,24635,28885,27939,27050,26736,26451,26403,25661,25303,25302,29126","bike_types":{"4":11,"0":1},"place_type":"0","rack_locks":"1"},{"uid":"2585311","lat":"52.2576018","lng":"20.9944975","name":"Metro Dworzec Gda\u0144ski","spot":"1","number":"9430","bikes":"7","bike_racks":"30","free_racks":"23","terminal_type":"7inch","bike_numbers":"28643,28606,28529,28293,29054,96548,96499","bike_types":{"4":7},"place_type":"0","rack_locks":"1"},{"uid":"2585315","lat":"52.2465952","lng":"20.9429216","name":"Obozowa - Cio\u0142ka","spot":"1","number":"9432","bikes":"6","bike_racks":"13","free_racks":"7","terminal_type":"7inch","bike_numbers":"27744,27702,26468,26222,25621,25254","bike_types":{"4":6},"place_type":"0","rack_locks":"1"},{"uid":"2585317","lat":"52.227621983552","lng":"20.956758856773","name":"al. Prymasa Tysi\u0105clecia - Kasprzaka","spot":"1","number":"9433","bikes":"1","bike_racks":"23","free_racks":"22","terminal_type":"7inch","bike_numbers":"26393","bike_types":{"4":1},"place_type":"0","rack_locks":"1"},{"uid":"2585319","lat":"52.246037","lng":"20.962463","name":"Obozowa - Radziwie","spot":"1","number":"9434","bikes":"7","bike_racks":"13","free_racks":"5","terminal_type":"7inch","bike_numbers":"27749,27483,27236,25697,25390,25362,29188","bike_types":{"4":7},"place_type":"0","rack_locks":"1"},{"uid":"2585321","lat":"52.2514708","lng":"20.9857053","name":"al. Jana Paw\u0142a II - Stawki","spot":"1","number":"9435","bikes":"2","bike_racks":"23","free_racks":"21","terminal_type":"7inch","bike_numbers":"24673,26491","bike_types":{"4":2},"place_type":"0","rack_locks":"1"},{"uid":"2585323","lat":"52.2535305","lng":"20.9924922","name":"Stawki - Dubois","spot":"1","number":"9436","bikes":"5","bike_racks":"13","free_racks":"8","terminal_type":"7inch","bike_numbers":"27687,26682,26532,26062,26047","bike_types":{"4":5},"place_type":"0","rack_locks":"1"},{"uid":"2585326","lat":"52.2541702","lng":"20.9980649","name":"Andersa - Muranowska","spot":"1","number":"9437","bikes":"16","bike_racks":"30","free_racks":"15","terminal_type":"7inch","bike_numbers":"24655,28300,28261,28213,27633,27242,27158,26133,26048,25684,25607,25579,25394,29131,28834,96542","bike_types":{"4":15,"0":1},"place_type":"0","rack_locks":"1"},{"uid":"2585327","lat":"52.255877","lng":"21.0099819","name":"Sanguszki - Wybrze\u017ce Gda\u0144skie","spot":"1","number":"9438","bikes":"19","bike_racks":"28","free_racks":"9","terminal_type":"7inch","bike_numbers":"24944,28873,28772,28412,27827,27425,27087,26686,26643,26630,26526,26131,26055,26011,25511,29449,96126,29154,29206","bike_types":{"4":19},"place_type":"0","rack_locks":"1"},{"uid":"2585328","lat":"52.252175","lng":"20.923692","name":"Wroc\u0142awska \u2013 Bailly","spot":"1","number":"9439","bikes":"6","bike_racks":"27","free_racks":"21","terminal_type":"7inch","bike_numbers":"28638,27046,29111,96031,96227,96153","bike_types":{"4":6},"place_type":"0","rack_locks":"1"},{"uid":"2585330","lat":"52.24418","lng":"20.97794","name":"Okopowa - Anielewicza","spot":"1","number":"9440","bikes":"8","bike_racks":"20","free_racks":"11","terminal_type":"7inch","bike_numbers":"24790,28358,28212,27905,27383,27145,26297,25522","bike_types":{"4":8},"place_type":"0","rack_locks":"1"},{"uid":"2585333","lat":"52.2486","lng":"20.98352","name":"Smocza - Mi\u0142a","spot":"1","number":"9441","bikes":"14","bike_racks":"15","free_racks":"6","terminal_type":"7inch","bike_numbers":"24978,24471,28453,28352,28294,27838,27604,26854,26040,25930,25860,25688,25199,29231","bike_types":{"4":13,"51":1},"place_type":"0","rack_locks":"1"},{"uid":"2585334","lat":"52.24616","lng":"20.98538","name":"Smocza - Anielewicza","spot":"1","number":"9442","bikes":"9","bike_racks":"17","free_racks":"6","terminal_type":"7inch","bike_numbers":"24806,28444,27763,26868,26319,25819,25295,96335,96239","bike_types":{"4":9},"place_type":"0","rack_locks":"1"},{"uid":"2585335","lat":"52.247226","lng":"20.9893155","name":"al. Jana Paw\u0142a II - Anielewicza","spot":"1","number":"9443","bikes":"8","bike_racks":"22","free_racks":"14","terminal_type":"7inch","bike_numbers":"24755,27949,27696,26291,25029,29447,96505,29164","bike_types":{"4":8},"place_type":"0","rack_locks":"1"},{"uid":"2585337","lat":"52.249052","lng":"20.9948923","name":"Anielewicza - Zamenhofa","spot":"1","number":"9444","bikes":"5","bike_racks":"15","free_racks":"7","terminal_type":"7inch","bike_numbers":"28374,27603,26800,96412,96267","bike_types":{"4":5},"place_type":"0","rack_locks":"1"},{"uid":"2585338","lat":"52.2492196","lng":"20.9971878","name":"Anielewicza - Andersa","spot":"1","number":"9445","bikes":"7","bike_racks":"18","free_racks":"8","terminal_type":"7inch","bike_numbers":"24728,28532,28476,27482,25754,25543,25432","bike_types":{"4":7},"place_type":"0","rack_locks":"1"},{"uid":"2585340","lat":"52.251549","lng":"21.002749","name":"Bonifraterska - Franciszka\u0144ska","spot":"1","number":"9446","bikes":"10","bike_racks":"16","free_racks":"5","terminal_type":"7inch","bike_numbers":"28317,28116,27965,27617,26701,26573,25572,25309,29361,96357","bike_types":{"4":10},"place_type":"0","rack_locks":"1"},{"uid":"2585342","lat":"52.2541119","lng":"21.0093342","name":"Ko\u015bcielna - Piesza","spot":"1","number":"9448","bikes":"17","bike_racks":"26","free_racks":"11","terminal_type":"7inch","bike_numbers":"24999,24832,28648,28556,28493,28028,27504,27126,27029,26974,26863,26745,26658,26354,26153,25831,25207","bike_types":{"4":17},"place_type":"0","rack_locks":"1"},{"uid":"2585344","lat":"52.2392622","lng":"20.8987641","name":"P\u0119tla Os. G\u00f3rczewska","spot":"1","number":"9449","bikes":"16","bike_racks":"15","free_racks":"4","terminal_type":"7inch","bike_numbers":"24619,24567,28527,27945,27765,27499,27417,27226,26705,26553,25889,25566,25485,28992,96397,96145","bike_types":{"4":16},"place_type":"0","rack_locks":"1"},{"uid":"2585345","lat":"52.2389287","lng":"20.9139535","name":"Bemowo-Ratusz","spot":"1","number":"9450","bikes":"13","bike_racks":"20","free_racks":"6","terminal_type":"7inch","bike_numbers":"24906,25005,27501,27058,27028,26836,26496,26046,25906,25733,25184,96183,29205","bike_types":{"4":13},"place_type":"0","rack_locks":"1"},{"uid":"2585346","lat":"52.2387861","lng":"20.9424946","name":"Okocimska - Olbrachta","spot":"1","number":"9451","bikes":"13","bike_racks":"18","free_racks":"6","terminal_type":"7inch","bike_numbers":"24631,24616,24522,25004,27892,27854,27806,27284,26640,26439,26144,96422,96178","bike_types":{"4":13},"place_type":"0","rack_locks":"1"},{"uid":"2585349","lat":"52.2506241","lng":"21.0533611","name":"Dworzec Wschodni - Lubelska","spot":"1","number":"9452","bikes":"9","bike_racks":"15","free_racks":"8","terminal_type":"7inch","bike_numbers":"24986,28603,28100,28085,26441,25689,96571,96155,29192","bike_types":{"4":9},"place_type":"0","rack_locks":"1"},{"uid":"2585351","lat":"52.2369249","lng":"20.9723559","name":"Leszno - M\u0142ynarska","spot":"1","number":"9453","bikes":"19","bike_racks":"30","free_racks":"12","terminal_type":"7inch","bike_numbers":"24970,24824,24670,24652,24043,24023,28018,27257,27194,26896,26840,26171,26136,25761,25725,25332,25104,96411,96114","bike_types":{"4":17,"26":2},"place_type":"0","rack_locks":"1"},{"uid":"2585352","lat":"52.2430451","lng":"20.9803864","name":"Dzielna - Bellottiego","spot":"1","number":"9454","bikes":"4","bike_racks":"13","free_racks":"9","terminal_type":"7inch","bike_numbers":"24649,24639,28738,25280","bike_types":{"4":4},"place_type":"0","rack_locks":"1"},{"uid":"2585353","lat":"52.24108","lng":"20.98316","name":"Wolno\u015b\u0107 - Bellottiego","spot":"1","number":"9455","bikes":"9","bike_racks":"16","free_racks":"8","terminal_type":"7inch","bike_numbers":"28253,27969,27396,25605,29455,96466,96415,96235,29187","bike_types":{"4":9},"place_type":"0","rack_locks":"1"},{"uid":"2585354","lat":"52.2435448","lng":"20.9873507","name":"Smocza - Nowolipki","spot":"1","number":"9456","bikes":"6","bike_racks":"16","free_racks":"10","terminal_type":"7inch","bike_numbers":"28769,27962,26170,26148,25488,29195","bike_types":{"4":6},"place_type":"0","rack_locks":"1"},{"uid":"2585356","lat":"52.2445767","lng":"20.99177","name":"al. Jana Paw\u0142a II - Nowolipki","spot":"1","number":"9457","bikes":"3","bike_racks":"16","free_racks":"13","terminal_type":"7inch","bike_numbers":"28005,27691,96275","bike_types":{"4":3},"place_type":"0","rack_locks":"1"},{"uid":"2585358","lat":"52.22868","lng":"20.91509","name":"Powsta\u0144c\u00f3w \u015al\u0105skich - Cz\u0142uchowska","spot":"1","number":"9458","bikes":"16","bike_racks":"16","free_racks":"6","terminal_type":"7inch","bike_numbers":"24747,24742,24707,24540,28664,27497,27333,25189,25113,29657,24555,96460,96192,96171,96166,29185","bike_types":{"4":16},"place_type":"0","rack_locks":"1"},{"uid":"2585360","lat":"52.2342032","lng":"20.934689","name":"Jana Olbrachta - Antka Rozpylacza","spot":"1","number":"9459","bikes":"17","bike_racks":"13","free_racks":"0","terminal_type":"7inch","bike_numbers":"24956,24945,28677,28430,27802,27738,27309,26633,26318,26117,25976,25538,28924,96403,96347,96228,29270","bike_types":{"4":17},"place_type":"0","rack_locks":"1"},{"uid":"2585364","lat":"52.2401623","lng":"20.9877277","name":"Wola-Ratusz","spot":"1","number":"9460","bikes":"9","bike_racks":"15","free_racks":"6","terminal_type":"7inch","bike_numbers":"28523,26467,26420,26112,29144,96224,96204,96193,96076","bike_types":{"4":8,"0":1},"place_type":"0","rack_locks":"1"},{"uid":"2585368","lat":"52.2445326","lng":"20.99998","name":"Plac Bankowy - Kino Muran\u00f3w","spot":"1","number":"9462","bikes":"14","bike_racks":"17","free_racks":"7","terminal_type":"7inch","bike_numbers":"24820,28014,27718,27566,26871,26735,26198,25573,25476,28868,96029,96187,29250,29223","bike_types":{"4":14},"place_type":"0","rack_locks":"1"},{"uid":"2585369","lat":"52.2449465","lng":"21.0012943","name":"Andersa - D\u0142uga","spot":"1","number":"9463","bikes":"26","bike_racks":"30","free_racks":"3","terminal_type":"7inch","bike_numbers":"24705,24663,24646,24506,28365,28191,26920,26719,26476,26372,26336,26290,26093,25984,25902,25782,25604,25301,25095,29020,96540,96516,96506,96172,96102,29239","bike_types":{"4":26},"place_type":"0","rack_locks":"1"},{"uid":"2585370","lat":"52.2442666","lng":"21.0015893","name":"Marsza\u0142kowska - al. Solidarno\u015bci","spot":"1","number":"9464","bikes":"9","bike_racks":"30","free_racks":"19","terminal_type":"7inch","bike_numbers":"24951,24696,28424,27889,26516,26399,25790,25447,25387","bike_types":{"4":9},"place_type":"0","rack_locks":"1"},{"uid":"2585371","lat":"52.2431975","lng":"21.0016603","name":"Plac Bankowy - Ratusz","spot":"1","number":"9465","bikes":"14","bike_racks":"30","free_racks":"16","terminal_type":"7inch","bike_numbers":"24811,24014,28462,27915,27759,27729,27286,27214,27171,26811,26665,26271,28842,96440","bike_types":{"4":13,"26":1},"place_type":"0","rack_locks":"1"},{"uid":"2585373","lat":"52.2435719","lng":"21.0066801","name":"Senatorska - Biela\u0144ska","spot":"1","number":"9466","bikes":"26","bike_racks":"17","free_racks":"0","terminal_type":"7inch","bike_numbers":"24980,24946,28655,28574,28457,27062,27031,26938,26842,26472,26446,26406,26352,26256,25471,25449,25378,25204,25188,25151,25105,28871,28989,96456,96149,29160","bike_types":{"4":26},"place_type":"0","rack_locks":"1"},{"uid":"2585377","lat":"52.246314509834","lng":"21.0113042593","name":"Miodowa","spot":"1","number":"9467","bikes":"28","bike_racks":"24","free_racks":"4","terminal_type":"7inch","bike_numbers":"24867,24615,28821,28801,28654,28538,28517,27977,27700,26809,26743,26592,26549,26514,26470,26184,26177,25989,25960,25732,25270,25264,25183,29027,28825,96416,96167,96165","bike_types":{"4":28},"place_type":"0","rack_locks":"1"},{"uid":"2585378","lat":"52.2435965","lng":"21.0140803","name":"Krakowskie Przedmie\u015bcie - Tr\u0119backa","spot":"1","number":"9468","bikes":"19","bike_racks":"14","free_racks":"1","terminal_type":"7inch","bike_numbers":"24968,24965,24543,24462,28488,28414,28275,28194,27844,27737,26940,26500,26037,25799,25781,25263,96395,29183,29161","bike_types":{"4":18,"51":1},"place_type":"0","rack_locks":"1"},{"uid":"2585379","lat":"52.2465625","lng":"21.0174345","name":"Mariensztat","spot":"1","number":"9469","bikes":"23","bike_racks":"15","free_racks":"1","terminal_type":"7inch","bike_numbers":"24648,24497,28886,28708,27542,27365,27253,27195,26895,26704,26642,26540,26154,25986,25784,28998,96041,96019,96001,96454,96274,29276,29224","bike_types":{"4":22,"51":1},"place_type":"0","rack_locks":"1"},{"uid":"2585381","lat":"52.224934","lng":"20.945489","name":"Jana Kazimierza - Giz\u00f3w","spot":"1","number":"9471","bikes":"4","bike_racks":"13","free_racks":"9","terminal_type":"7inch","bike_numbers":"24591,27897,25480,29238","bike_types":{"4":4},"place_type":"0","rack_locks":"1"},{"uid":"2585385","lat":"52.2299137","lng":"20.9508179","name":"Wolska - Elekcyjna","spot":"1","number":"9472","bikes":"0","bike_racks":"20","free_racks":"18","terminal_type":"7inch","place_type":"0","rack_locks":"1","bike_numbers":null,"bike_types":[]},{"uid":"2585387","lat":"52.237662392829","lng":"20.955492854118","name":"al. Prymasa Tysi\u0105clecia - G\u00f3rczewska","spot":"1","number":"9473","bikes":"9","bike_racks":"20","free_racks":"11","terminal_type":"7inch","bike_numbers":"28899,28596,28320,27993,27946,27272,25504,29092,96016","bike_types":{"4":9},"place_type":"0","rack_locks":"1"},{"uid":"2585389","lat":"52.2333374","lng":"20.9652776","name":"Wolska - P\u0142ocka","spot":"1","number":"9474","bikes":"8","bike_racks":"15","free_racks":"6","terminal_type":"7inch","bike_numbers":"28033,27930,27875,27027,26261,25487,25041,96169","bike_types":{"4":8},"place_type":"0","rack_locks":"1"},{"uid":"2585391","lat":"52.228522296173","lng":"20.969638824463","name":"Kasprzaka - Skierniewicka","spot":"1","number":"9475","bikes":"7","bike_racks":"21","free_racks":"13","terminal_type":"7inch","bike_numbers":"24520,26966,26339,26004,25278,29446,96238","bike_types":{"4":7},"place_type":"0","rack_locks":"1"},{"uid":"2585394","lat":"52.22898","lng":"20.97843","name":"Kasprzaka - Karolkowa","spot":"1","number":"9476","bikes":"5","bike_racks":"15","free_racks":"11","terminal_type":"7inch","bike_numbers":"24507,28611,27355,26428,29387","bike_types":{"4":5},"place_type":"0","rack_locks":"1"},{"uid":"2585396","lat":"52.2328752","lng":"20.9805411","name":"Muzeum Powstania Warszawskiego","spot":"1","number":"9477","bikes":"11","bike_racks":"10","free_racks":"0","terminal_type":"7inch","bike_numbers":"24022,24010,28608,28370,27393,27275,25399,96340,96124,29166,96579","bike_types":{"26":2,"4":9},"place_type":"0","rack_locks":"1"},{"uid":"2585398","lat":"52.22983","lng":"20.983123","name":"Metro Rondo Daszy\u0144skiego","spot":"1","number":"9478","bikes":"16","bike_racks":"26","free_racks":"11","terminal_type":"7inch","bike_numbers":"24848,24782,24455,28263,28147,27883,27269,27224,26921,26443,26273,26024,25193,28934,96296,29226","bike_types":{"4":15,"51":1},"place_type":"0","rack_locks":"1"},{"uid":"2585400","lat":"52.23145","lng":"20.98869","name":"Prosta - Wronia","spot":"1","number":"9479","bikes":"21","bike_racks":"15","free_racks":"0","terminal_type":"7inch","bike_numbers":"24917,24750,24699,24602,24024,28902,28509,28332,28149,27957,27709,27202,26784,26453,26445,26023,25745,25467,25336,96037,96121","bike_types":{"4":20,"26":1},"place_type":"0","rack_locks":"1"},{"uid":"2585401","lat":"52.2373141","lng":"20.9888488","name":"\u017belazna - Ch\u0142odna","spot":"1","number":"9480","bikes":"13","bike_racks":"15","free_racks":"4","terminal_type":"7inch","bike_numbers":"24967,24039,28567,27798,27530,27479,27338,27268,26407,25813,25649,29089,96168","bike_types":{"4":12,"26":1},"place_type":"0","rack_locks":"1"},{"uid":"2585402","lat":"52.2344946","lng":"20.9905117","name":"\u017belazna - Grzybowska","spot":"1","number":"9481","bikes":"18","bike_racks":"20","free_racks":"2","terminal_type":"7inch","bike_numbers":"28479,28443,28257,28069,27963,27055,26964,26783,26348,26215,25885,25714,25320,25272,25250,29086,96024,96135","bike_types":{"4":18},"place_type":"0","rack_locks":"1"},{"uid":"2585405","lat":"52.238666","lng":"20.9957314","name":"al. Jana Paw\u0142a II - Plac Mirowski","spot":"1","number":"9482","bikes":"5","bike_racks":"16","free_racks":"11","terminal_type":"7inch","bike_numbers":"24928,24714,28561,27885,26638","bike_types":{"4":5},"place_type":"0","rack_locks":"1"},{"uid":"2585406","lat":"52.2357151","lng":"20.9966071","name":"al. Jana Paw\u0142a II - Grzybowska","spot":"1","number":"9483","bikes":"5","bike_racks":"23","free_racks":"16","terminal_type":"7inch","bike_numbers":"24932,27264,26875,26552,26225","bike_types":{"4":5},"place_type":"0","rack_locks":"1"},{"uid":"2585410","lat":"52.23958","lng":"21.00027","name":"Ptasia - Zimna","spot":"1","number":"9485","bikes":"7","bike_racks":"16","free_racks":"9","terminal_type":"7inch","bike_numbers":"24571,24569,27723,27328,26486,25311,96128","bike_types":{"4":7},"place_type":"0","rack_locks":"1"},{"uid":"2585412","lat":"52.2336314","lng":"21.0028795","name":"Emilii Plater - \u015awi\u0119tokrzyska","spot":"1","number":"9486","bikes":"16","bike_racks":"26","free_racks":"10","terminal_type":"7inch","bike_numbers":"24636,25000,28659,27385,26906,26617,25982,25973,25259,25158,29116,29079,29553,28867,96473,29207","bike_types":{"4":16},"place_type":"0","rack_locks":"1"},{"uid":"2585413","lat":"52.2358704","lng":"21.0037806","name":"Plac Grzybowski","spot":"1","number":"9487","bikes":"12","bike_racks":"26","free_racks":"14","terminal_type":"7inch","bike_numbers":"24739,28148,28060,27966,27787,27020,26996,25933,25884,25496,96326,96188","bike_types":{"4":12},"place_type":"0","rack_locks":"1"},{"uid":"2585416","lat":"52.2384853","lng":"21.0067552","name":"Marsza\u0142kowska - Kr\u00f3lewska","spot":"1","number":"9488","bikes":"11","bike_racks":"19","free_racks":"8","terminal_type":"7inch","bike_numbers":"24903,24794,24665,28190,27983,27699,27235,26068,25935,25659,28981","bike_types":{"4":11},"place_type":"0","rack_locks":"1"},{"uid":"2585417","lat":"52.2364206","lng":"21.0072407","name":"Marsza\u0142kowska - Zielna","spot":"1","number":"9489","bikes":"7","bike_racks":"30","free_racks":"22","terminal_type":"7inch","bike_numbers":"24767,27165,26925,26864,25776,25222,25202","bike_types":{"4":7},"place_type":"0","rack_locks":"1"},{"uid":"2585420","lat":"52.2397008","lng":"21.0119292","name":"Plac Ma\u0142achowskiego","spot":"1","number":"9491","bikes":"8","bike_racks":"16","free_racks":"9","terminal_type":"7inch","bike_numbers":"28214,28207,28023,27870,27018,25524,29026,96191","bike_types":{"4":8},"place_type":"0","rack_locks":"1"},{"uid":"2585422","lat":"52.2359114","lng":"21.0135654","name":"Plac Powsta\u0144c\u00f3w Warszawy","spot":"1","number":"9492","bikes":"11","bike_racks":"20","free_racks":"9","terminal_type":"7inch","bike_numbers":"28747,28437,27367,27245,25548,25428,29049,29121,96487,29217,96584","bike_types":{"4":10,"0":1},"place_type":"0","rack_locks":"1"},{"uid":"2585423","lat":"52.2393559","lng":"21.016603","name":"Krakowskie Przedmie\u015bcie - Traugutta","spot":"1","number":"9493","bikes":"20","bike_racks":"24","free_racks":"3","terminal_type":"7inch","bike_numbers":"24580,24492,28504,27565,27395,27346,26962,26738,26321,26128,26003,25551,25403,25347,25338,25120,28814,28985,29186,29228","bike_types":{"4":19,"51":1},"place_type":"0","rack_locks":"1"},{"uid":"2585429","lat":"52.238298","lng":"21.0184014","name":"Obo\u017ana - Kopernika","spot":"1","number":"9495","bikes":"19","bike_racks":"22","free_racks":"4","terminal_type":"7inch","bike_numbers":"24565,24545,24542,28712,28650,28521,28080,27653,27526,27182,27015,26239,26057,25478,25051,28877,96023,96573,96208","bike_types":{"4":19},"place_type":"0","rack_locks":"1"},{"uid":"2585430","lat":"52.24190654256","lng":"21.024259328842","name":"Lipowa - Dobra","spot":"1","number":"9496","bikes":"35","bike_racks":"19","free_racks":"0","terminal_type":"7inch","bike_numbers":"24664,24604,28698,28688,28663,28530,28502,28324,27600,27437,27399,27371,27317,27147,26788,26770,26581,26252,25942,25730,25691,25613,29106,29021,96028,96564,96530,96509,96457,96361,96294,96123,96094,29216,24048","bike_types":{"4":34,"26":1},"place_type":"0","rack_locks":"1"},{"uid":"2585431","lat":"52.2413087","lng":"21.0281727","name":"Centrum Nauki Kopernik","spot":"1","number":"9497","bikes":"28","bike_racks":"30","free_racks":"8","terminal_type":"7inch","bike_numbers":"24933,24864,25006,28720,28405,28310,27910,27693,27469,27419,27034,26951,26933,26910,26522,26425,26219,26158,25837,25826,25619,25155,28776,28826,96442,96260,29212,29244","bike_types":{"4":28},"place_type":"0","rack_locks":"1"},{"uid":"2585432","lat":"52.2264464","lng":"20.9837164","name":"Kolejowa","spot":"1","number":"9498","bikes":"1","bike_racks":"16","free_racks":"15","terminal_type":"7inch","bike_numbers":"26732","bike_types":{"4":1},"place_type":"0","rack_locks":"1"},{"uid":"2585433","lat":"52.22983","lng":"20.993996","name":"\u017belazna - Sienna","spot":"1","number":"9499","bikes":"4","bike_racks":"24","free_racks":"20","terminal_type":"7inch","bike_numbers":"27293,26989,26878,25705","bike_types":{"4":4},"place_type":"0","rack_locks":"1"},{"uid":"2585435","lat":"52.230201297582","lng":"20.999550819397","name":"al. Jana Paw\u0142a II - Z\u0142ota","spot":"1","number":"9500","bikes":"6","bike_racks":"16","free_racks":"10","terminal_type":"7inch","bike_numbers":"24745,27690,26694,26203,96461,29173","bike_types":{"4":6},"place_type":"0","rack_locks":"1"},{"uid":"2585438","lat":"52.2309778","lng":"21.0036755","name":"Emilii Plater - Z\u0142ota","spot":"1","number":"9501","bikes":"15","bike_racks":"30","free_racks":"14","terminal_type":"7inch","bike_numbers":"24997,24668,24659,28312,27534,27465,26580,26257,26086,25748,25660,25425,29119,29057,96393","bike_types":{"4":15},"place_type":"0","rack_locks":"1"},{"uid":"2585440","lat":"52.232816601853","lng":"21.006980538368","name":"Pa\u0142ac Kultury i Nauki","spot":"1","number":"9502","bikes":"6","bike_racks":"17","free_racks":"11","terminal_type":"7inch","bike_numbers":"24885,24801,27128,25843,28894,29268","bike_types":{"4":6},"place_type":"0","rack_locks":"1"},{"uid":"2585442","lat":"52.232934","lng":"21.0101791","name":"Marsza\u0142kowska - Z\u0142ota","spot":"1","number":"9503","bikes":"23","bike_racks":"22","free_racks":"0","terminal_type":"7inch","bike_numbers":"24828,24718,24633,28734,28481,28465,28108,27661,27540,26816,26814,26688,26156,26007,25822,25473,25253,29367,96521,96292,96210,96164,29211","bike_types":{"4":23},"place_type":"0","rack_locks":"1"},{"uid":"2585445","lat":"52.231987","lng":"21.016092","name":"Bracka - Krucza","spot":"1","number":"9504","bikes":"14","bike_racks":"20","free_racks":"6","terminal_type":"7inch","bike_numbers":"24814,28706,28073,27727,27510,27375,27374,27129,25708,25704,25681,25310,96060,96101","bike_types":{"4":14},"place_type":"0","rack_locks":"1"},{"uid":"2585446","lat":"52.2355713","lng":"21.0179642","name":"Nowy \u015awiat - Warecka","spot":"1","number":"9505","bikes":"19","bike_racks":"24","free_racks":"4","terminal_type":"7inch","bike_numbers":"28269,28103,28079,27810,27470,27179,26412,26211,25913,25453,25058,29078,29076,29445,28798,28988,96058,96391,96339","bike_types":{"4":19},"place_type":"0","rack_locks":"1"},{"uid":"2585447","lat":"52.2337571","lng":"21.0202789","name":"Ga\u0142czy\u0144skiego - Foksal","spot":"1","number":"9506","bikes":"6","bike_racks":"24","free_racks":"21","terminal_type":"7inch","bike_numbers":"28154,27574,26613,26179,25359,96526","bike_types":{"4":6},"place_type":"0","rack_locks":"1"},{"uid":"2585450","lat":"52.2375934","lng":"21.0256487","name":"Topiel - Tamka","spot":"1","number":"9507","bikes":"15","bike_racks":"20","free_racks":"5","terminal_type":"7inch","bike_numbers":"24509,28685,28272,27734,27418,27030,26884,26240,25013,29456,96014,96012,96477,96356,96109","bike_types":{"4":15},"place_type":"0","rack_locks":"1"},{"uid":"2585452","lat":"52.2358752","lng":"21.0317323","name":"Solec - Jaracza","spot":"1","number":"9508","bikes":"9","bike_racks":"15","free_racks":"3","terminal_type":"7inch","bike_numbers":"24914,28602,28460,27049,26289,25744,29038,96528,96307","bike_types":{"4":9},"place_type":"0","rack_locks":"1"},{"uid":"2585453","lat":"52.2218874","lng":"20.9795301","name":"al. Jerozolimskie - Niemcewicza","spot":"1","number":"9509","bikes":"11","bike_racks":"19","free_racks":"7","terminal_type":"7inch","bike_numbers":"28474,27842,27133,26739,26596,26436,26397,26178,26172,25059,96502","bike_types":{"4":11},"place_type":"0","rack_locks":"1"},{"uid":"2585455","lat":"52.2222155","lng":"20.9866293","name":"Ochota-Ratusz","spot":"1","number":"9510","bikes":"9","bike_racks":"23","free_racks":"9","terminal_type":"7inch","bike_numbers":"24866,24754,28721,27660,26013,96469,96108,29148,29201","bike_types":{"4":9},"place_type":"0","rack_locks":"1"},{"uid":"2585457","lat":"52.2249718","lng":"20.9897661","name":"Plac Zawiszy","spot":"1","number":"9511","bikes":"5","bike_racks":"24","free_racks":"20","terminal_type":"7inch","bike_numbers":"27431,26917,25723,25016,28912","bike_types":{"4":5},"place_type":"0","rack_locks":"1"},{"uid":"2585460","lat":"52.22626","lng":"20.9961309","name":"al. Jerozolimskie - Lindleya","spot":"1","number":"9512","bikes":"10","bike_racks":"15","free_racks":"8","terminal_type":"7inch","bike_numbers":"24672,27401,27322,27099,25875,25071,29063,96177,29156,96586","bike_types":{"4":10},"place_type":"0","rack_locks":"1"},{"uid":"2585462","lat":"52.2241455","lng":"20.9975244","name":"Lindleya - szpital","spot":"1","number":"9513","bikes":"30","bike_racks":"28","free_racks":"0","terminal_type":"7inch","bike_numbers":"24992,24854,24795,28563,28547,28485,27477,27403,26916,26882,26772,26662,26518,26484,26396,26315,26142,25634,25381,25298,25145,29344,29113,29365,96498,96414,96241,96113,96099,96095","bike_types":{"4":30},"place_type":"0","rack_locks":"1"},{"uid":"2585464","lat":"52.227861","lng":"21.0008509","name":"Warszawa \u015ar\u00f3dmie\u015bcie WKD","spot":"1","number":"9514","bikes":"4","bike_racks":"18","free_racks":"15","terminal_type":"7inch","bike_numbers":"27086,25383,96080,24053","bike_types":{"4":3,"26":1},"place_type":"0","rack_locks":"1"},{"uid":"2585466","lat":"52.2249555","lng":"21.0031664","name":"Oczki - WUM","spot":"1","number":"9515","bikes":"15","bike_racks":"19","free_racks":"4","terminal_type":"7inch","bike_numbers":"24877,24732,28572,28555,28142,27496,27174,27146,27008,26395,26323,26266,25156,96033,29282","bike_types":{"4":15},"place_type":"0","rack_locks":"1"},{"uid":"2585469","lat":"52.2290464","lng":"21.0054544","name":"Emilii Plater - Al. Jerozolimskie","spot":"1","number":"9517","bikes":"25","bike_racks":"30","free_racks":"3","terminal_type":"7inch","bike_numbers":"24958,24737,28295,28140,27568,27444,27201,26874,26785,26767,26762,26408,26381,26259,26045,26014,25676,25669,25568,25540,25532,25325,25072,25049,96589","bike_types":{"4":25},"place_type":"0","rack_locks":"1"},{"uid":"2585470","lat":"52.2259343","lng":"21.0067537","name":"Emilii Plater - Wsp\u00f3lna","spot":"1","number":"9518","bikes":"1","bike_racks":"15","free_racks":"13","terminal_type":"7inch","bike_numbers":"24706","bike_types":{"4":1},"place_type":"0","rack_locks":"1"},{"uid":"2585472","lat":"52.23001","lng":"21.01088","name":"Metro Centrum","spot":"1","number":"9519","bikes":"11","bike_racks":"30","free_racks":"19","terminal_type":"7inch","bike_numbers":"28107,27610,27480,27427,27344,26846,26778,25214,25094,96431,96585","bike_types":{"4":11},"place_type":"0","rack_locks":"1"},{"uid":"2585473","lat":"52.229347019086","lng":"21.011314988136","name":"Marsza\u0142kowska - Al. Jerozolimskie","spot":"1","number":"9520","bikes":"5","bike_racks":"20","free_racks":"14","terminal_type":"7inch","bike_numbers":"28763,27669,26729,26103,25334","bike_types":{"4":5},"place_type":"0","rack_locks":"1"},{"uid":"2585476","lat":"52.230418150276","lng":"21.013610959053","name":"al. Jerozolimskie - rejon Rotundy","spot":"1","number":"9521","bikes":"11","bike_racks":"24","free_racks":"8","terminal_type":"7inch","bike_numbers":"24589,28646,28276,27614,27118,25484,25279,25223,25074,28883,96214","bike_types":{"4":11},"place_type":"0","rack_locks":"1"},{"uid":"2585477","lat":"52.2262882","lng":"21.0135705","name":"Marsza\u0142kowska - Ho\u017ca","spot":"1","number":"9522","bikes":"7","bike_racks":"15","free_racks":"6","terminal_type":"7inch","bike_numbers":"28716,27502,27255,27066,27032,28961,96151","bike_types":{"4":7},"place_type":"0","rack_locks":"1"},{"uid":"2585492","lat":"52.2282923","lng":"21.0178542","name":"Krucza - Wsp\u00f3lna","spot":"1","number":"9523","bikes":"18","bike_racks":"28","free_racks":"10","terminal_type":"7inch","bike_numbers":"24523,28510,28031,27952,27869,27453,27131,26679,26089,25932,25925,25923,25655,25481,25195,25137,29147,29255","bike_types":{"4":18},"place_type":"0","rack_locks":"1"},{"uid":"2585684","lat":"52.23144","lng":"21.0213036","name":"Rondo de Gaulle'a","spot":"1","number":"9524","bikes":"4","bike_racks":"22","free_racks":"17","terminal_type":"7inch","bike_numbers":"25391,29656,96081,29280","bike_types":{"4":4},"place_type":"0","rack_locks":"1"},{"uid":"2585694","lat":"52.2278487","lng":"21.0235084","name":"Plac Trzech Krzy\u017cy","spot":"1","number":"9525","bikes":"2","bike_racks":"23","free_racks":"17","maintenance":"1","terminal_type":"7inch","bike_numbers":"24716,96566","bike_types":{"4":2},"place_type":"0","rack_locks":"1"},{"uid":"2585695","lat":"52.23324","lng":"21.0261179","name":"Smolna - PKP Powi\u015ble","spot":"1","number":"9526","bikes":"3","bike_racks":"18","free_racks":"15","terminal_type":"7inch","bike_numbers":"28363,96406,96106","bike_types":{"4":3},"place_type":"0","rack_locks":"1"},{"uid":"2585699","lat":"52.2340191","lng":"21.0300328","name":"Herberta - PKP Powi\u015ble","spot":"1","number":"9527","bikes":"19","bike_racks":"26","free_racks":"14","terminal_type":"7inch","bike_numbers":"24875,24859,24459,24036,28408,28297,28121,27757,27615,27088,25736,25132,29080,29448,29554,28888,28918,96304,29153","bike_types":{"4":17,"51":1,"54":1},"place_type":"0","rack_locks":"1"},{"uid":"2585704","lat":"52.2347879","lng":"21.0340991","name":"Solec - al. 3 Maja","spot":"1","number":"9528","bikes":"14","bike_racks":"24","free_racks":"8","terminal_type":"7inch","bike_numbers":"24735,24553,28472,28458,28123,28102,27606,26982,25911,25842,96034,96493,96186,96576","bike_types":{"4":14},"place_type":"0","rack_locks":"1"},{"uid":"2585708","lat":"52.2301405","lng":"21.0303694","name":"Ksi\u0105\u017c\u0119ca - Rozbrat","spot":"1","number":"9529","bikes":"12","bike_racks":"15","free_racks":"7","terminal_type":"7inch","bike_numbers":"24881,28749,28565,28019,27831,27779,26208,26147,25405,25342,25083,25035","bike_types":{"4":12},"place_type":"0","rack_locks":"1"},{"uid":"2585711","lat":"52.2172177","lng":"20.9713608","name":"Szcz\u0119\u015bliwicka - APS","spot":"1","number":"9530","bikes":"11","bike_racks":"22","free_racks":"11","terminal_type":"7inch","bike_numbers":"24033,28692,27380,27036,26988,26865,26733,25412,29458,96179,96089","bike_types":{"26":1,"4":10},"place_type":"0","rack_locks":"1"},{"uid":"2585712","lat":"52.2179474","lng":"20.9775567","name":"Kopi\u0144ska - Bia\u0142obrzeska","spot":"1","number":"9531","bikes":"2","bike_racks":"15","free_racks":"12","terminal_type":"7inch","bike_numbers":"24539,29240","bike_types":{"4":2},"place_type":"0","rack_locks":"1"},{"uid":"2585714","lat":"52.2178554","lng":"20.9828138","name":"Plac Narutowicza","spot":"1","number":"9532","bikes":"8","bike_racks":"30","free_racks":"16","terminal_type":"7inch","bike_numbers":"28599,28271,27525,27061,26930,26711,25585,29022","bike_types":{"4":8},"place_type":"0","rack_locks":"1"},{"uid":"2585716","lat":"52.216641","lng":"20.9879476","name":"Raszy\u0144ska - Wawelska","spot":"1","number":"9533","bikes":"0","bike_racks":"12","free_racks":"10","terminal_type":"7inch","place_type":"0","rack_locks":"1","bike_numbers":null,"bike_types":[]},{"uid":"2585717","lat":"52.2191029","lng":"20.9890149","name":"Raszy\u0144ska - Filtrowa","spot":"1","number":"9534","bikes":"1","bike_racks":"18","free_racks":"17","terminal_type":"7inch","place_type":"0","rack_locks":"1","bike_numbers":null,"bike_types":[]},{"uid":"2585720","lat":"52.220676","lng":"21.0045554","name":"al. Niepodleg\u0142o\u015bci - Nowowiejska","spot":"1","number":"9535","bikes":"16","bike_racks":"30","free_racks":"11","terminal_type":"7inch","bike_numbers":"24995,24683,24549,28296,27488,27384,27026,27004,26342,26288,25847,25668,25317,29146,96382,96243","bike_types":{"4":15,"0":1},"place_type":"0","rack_locks":"1"},{"uid":"2585721","lat":"52.2174693","lng":"21.0056537","name":"Kaczy\u0144skiego - al. Niepodleg\u0142o\u015bci","spot":"1","number":"9536","bikes":"16","bike_racks":"16","free_racks":"4","terminal_type":"7inch","bike_numbers":"28644,28624,28473,28307,28208,28084,27593,27563,27506,27406,26585,26546,25395,25142,29081,29189","bike_types":{"4":16},"place_type":"0","rack_locks":"1"},{"uid":"2585722","lat":"52.2226831","lng":"21.0081097","name":"Noakowskiego - Koszykowa","spot":"1","number":"9537","bikes":"16","bike_racks":"24","free_racks":"7","terminal_type":"7inch","bike_numbers":"24478,28703,28041,27995,27967,27486,27217,27096,26912,26559,26545,26009,96054,96248,96152,96105","bike_types":{"51":1,"4":15},"place_type":"0","rack_locks":"1"},{"uid":"2585724","lat":"52.219916","lng":"21.0116824","name":"Plac Politechniki","spot":"1","number":"9538","bikes":"3","bike_racks":"27","free_racks":"24","terminal_type":"7inch","bike_numbers":"24916,26893,96407","bike_types":{"4":3},"place_type":"0","rack_locks":"1"},{"uid":"2585727","lat":"52.223503","lng":"21.0128519","name":"Pozna\u0144ska - Zesp\u00f3\u0142 Szk\u00f3\u0142 Gastronomicznych","spot":"1","number":"9539","bikes":"16","bike_racks":"18","free_racks":"4","terminal_type":"7inch","bike_numbers":"24687,24628,28342,27927,27846,27743,27670,27379,27259,27039,26797,26270,25786,25533,96048,29168","bike_types":{"4":16},"place_type":"0","rack_locks":"1"},{"uid":"2585728","lat":"52.2174857","lng":"21.0142949","name":"Rondo Jazdy Polskiej","spot":"1","number":"9540","bikes":"8","bike_racks":"24","free_racks":"16","terminal_type":"7inch","bike_numbers":"28528,28262,26422,26001,25640,25431,25341,29134","bike_types":{"4":8},"place_type":"0","rack_locks":"1"},{"uid":"2585729","lat":"52.2197435","lng":"21.0157353","name":"Metro Politechnika - Nowowiejska","spot":"1","number":"9541","bikes":"4","bike_racks":"18","free_racks":"14","terminal_type":"7inch","bike_numbers":"28083,26071,29050,96100","bike_types":{"4":4},"place_type":"0","rack_locks":"1"},{"uid":"2585731","lat":"52.2197681","lng":"21.0172775","name":"Plac Zbawiciela","spot":"1","number":"9542","bikes":"6","bike_racks":"12","free_racks":"4","terminal_type":"7inch","bike_numbers":"28537,28469,26867,26371,26246,26054","bike_types":{"4":6},"place_type":"0","rack_locks":"1"},{"uid":"2585735","lat":"52.2229427","lng":"21.0158211","name":"Plac Konstytucji","spot":"1","number":"9543","bikes":"18","bike_racks":"30","free_racks":"11","terminal_type":"7inch","bike_numbers":"24596,28735,28054,27994,27968,27665,27423,27153,27104,26718,26326,26191,26061,25890,25654,25499,25242,96482","bike_types":{"4":18},"place_type":"0","rack_locks":"1"},{"uid":"2585737","lat":"52.2238152","lng":"21.0207859","name":"Mokotowska - Pi\u0119kna","spot":"1","number":"9544","bikes":"23","bike_racks":"20","free_racks":"7","terminal_type":"7inch","bike_numbers":"24844,24693,28193,27888,27745,27735,27707,27626,27454,27369,26660,26079,26019,25756,25722,25686,25576,28833,96022,96558,96503,96259,96154","bike_types":{"4":23},"place_type":"0","rack_locks":"1"},{"uid":"2585738","lat":"52.2200212","lng":"21.0256299","name":"Plac na Rozdro\u017cu","spot":"1","number":"9545","bikes":"9","bike_racks":"26","free_racks":"16","terminal_type":"7inch","bike_numbers":"26805,26543,26402,26248,26210,25118,29084,96122,29174","bike_types":{"4":9},"place_type":"0","rack_locks":"1"},{"uid":"2585742","lat":"52.2249504","lng":"21.0268155","name":"Matejki - Wiejska","spot":"1","number":"9546","bikes":"24","bike_racks":"20","free_racks":"0","terminal_type":"7inch","bike_numbers":"24971,24823,24476,24465,28766,28558,27884,27882,27594,27582,26900,26513,26481,26101,25977,25848,25824,25580,25393,25173,25020,29347,96568,96211","bike_types":{"4":22,"51":2},"place_type":"0","rack_locks":"1"},{"uid":"2585747","lat":"52.2221129","lng":"21.0343873","name":"My\u015bliwiecka - Rozbrat","spot":"1","number":"9547","bikes":"26","bike_racks":"21","free_racks":"6","terminal_type":"7inch","bike_numbers":"24895,24654,24469,28745,28595,28120,28040,27775,27716,27711,27685,26934,26926,26830,26742,26164,26028,25859,25069,29073,29357,28805,96561,96492,96319,29219","bike_types":{"4":25,"51":1},"place_type":"0","rack_locks":"1"},{"uid":"2585748","lat":"52.2277124","lng":"21.0442955","name":"Port Czerniakowski","spot":"1","number":"9548","bikes":"44","bike_racks":"30","free_racks":"0","terminal_type":"7inch","bike_numbers":"24865,24861,24802,24626,24502,28802,28579,28573,28495,28486,28397,28375,28355,28283,27836,27701,27640,27218,27192,27125,26944,26826,26571,26490,26478,26258,25773,25475,25369,25330,25299,25243,29083,29065,29024,29012,25622,28972,28970,96026,96565,96520,96500,96418","bike_types":{"4":44},"place_type":"0","rack_locks":"1"},{"uid":"2585749","lat":"52.2109711","lng":"20.9759125","name":"Gr\u00f3jecka - Bitwy Warszawskiej 1920 roku","spot":"1","number":"9549","bikes":"12","bike_racks":"20","free_racks":"6","terminal_type":"7inch","bike_numbers":"24961,28389,28325,27289,26431,26145,25945,25363,25122,28855,96450,96295","bike_types":{"4":12},"place_type":"0","rack_locks":"1"},{"uid":"2585750","lat":"52.2130296","lng":"20.9819985","name":"Pasteura - Winnicka - UW","spot":"1","number":"9550","bikes":"15","bike_racks":"24","free_racks":"7","terminal_type":"7inch","bike_numbers":"28491,28196,27189,27064,27024,26519,26457,26384,25644,25430,25422,28857,96417,96377,29227","bike_types":{"4":15},"place_type":"0","rack_locks":"1"},{"uid":"2585762","lat":"52.2107722","lng":"20.9847557","name":"Stefana Banacha - UW","spot":"1","number":"9551","bikes":"2","bike_racks":"29","free_racks":"21","terminal_type":"7inch","bike_numbers":"28146,60854","bike_types":{"4":2},"place_type":"0","rack_locks":"1"},{"uid":"2585764","lat":"52.212671","lng":"21.003437","name":"Biblioteka Narodowa","spot":"1","number":"9552","bikes":"4","bike_racks":"24","free_racks":"19","terminal_type":"7inch","bike_numbers":"26232,25308,25116,96362","bike_types":{"4":4},"place_type":"0","rack_locks":"1"},{"uid":"2585766","lat":"52.21691","lng":"21.01997","name":"Marsza\u0142kowska - Litewska","spot":"1","number":"9553","bikes":"16","bike_racks":"15","free_racks":"0","terminal_type":"7inch","bike_numbers":"28904,28604,28406,27586,27390,27216,26760,26438,25802,25469,25451,25420,25385,96255,96226,24052","bike_types":{"4":15,"26":1},"place_type":"0","rack_locks":"1"},{"uid":"2585770","lat":"52.2083858","lng":"20.9631103","name":"P\u0119tla Szcz\u0119\u015bliwice","spot":"1","number":"9554","bikes":"20","bike_racks":"19","free_racks":"0","terminal_type":"7inch","bike_numbers":"24736,24519,24482,28112,28034,27848,27421,27141,27130,27016,26975,26725,26426,25844,25610,25062,96006,96253,96125,29169","bike_types":{"4":19,"51":1},"place_type":"0","rack_locks":"1"},{"uid":"2585771","lat":"52.206153650625","lng":"20.970287919044","name":"Dickensa - Geodet\u00f3w","spot":"1","number":"9555","bikes":"0","bike_racks":"16","free_racks":"15","terminal_type":"7inch","place_type":"0","rack_locks":"1","bike_numbers":null,"bike_types":[]},{"uid":"2585772","lat":"52.205361371875","lng":"20.984664559364","name":"\u017bwirki i Wigury - Ksi\u0119cia Trojdena","spot":"1","number":"9556","bikes":"2","bike_racks":"17","free_racks":"15","terminal_type":"7inch","bike_numbers":"24927,25800","bike_types":{"4":2},"place_type":"0","rack_locks":"1"},{"uid":"2585774","lat":"52.205801893754","lng":"20.998928546906","name":"Rakowiecka - \u015aw. A. Boboli","spot":"1","number":"9557","bikes":"6","bike_racks":"17","free_racks":"12","terminal_type":"7inch","bike_numbers":"24850,24717,24040,28732,28589,27082","bike_types":{"4":5,"26":1},"place_type":"0","rack_locks":"1"},{"uid":"2585776","lat":"52.209916","lng":"21.0067794","name":"al. Niepodleg\u0142o\u015bci - Batorego","spot":"1","number":"9558","bikes":"18","bike_racks":"26","free_racks":"4","terminal_type":"7inch","bike_numbers":"24983,24871,24726,24642,24638,28892,28220,28038,27740,27674,26727,26610,26137,26124,26099,25854,29127,25632","bike_types":{"4":17,"0":1},"place_type":"0","rack_locks":"1"},{"uid":"2585779","lat":"52.2132375","lng":"21.0210568","name":"Plac Unii Lubelskiej","spot":"1","number":"9559","bikes":"14","bike_racks":"24","free_racks":"9","terminal_type":"7inch","bike_numbers":"24496,28755,28550,27964,27420,27296,26189,25361,25175,29140,96197,96140,29257,29251","bike_types":{"51":1,"4":12,"0":1},"place_type":"0","rack_locks":"1"},{"uid":"2585781","lat":"52.2027557","lng":"20.9508951","name":"W\u0142odarzewska - Maszynowa","spot":"1","number":"9560","bikes":"1","bike_racks":"18","free_racks":"17","terminal_type":"7inch","bike_numbers":"27880","bike_types":{"4":1},"place_type":"0","rack_locks":"1"},{"uid":"2585782","lat":"52.2017647","lng":"20.9820897","name":"Sanocka - Pruszkowska","spot":"1","number":"9561","bikes":"5","bike_racks":"15","free_racks":"9","terminal_type":"7inch","bike_numbers":"24031,28322,25947,25729,25177","bike_types":{"26":1,"4":4},"place_type":"0","rack_locks":"1"},{"uid":"2585785","lat":"52.1981365","lng":"20.9833717","name":"\u017bwirki i Wigury - Rac\u0142awicka","spot":"1","number":"9562","bikes":"8","bike_racks":"18","free_racks":"7","terminal_type":"7inch","bike_numbers":"24632,28429,27256,27083,26945,26313,96552,29252","bike_types":{"4":8},"place_type":"0","rack_locks":"1"},{"uid":"2585787","lat":"52.20177","lng":"20.99969","name":"Wo\u0142oska - Kulskiego","spot":"1","number":"9563","bikes":"0","bike_racks":"15","free_racks":"15","terminal_type":"7inch","place_type":"0","rack_locks":"1","bike_numbers":null,"bike_types":[]},{"uid":"2585788","lat":"52.2042638","lng":"21.014428","name":"Madali\u0144skiego - Kazimierzowska","spot":"1","number":"9564","bikes":"20","bike_racks":"24","free_racks":"4","terminal_type":"7inch","bike_numbers":"24991,24669,24483,28494,28446,27541,27368,26981,26919,26579,26039,25998,25741,25687,25651,29338,29107,28808,96330,29165","bike_types":{"4":19,"51":1},"place_type":"0","rack_locks":"1"},{"uid":"2585789","lat":"52.2055175","lng":"21.0231033","name":"Pu\u0142awska - Dworkowa","spot":"1","number":"9565","bikes":"3","bike_racks":"19","free_racks":"16","terminal_type":"7inch","bike_numbers":"27362,26766,25408","bike_types":{"4":3},"place_type":"0","rack_locks":"1"},{"uid":"2585790","lat":"52.2071756","lng":"21.0312643","name":"Belwederska - Gagarina","spot":"1","number":"9566","bikes":"28","bike_racks":"30","free_racks":"5","terminal_type":"7inch","bike_numbers":"24781,24656,24627,24612,28482,28065,27713,27705,27508,27409,27262,27132,27100,26983,26839,26369,26073,26010,25938,25851,25489,25027,28938,29359,96479,96342,96083,29259","bike_types":{"4":28},"place_type":"0","rack_locks":"1"},{"uid":"2585791","lat":"52.2074193","lng":"21.0479621","name":"Czerniakowska - Gagarina","spot":"1","number":"9567","bikes":"40","bike_racks":"25","free_racks":"0","terminal_type":"7inch","bike_numbers":"24816,24773,24645,24607,24584,24534,28723,28626,28586,28341,28136,27982,27956,27932,27866,27719,27652,27343,27302,27266,27181,26927,26850,26465,26309,26285,26115,26042,26030,26006,25990,25589,25086,25046,25033,29200,28935,96485,96426,96365","bike_types":{"4":40},"place_type":"0","rack_locks":"1"},{"uid":"2585794","lat":"52.1938131","lng":"20.9914431","name":"Etiudy Rewolucyjnej - Mi\u0105czy\u0144ska","spot":"1","number":"9568","bikes":"3","bike_racks":"18","free_racks":"14","terminal_type":"7inch","bike_numbers":"28379,25849,29218","bike_types":{"4":3},"place_type":"0","rack_locks":"1"},{"uid":"2585799","lat":"52.1994156","lng":"21.0121384","name":"Metro Rac\u0142awicka","spot":"1","number":"9570","bikes":"11","bike_racks":"30","free_racks":"18","terminal_type":"7inch","bike_numbers":"24550,24524,24458,25009,27809,27051,26936,26821,26586,25344,29044","bike_types":{"4":10,"51":1},"place_type":"0","rack_locks":"1"},{"uid":"2585800","lat":"52.199505","lng":"21.0240975","name":"Pu\u0142awska - Dolna","spot":"1","number":"9571","bikes":"2","bike_racks":"18","free_racks":"16","terminal_type":"7inch","bike_numbers":"27074,29017","bike_types":{"4":2},"place_type":"0","rack_locks":"1"},{"uid":"2585802","lat":"52.2014754","lng":"21.0360047","name":"Sobieskiego - Che\u0142mska","spot":"1","number":"9572","bikes":"47","bike_racks":"15","free_racks":"0","terminal_type":"7inch","bike_numbers":"24987,24873,24622,28759,28701,28546,28418,28410,28400,28015,27890,27672,27407,27248,27247,27244,27164,27095,27022,27000,26889,26591,26561,26544,26471,26460,26378,26185,26180,25880,25871,25778,25755,25695,25648,25508,25346,25109,28909,28854,28895,96010,96527,96474,96268,96092,29275","bike_types":{"4":47},"place_type":"0","rack_locks":"1"},{"uid":"2585804","lat":"52.1998446","lng":"21.05095","name":"Czerniakowska - ZUS","spot":"1","number":"9573","bikes":"10","bike_racks":"15","free_racks":"5","terminal_type":"7inch","bike_numbers":"24929,28315,27139,27081,26367,26308,26065,25314,28830,28893","bike_types":{"4":10},"place_type":"0","rack_locks":"1"},{"uid":"2585807","lat":"52.1916776","lng":"20.8689688","name":"PKP Ursus-Nied\u017awiadek","spot":"1","number":"9574","bikes":"5","bike_racks":"15","free_racks":"10","terminal_type":"7inch","bike_numbers":"27598,27205,29452,96345,96236","bike_types":{"4":5},"place_type":"0","rack_locks":"1"},{"uid":"2585808","lat":"52.1960469","lng":"20.8849347","name":"PKP Ursus","spot":"1","number":"9575","bikes":"4","bike_racks":"16","free_racks":"11","terminal_type":"7inch","bike_numbers":"26328,25888,25667,96470","bike_types":{"4":4},"place_type":"0","rack_locks":"1"},{"uid":"2585809","lat":"52.1869936","lng":"20.8906478","name":"Sosnkowskiego - OSiR Ursus","spot":"1","number":"9576","bikes":"7","bike_racks":"15","free_racks":"8","terminal_type":"7inch","bike_numbers":"24576,28336,28122,27569,26350,25256,96091","bike_types":{"4":7},"place_type":"0","rack_locks":"1"},{"uid":"2585811","lat":"52.2005548","lng":"20.8937538","name":"Ursus-Ratusz","spot":"1","number":"9577","bikes":"5","bike_racks":"15","free_racks":"8","terminal_type":"7inch","bike_numbers":"28905,28135,27464,26708,26602","bike_types":{"4":5},"place_type":"0","rack_locks":"1"},{"uid":"2585814","lat":"52.1906376","lng":"20.8999443","name":"Skoroszewska - Prystora","spot":"1","number":"9578","bikes":"11","bike_racks":"17","free_racks":"6","terminal_type":"7inch","bike_numbers":"24016,28668,28591,28287,27942,25924,25897,25830,25194,28921,96301","bike_types":{"26":1,"4":10},"place_type":"0","rack_locks":"1"},{"uid":"2585817","lat":"52.1882609","lng":"20.9603771","name":"G\u0142adka - OSiR W\u0142ochy","spot":"1","number":"9579","bikes":"9","bike_racks":"16","free_racks":"7","terminal_type":"7inch","bike_numbers":"24935,24453,28110,26715,26067,25974,25494,25354,28890","bike_types":{"4":8,"51":1},"place_type":"0","rack_locks":"1"},{"uid":"2585820","lat":"52.2056441","lng":"20.9159142","name":"PKP W\u0142ochy","spot":"1","number":"9580","bikes":"7","bike_racks":"17","free_racks":"10","terminal_type":"7inch","bike_numbers":"27918,27638,25323,25221,29104,96535,96400","bike_types":{"4":7},"place_type":"0","rack_locks":"1"},{"uid":"2585821","lat":"52.2012157","lng":"20.9353145","name":"al. Jerozolimskie - Popularna","spot":"1","number":"9581","bikes":"3","bike_racks":"17","free_racks":"14","terminal_type":"7inch","bike_numbers":"27624,96246,96592","bike_types":{"4":3},"place_type":"0","rack_locks":"1"},{"uid":"2585824","lat":"52.1924709","lng":"20.9596664","name":"W\u0142ochy-Ratusz","spot":"1","number":"9582","bikes":"8","bike_racks":"14","free_racks":"4","terminal_type":"7inch","bike_numbers":"28687,28133,27935,25581,25373,25239,28816,96364","bike_types":{"4":8},"place_type":"0","rack_locks":"1"},{"uid":"2585825","lat":"52.1946888","lng":"20.9667823","name":"1 Sierpnia - DK W\u0142ochy","spot":"1","number":"9583","bikes":"9","bike_racks":"15","free_racks":"6","terminal_type":"7inch","bike_numbers":"24577,28726,28417,28115,27324,26492,29454,29124,96423","bike_types":{"4":8,"0":1},"place_type":"0","rack_locks":"1"},{"uid":"2585827","lat":"52.1888962","lng":"21.0175887","name":"Metro Wierzbno","spot":"1","number":"9584","bikes":"1","bike_racks":"20","free_racks":"14","terminal_type":"7inch","bike_numbers":"25327","bike_types":{"4":1},"place_type":"0","rack_locks":"1"},{"uid":"2585830","lat":"52.18648","lng":"21.02538","name":"Pu\u0142awska - Idzikowskiego","spot":"1","number":"9585","bikes":"2","bike_racks":"17","free_racks":"15","terminal_type":"7inch","bike_numbers":"24921,25210","bike_types":{"4":2},"place_type":"0","rack_locks":"1"},{"uid":"2585835","lat":"52.1882861","lng":"21.0498825","name":"Sobieskiego - Mangalia","spot":"1","number":"9586","bikes":"14","bike_racks":"15","free_racks":"0","terminal_type":"7inch","bike_numbers":"24697,28282,27951,27641,26710,26146,25823,25439,25015,28944,28941,28975,96562,96455","bike_types":{"4":14},"place_type":"0","rack_locks":"1"},{"uid":"2585837","lat":"52.178777","lng":"21.0016387","name":"Wo\u0142oska - Marynarska","spot":"1","number":"9588","bikes":"11","bike_racks":"26","free_racks":"15","terminal_type":"7inch","bike_numbers":"24783,24744,28757,28731,27772,27198,26828,26074,28828,96444,96349","bike_types":{"4":11},"place_type":"0","rack_locks":"1"},{"uid":"2585838","lat":"52.1800882","lng":"21.0207403","name":"al. Niepodleg\u0142o\u015bci - al. Wilanowska","spot":"1","number":"9589","bikes":"6","bike_racks":"22","free_racks":"15","terminal_type":"7inch","bike_numbers":"28729,26615,26119,25940,28813,96025","bike_types":{"4":6},"place_type":"0","rack_locks":"1"},{"uid":"2585839","lat":"52.1779163","lng":"21.049562","name":"P\u0119tla Stegny","spot":"1","number":"9590","bikes":"19","bike_racks":"23","free_racks":"4","terminal_type":"7inch","bike_numbers":"24934,24856,24723,24484,28689,26646,26364,26072,26038,25474,25241,25111,29372,96036,96459,96363,96209,96184,96159","bike_types":{"4":18,"51":1},"place_type":"0","rack_locks":"1"},{"uid":"2585843","lat":"52.1818472","lng":"21.0562822","name":"Sobieskiego - \u015bw. Bonifacego","spot":"1","number":"9591","bikes":"19","bike_racks":"22","free_racks":"5","terminal_type":"7inch","bike_numbers":"24981,28898,28334,27835,27659,27519,27402,26668,26161,26070,25846,25720,25696,25635,25594,25542,25440,25031,96119","bike_types":{"4":19},"place_type":"0","rack_locks":"1"},{"uid":"2585844","lat":"52.1702836","lng":"20.9959132","name":"P\u0119tla Bokserska","spot":"1","number":"9592","bikes":"12","bike_racks":"15","free_racks":"6","terminal_type":"7inch","bike_numbers":"24974,24954,24827,24593,28666,28048,27564,26728,26507,25814,29055,96458","bike_types":{"4":12},"place_type":"0","rack_locks":"1"},{"uid":"2585846","lat":"52.1710498","lng":"21.0059144","name":"Gintrowskiego - Gotarda","spot":"1","number":"9593","bikes":"21","bike_racks":"15","free_racks":"0","terminal_type":"7inch","bike_numbers":"24748,24698,28869,28714,27919,27896,26776,26664,26654,26466,26358,26108,25839,25491,25271,28940,29431,28835,96229,96079,29214","bike_types":{"4":21},"place_type":"0","rack_locks":"1"},{"uid":"2585848","lat":"52.174435","lng":"21.0128814","name":"al. Lotnik\u00f3w - Kaczmarskiego","spot":"1","number":"9594","bikes":"12","bike_racks":"30","free_racks":"17","terminal_type":"7inch","bike_numbers":"24475,28683,28384,28068,27695,27511,27304,26356,25999,25818,96523,96127","bike_types":{"51":1,"4":11},"place_type":"0","rack_locks":"1"},{"uid":"2585850","lat":"52.1733132","lng":"21.0257305","name":"Metro S\u0142u\u017cew","spot":"1","number":"9595","bikes":"10","bike_racks":"24","free_racks":"14","terminal_type":"7inch","bike_numbers":"24011,28321,28117,26928,26746,26087,25507,25291,25273,96282","bike_types":{"26":1,"4":9},"place_type":"0","rack_locks":"1"},{"uid":"2585853","lat":"52.17343","lng":"21.03179","name":"Wa\u0142brzyska - Wr\u00f3bla","spot":"1","number":"9596","bikes":"20","bike_racks":"30","free_racks":"10","terminal_type":"7inch","bike_numbers":"24851,28580,28413,27741,27495,26411,26376,26280,26053,25703,25528,25495,25427,25148,28943,28847,28827,96563,96148,29210","bike_types":{"4":20},"place_type":"0","rack_locks":"1"},{"uid":"2585856","lat":"52.170135","lng":"21.0685748","name":"Jana III Sobieskiego - al. Wilanowska","spot":"1","number":"9597","bikes":"13","bike_racks":"15","free_racks":"0","terminal_type":"7inch","bike_numbers":"28361,28256,28131,27925,27348,27159,26734,26458,26365,25991,28917,96050,96251","bike_types":{"4":13},"place_type":"0","rack_locks":"1"},{"uid":"2585860","lat":"52.1655879","lng":"21.0839331","name":"al. Wilanowska - Przycz\u00f3\u0142kowa","spot":"1","number":"9598","bikes":"6","bike_racks":"16","free_racks":"10","terminal_type":"7inch","bike_numbers":"26663,26434,26389,25611,96057,96343","bike_types":{"4":6},"place_type":"0","rack_locks":"1"},{"uid":"2585863","lat":"52.16479","lng":"21.10925","name":"Vogla - Syta","spot":"1","number":"9599","bikes":"6","bike_racks":"16","free_racks":"11","terminal_type":"7inch","bike_numbers":"24910,24489,24012,27474,25459,29349","bike_types":{"4":4,"51":1,"26":1},"place_type":"0","rack_locks":"1"},{"uid":"2585868","lat":"52.1606257","lng":"21.0723245","name":"al. Rzeczypospolitej - Klimczaka","spot":"1","number":"9600","bikes":"10","bike_racks":"16","free_racks":"5","terminal_type":"7inch","bike_numbers":"28640,28613,27992,27767,27434,26669,26512,25808,25502,96437","bike_types":{"4":10},"place_type":"0","rack_locks":"1"},{"uid":"2585871","lat":"52.1569168","lng":"21.0760903","name":"al. Rzeczypospolitej - Branickiego","spot":"1","number":"9601","bikes":"21","bike_racks":"16","free_racks":"1","terminal_type":"7inch","bike_numbers":"24797,24791,28104,27941,27923,27823,26612,26474,26448,26104,25870,25658,25343,25234,25129,25040,28870,96570,96405,29170,29237","bike_types":{"4":21},"place_type":"0","rack_locks":"1"},{"uid":"2585872","lat":"52.1593735","lng":"21.086449","name":"Przycz\u00f3\u0142kowa - Branickiego","spot":"1","number":"9602","bikes":"16","bike_racks":"16","free_racks":"0","terminal_type":"7inch","bike_numbers":"28615,28513,28497,27961,27834,27241,26598,26230,26114,25829,25501,25232,25185,28881,28967,28991","bike_types":{"4":16},"place_type":"0","rack_locks":"1"},{"uid":"2585873","lat":"52.1618136","lng":"21.0277355","name":"Metro Ursyn\u00f3w II","spot":"1","number":"9603","bikes":"25","bike_racks":"30","free_racks":"5","terminal_type":"7inch","bike_numbers":"24953,28803,28661,28551,28433,28326,28144,27851,27599,27461,27111,27075,26873,26609,25556,25550,25283,29040,29035,29435,28839,96020,96517,96084,29177","bike_types":{"4":25},"place_type":"0","rack_locks":"1"},{"uid":"2585875","lat":"52.1622579","lng":"21.0280761","name":"Metro Ursyn\u00f3w I","spot":"1","number":"9604","bikes":"7","bike_racks":"30","free_racks":"23","terminal_type":"7inch","bike_numbers":"24894,24786,24544,28366,27878,26520,63621","bike_types":{"4":7},"place_type":"0","rack_locks":"1"},{"uid":"2585876","lat":"52.162401","lng":"21.0383811","name":"Jastrz\u0119bowskiego - SGGW","spot":"1","number":"9605","bikes":"13","bike_racks":"28","free_racks":"14","terminal_type":"7inch","bike_numbers":"24708,28818,28505,28327,27976,27829,27352,27117,26904,26639,25877,25426,96433","bike_types":{"4":13},"place_type":"0","rack_locks":"1"},{"uid":"2585880","lat":"52.1557534","lng":"21.0232776","name":"Romera - Pieciolinii","spot":"1","number":"9606","bikes":"10","bike_racks":"16","free_racks":"6","terminal_type":"7inch","bike_numbers":"24975,24822,28111,27547,26707,26499,26155,25737,28994,96402","bike_types":{"4":10},"place_type":"0","rack_locks":"1"},{"uid":"2585883","lat":"52.1568674","lng":"21.0338401","name":"Metro Stok\u0142osy","spot":"1","number":"9607","bikes":"26","bike_racks":"27","free_racks":"2","terminal_type":"7inch","bike_numbers":"24892,24860,24515,28383,28106,27820,27732,27724,27671,27308,27306,27091,27053,26781,26186,26126,25789,25701,25692,25559,25557,29427,29141,28896,96230,96175","bike_types":{"4":25,"0":1},"place_type":"0","rack_locks":"1"},{"uid":"2585885","lat":"52.1572887","lng":"21.0440084","name":"Roso\u0142a - Ciszewskiego - SGGW","spot":"1","number":"9608","bikes":"2","bike_racks":"30","free_racks":"28","terminal_type":"7inch","bike_numbers":"28630,25274","bike_types":{"4":2},"place_type":"0","rack_locks":"1"},{"uid":"2585888","lat":"52.1521429","lng":"21.0181224","name":"Pu\u0142awska - Pileckiego","spot":"1","number":"9609","bikes":"23","bike_racks":"22","free_racks":"2","terminal_type":"7inch","bike_numbers":"24741,24624,28903,28631,28445,28416,28377,28356,28001,27938,27793,27327,26637,26589,26523,25817,25584,25392,25315,25045,29114,63605,96394","bike_types":{"4":23},"place_type":"0","rack_locks":"1"},{"uid":"2585893","lat":"52.1495064","lng":"21.0332527","name":"Ciszewskiego - Pileckiego","spot":"1","number":"9610","bikes":"15","bike_racks":"22","free_racks":"7","terminal_type":"7inch","bike_numbers":"24637,24554,28056,28010,26105,25665,25514,25172,29096,29053,28811,28979,63629,96425,96338","bike_types":{"4":15},"place_type":"0","rack_locks":"1"},{"uid":"2585894","lat":"52.1549453","lng":"21.0492977","name":"Roso\u0142a - Gandhi","spot":"1","number":"9611","bikes":"2","bike_racks":"22","free_racks":"20","terminal_type":"7inch","bike_numbers":"26671,26056","bike_types":{"4":2},"place_type":"0","rack_locks":"1"},{"uid":"2585897","lat":"52.1493105","lng":"21.0453361","name":"Metro Imielin","spot":"1","number":"9612","bikes":"16","bike_racks":"22","free_racks":"6","terminal_type":"7inch","bike_numbers":"24715,24601,27987,27471,25850,25536,25424,25319,25236,25153,25026,25010,28952,96040,96465,96399","bike_types":{"4":16},"place_type":"0","rack_locks":"1"},{"uid":"2585899","lat":"52.1522333","lng":"21.0563922","name":"Roso\u0142a - Weso\u0142a","spot":"1","number":"9613","bikes":"1","bike_racks":"23","free_racks":"22","terminal_type":"7inch","bike_numbers":"28051","bike_types":{"4":1},"place_type":"0","rack_locks":"1"},{"uid":"2585901","lat":"52.1427201","lng":"21.0383624","name":"Pileckiego - Alternatywy","spot":"1","number":"9614","bikes":"11","bike_racks":"30","free_racks":"22","terminal_type":"7inch","bike_numbers":"24886,28002,27583,27529,26993,26574,26333,25867,25718,25285,96085","bike_types":{"4":11},"place_type":"0","rack_locks":"1"},{"uid":"2585902","lat":"52.142735","lng":"21.0448131","name":"Dereniowa - P\u0142askowickiej","spot":"1","number":"9615","bikes":"14","bike_racks":"22","free_racks":"8","terminal_type":"7inch","bike_numbers":"24702,24640,28622,28345,27620,26409,25964,25555,25246,25135,25117,29660,63613,96182","bike_types":{"4":14},"place_type":"0","rack_locks":"1"},{"uid":"2585904","lat":"52.1376039","lng":"21.0505531","name":"Stryje\u0144skich - Belgradzka","spot":"1","number":"9616","bikes":"7","bike_racks":"15","free_racks":"8","terminal_type":"7inch","bike_numbers":"24005,28024,27228,26244,25874,25224,25067","bike_types":{"26":1,"4":6},"place_type":"0","rack_locks":"1"},{"uid":"2585905","lat":"52.1403909","lng":"21.0568187","name":"Metro Natolin","spot":"1","number":"9617","bikes":"23","bike_racks":"30","free_racks":"7","terminal_type":"7inch","bike_numbers":"24026,28748,28621,28403,28343,28298,28059,27556,27234,26487,26341,25377,25174,25161,60855,28974,28982,96053,96039,63628,96388,96358,96277","bike_types":{"26":1,"4":22},"place_type":"0","rack_locks":"1"},{"uid":"2585906","lat":"52.1420749","lng":"21.0659905","name":"Belgradzka - Roso\u0142a","spot":"1","number":"9618","bikes":"29","bike_racks":"23","free_racks":"0","terminal_type":"7inch","bike_numbers":"24984,24712,28466,28057,27855,27781,27507,27373,27288,27071,26845,26818,26748,26722,26515,26504,26494,26345,26304,25981,25908,25675,25331,25286,25251,25068,29064,60867,29184","bike_types":{"4":29},"place_type":"0","rack_locks":"1"},{"uid":"2585908","lat":"52.1314333","lng":"21.0561562","name":"Stryje\u0144skich - W\u0105wozowa","spot":"1","number":"9619","bikes":"10","bike_racks":"23","free_racks":"13","terminal_type":"7inch","bike_numbers":"28372,28221,28099,27585,26212,25966,25535,25490,29421,60863","bike_types":{"4":10},"place_type":"0","rack_locks":"1"},{"uid":"2585911","lat":"52.3326052","lng":"20.9418404","name":"Ordon\u00f3wny - \u015awiatowida","spot":"1","number":"9620","bikes":"18","bike_racks":"22","free_racks":"7","terminal_type":"7inch","bike_numbers":"24993,24882,24743,24677,28671,28314,27664,27450,27447,27335,25936,25030,29045,28995,96042,96481,29181,29272","bike_types":{"4":18},"place_type":"0","rack_locks":"1"},{"uid":"2585913","lat":"52.1310925","lng":"21.0654795","name":"Metro Kabaty","spot":"1","number":"9621","bikes":"26","bike_racks":"22","free_racks":"3","terminal_type":"7inch","bike_numbers":"24942,24887,24817,28349,28340,28311,27635,27618,27613,27549,26753,26726,26652,26421,26375,25934,25828,25735,25582,25389,25225,60831,63615,96515,96409,96162","bike_types":{"4":26},"place_type":"0","rack_locks":"1"},{"uid":"2585916","lat":"52.1332642","lng":"21.0747962","name":"W\u0105wozowa - Roso\u0142a","spot":"1","number":"9622","bikes":"15","bike_racks":"18","free_racks":"4","terminal_type":"7inch","bike_numbers":"24922,24691,27894,27770,27426,27251,27068,27043,26984,26096,25437,28800,28968,96504,96312","bike_types":{"4":15},"place_type":"0","rack_locks":"1"},{"uid":"2585917","lat":"52.324116","lng":"21.05663","name":"Skarbka z G\u00f3r - Berensona","spot":"1","number":"9623","bikes":"11","bike_racks":"26","free_racks":"15","terminal_type":"7inch","bike_numbers":"28657,28277,28090,27821,27680,26881,26768,25587,28812,96430,29246","bike_types":{"4":11},"place_type":"0","rack_locks":"1"},{"uid":"2585919","lat":"52.3485329","lng":"20.9418336","name":"Aluzyjna - Tr\u0105by","spot":"1","number":"9624","bikes":"18","bike_racks":"16","free_racks":"0","terminal_type":"7inch","bike_numbers":"24833,25003,28653,28431,27986,27167,26759,26752,26623,25841,25506,25305,25300,29071,29555,96327,96199,96190","bike_types":{"4":18},"place_type":"0","rack_locks":"1"},{"uid":"2585920","lat":"52.3226982","lng":"20.9448107","name":"\u015awiatowida - Mehoffera","spot":"1","number":"9625","bikes":"12","bike_racks":"16","free_racks":"4","terminal_type":"7inch","bike_numbers":"24818,24504,28524,27721,27587,27415,27152,26461,26018,25646,29373,29197","bike_types":{"4":12},"place_type":"0","rack_locks":"1"},{"uid":"2585921","lat":"52.3212548","lng":"20.9477347","name":"Bia\u0142o\u0142\u0119cki O\u015brodek Sportu","spot":"1","number":"9626","bikes":"7","bike_racks":"30","free_racks":"23","terminal_type":"7inch","bike_numbers":"28426,26954,26575,26489,96463,96257,96078","bike_types":{"4":7},"place_type":"0","rack_locks":"1"},{"uid":"2585922","lat":"52.3211272","lng":"20.9712964","name":"Bia\u0142o\u0142\u0119ka-Ratusz","spot":"1","number":"9627","bikes":"8","bike_racks":"19","free_racks":"13","terminal_type":"7inch","bike_numbers":"24900,28771,28562,27794,27733,26645,25603,96396","bike_types":{"4":8},"place_type":"0","rack_locks":"1"},{"uid":"2585924","lat":"52.3132981","lng":"20.9655324","name":"My\u015bliborska - al. Kukli\u0144skiego","spot":"1","number":"9628","bikes":"19","bike_racks":"22","free_racks":"3","terminal_type":"7inch","bike_numbers":"24713,28628,28395,27902,27895,27847,27673,26967,26852,26835,26551,26060,25915,25577,25564,25419,25139,29025,96306","bike_types":{"4":19},"place_type":"0","rack_locks":"1"},{"uid":"2585925","lat":"52.3031984","lng":"20.9891666","name":"Modli\u0144ska - \u017bera\u0144ska","spot":"1","number":"9629","bikes":"29","bike_racks":"30","free_racks":"3","terminal_type":"7inch","bike_numbers":"24849,24560,28308,27871,27725,27704,27657,27359,27168,27080,26941,26769,26763,26692,26678,26188,25968,25710,25398,25297,25092,29125,29133,96486,96240,96138,96129,96117,29254","bike_types":{"4":27,"0":2},"place_type":"0","rack_locks":"1"},{"uid":"2585926","lat":"52.3150181","lng":"21.0610807","name":"Skarbka z G\u00f3r - Magiczna","spot":"1","number":"9630","bikes":"30","bike_racks":"30","free_racks":"0","terminal_type":"7inch","bike_numbers":"24830,24692,24042,25002,28619,28607,28583,28440,28067,28007,27990,27954,27538,27513,27487,27360,27354,27279,27166,27115,26827,26820,26537,26163,25591,25376,25146,29130,96451,29233","bike_types":{"4":28,"26":1,"0":1},"place_type":"0","rack_locks":"1"},{"uid":"2585928","lat":"52.3000268","lng":"21.0425266","name":"P\u0119tla Br\u00f3dno - Podgrodzie","spot":"1","number":"9631","bikes":"4","bike_racks":"16","free_racks":"11","terminal_type":"7inch","bike_numbers":"27650,27512,26986,29273","bike_types":{"4":4},"place_type":"0","rack_locks":"1"},{"uid":"2585929","lat":"52.2939957","lng":"21.0272258","name":"Rembieli\u0144ska - Kondratowicza","spot":"1","number":"9632","bikes":"14","bike_racks":"23","free_racks":"9","terminal_type":"7inch","bike_numbers":"24700,24644,28705,28549,28420,28042,27872,27351,27123,26138,25423,25089,96401,96205","bike_types":{"4":14},"place_type":"0","rack_locks":"1"},{"uid":"2585931","lat":"52.2917236","lng":"21.0481189","name":"Targ\u00f3wek-Ratusz","spot":"1","number":"9633","bikes":"15","bike_racks":"22","free_racks":"8","terminal_type":"7inch","bike_numbers":"24883,24845,28699,28402,28392,28350,28279,28022,27249,26058,25552,96242,96103,29230,96577","bike_types":{"4":15},"place_type":"0","rack_locks":"1"},{"uid":"2585932","lat":"52.292208","lng":"21.0419554","name":"Kondratowicza - Chodecka","spot":"1","number":"9634","bikes":"19","bike_racks":"23","free_racks":"4","terminal_type":"7inch","bike_numbers":"24586,28897,28499,28378,28151,28075,28044,28009,27730,27342,27076,26391,26275,26231,25928,25855,25693,25458,29253","bike_types":{"4":19},"place_type":"0","rack_locks":"1"},{"uid":"2585934","lat":"52.2925145","lng":"21.0573949","name":"Kondratowicza - Przy Grodzisku","spot":"1","number":"9635","bikes":"10","bike_racks":"18","free_racks":"6","terminal_type":"7inch","bike_numbers":"24776,28658,28651,28634,28278,27632,26433,29082,29247,29245","bike_types":{"4":10},"place_type":"0","rack_locks":"1"},{"uid":"2585936","lat":"52.2878069","lng":"21.0213829","name":"Wysockiego - Poborza\u0144ska","spot":"1","number":"9636","bikes":"32","bike_racks":"23","free_racks":"0","terminal_type":"7inch","bike_numbers":"24979,24600,24573,24030,28758,28741,28641,28425,28064,28016,27914,27742,27300,27290,27127,27035,26979,26879,26844,26756,26599,26505,26305,26287,25738,29112,29388,29386,28861,96329,96203,29242","bike_types":{"4":31,"26":1},"place_type":"0","rack_locks":"1"},{"uid":"2585937","lat":"52.2885915","lng":"21.0310087","name":"Rembieli\u0144ska - Wyszogrodzka","spot":"1","number":"9637","bikes":"14","bike_racks":"30","free_racks":"15","terminal_type":"7inch","bike_numbers":"28566,28404,27601,27498,27462,27124,26459,26362,26214,25406,25356,28987,63608,96336","bike_types":{"4":14},"place_type":"0","rack_locks":"1"},{"uid":"2585938","lat":"52.2864841","lng":"21.0401998","name":"Chodecka - \u017buromi\u0144ska","spot":"1","number":"9638","bikes":"7","bike_racks":"15","free_racks":"8","terminal_type":"7inch","bike_numbers":"28373,28053,27366,26824,26582,25679,28908","bike_types":{"4":7},"place_type":"0","rack_locks":"1"},{"uid":"2585939","lat":"52.281231017533","lng":"21.025852560997","name":"Wysockiego - Matki Teresy z Kalkuty","spot":"1","number":"9639","bikes":"16","bike_racks":"17","free_racks":"3","terminal_type":"7inch","bike_numbers":"28498,28449,27805,27663,27435,27122,26221,25601,25513,25351,29046,29003,29441,96574,96539,96368","bike_types":{"4":16},"place_type":"0","rack_locks":"1"},{"uid":"2585941","lat":"52.2835693","lng":"21.0720858","name":"Blokowa - DK Zacisze","spot":"1","number":"9640","bikes":"27","bike_racks":"18","free_racks":"0","terminal_type":"7inch","bike_numbers":"28686,28678,28394,28267,28000,27862,27832,27584,27561,27261,27225,26980,26716,26634,26501,26237,25821,25435,25357,25100,28954,28863,96350,96261,96132,96120,29274","bike_types":{"4":27},"place_type":"0","rack_locks":"1"},{"uid":"2585942","lat":"52.276259","lng":"21.0530748","name":"P\u0119tla Targ\u00f3wek","spot":"1","number":"9641","bikes":"17","bike_racks":"22","free_racks":"6","terminal_type":"7inch","bike_numbers":"24650,28484,28354,28137,28109,28088,27792,27751,27503,27439,27316,27009,25567,25096,29108,29031,96051","bike_types":{"4":17},"place_type":"0","rack_locks":"1"},{"uid":"2585943","lat":"52.27139","lng":"21.01566","name":"Jagiello\u0144ska - ALK","spot":"1","number":"9642","bikes":"7","bike_racks":"16","free_racks":"11","terminal_type":"7inch","bike_numbers":"24950,24675,26932,26674,25358,25075,28829","bike_types":{"4":7},"place_type":"0","rack_locks":"1"},{"uid":"2585947","lat":"52.2694683","lng":"21.0499817","name":"Ossowskiego","spot":"1","number":"9644","bikes":"15","bike_racks":"17","free_racks":"2","terminal_type":"7inch","bike_numbers":"24606,28629,28456,28376,27978,26817,26793,26530,26529,25929,29030,29139,96536,96231,29281","bike_types":{"4":14,"0":1},"place_type":"0","rack_locks":"1"},{"uid":"2585951","lat":"52.272602123161","lng":"21.063210368156","name":"Radzymi\u0144ska -Trocka","spot":"1","number":"9645","bikes":"4","bike_racks":"20","free_racks":"17","terminal_type":"7inch","bike_numbers":"28362,26485,29434,29199","bike_types":{"4":4},"place_type":"0","rack_locks":"1"},{"uid":"2585953","lat":"52.27347","lng":"21.07698","name":"Bukowiecka - Zamkowa","spot":"1","number":"9646","bikes":"13","bike_racks":"15","free_racks":"2","terminal_type":"7inch","bike_numbers":"24842,24514,24487,27916,27405,27341,26808,25985,25527,25382,25144,29135,96453","bike_types":{"4":11,"51":1,"0":1},"place_type":"0","rack_locks":"1"},{"uid":"2585954","lat":"52.2668885","lng":"21.0585675","name":"Radzymi\u0144ska - Piotra Skargi","spot":"1","number":"9647","bikes":"16","bike_racks":"20","free_racks":"2","terminal_type":"7inch","bike_numbers":"24918,24901,24490,28673,28471,27818,27799,27274,26918,26565,26122,25919,25483,29120,96011,29202","bike_types":{"4":14,"51":1,"0":1},"place_type":"0","rack_locks":"1"},{"uid":"2585955","lat":"52.2614369","lng":"21.0155744","name":"Wybrze\u017ce Helskie - ZOO","spot":"1","number":"9648","bikes":"16","bike_racks":"22","free_racks":"6","terminal_type":"7inch","bike_numbers":"24855,28774,28076,27997,27199,27002,26998,26949,26862,26761,26747,26667,26554,25917,25526,96337","bike_types":{"4":16},"place_type":"0","rack_locks":"1"},{"uid":"2585956","lat":"52.2632492","lng":"21.0212231","name":"Rondo Starzy\u0144skiego","spot":"1","number":"9649","bikes":"8","bike_racks":"24","free_racks":"16","terminal_type":"7inch","bike_numbers":"28819,28554,28139,28006,26588,26379,25739,29002","bike_types":{"4":8},"place_type":"0","rack_locks":"1"},{"uid":"2585958","lat":"52.26421","lng":"21.02618","name":"Darwina - Nusbauma-Hilarowicza","spot":"1","number":"9650","bikes":"10","bike_racks":"21","free_racks":"11","terminal_type":"7inch","bike_numbers":"24938,24552,28501,27622,26777,26584,25466,25368,25182,25099","bike_types":{"4":10},"place_type":"0","rack_locks":"1"},{"uid":"2585960","lat":"52.26554","lng":"21.03122","name":"Namys\u0142owska - Darwina","spot":"1","number":"9651","bikes":"10","bike_racks":"15","free_racks":"5","terminal_type":"7inch","bike_numbers":"24890,27764,27019,26000,25896,25615,25414,25321,96553,96549","bike_types":{"4":10},"place_type":"0","rack_locks":"1"},{"uid":"2585961","lat":"52.2690405","lng":"21.0379493","name":"Rondo \u017baba","spot":"1","number":"9652","bikes":"19","bike_racks":"22","free_racks":"3","terminal_type":"7inch","bike_numbers":"24799,28750,28652,28543,28329,27807,27520,27323,26758,26616,26440,26400,26168,25775,25553,25470,29374,96544,96302","bike_types":{"4":19},"place_type":"0","rack_locks":"1"},{"uid":"2585963","lat":"52.2591682","lng":"21.0262224","name":"Jagiello\u0144ska - Plac Hallera","spot":"1","number":"9653","bikes":"20","bike_racks":"20","free_racks":"0","terminal_type":"7inch","bike_numbers":"24481,24479,28695,28675,28421,27394,26886,26851,26685,26064,26033,26022,25882,25811,25674,25523,96387,96386,29260,96580","bike_types":{"51":2,"4":18},"place_type":"0","rack_locks":"1"},{"uid":"2585964","lat":"52.2613811","lng":"21.0305437","name":"Plac Hallera - Sawinkowa","spot":"1","number":"9654","bikes":"7","bike_racks":"28","free_racks":"20","terminal_type":"7inch","bike_numbers":"24729,28647,27277,26327,25954,25076,25050","bike_types":{"4":7},"place_type":"0","rack_locks":"1"},{"uid":"2585967","lat":"52.263","lng":"21.03418","name":"Namys\u0142owska - Szymanowskiego","spot":"1","number":"9655","bikes":"3","bike_racks":"16","free_racks":"15","terminal_type":"7inch","bike_numbers":"28432,26247,26229","bike_types":{"4":3},"place_type":"0","rack_locks":"1"},{"uid":"2585968","lat":"52.2538188","lng":"21.0231542","name":"Ratuszowa - ZOO","spot":"1","number":"9656","bikes":"23","bike_racks":"23","free_racks":"0","terminal_type":"7inch","bike_numbers":"24870,24008,28616,28560,28357,28303,27840,27833,27446,27424,27138,26150,26085,25767,25700,25570,25130,25032,29644,28859,96404,29225,96582","bike_types":{"4":22,"26":1},"place_type":"0","rack_locks":"1"},{"uid":"2585971","lat":"52.256355","lng":"21.029538","name":"Jagiello\u0144ska - Ratuszowa","spot":"1","number":"9657","bikes":"7","bike_racks":"16","free_racks":"10","terminal_type":"7inch","bike_numbers":"27363,26675,26226,25602,25571,25244,28799","bike_types":{"4":7},"place_type":"0","rack_locks":"1"},{"uid":"2585972","lat":"52.261449","lng":"21.037614","name":"11 Listopada - Ratuszowa","spot":"1","number":"9658","bikes":"15","bike_racks":"30","free_racks":"15","terminal_type":"7inch","bike_numbers":"28569,28141,28114,28055,28026,27761,27616,27560,27175,26999,26709,26503,26404,25539,25415","bike_types":{"4":15},"place_type":"0","rack_locks":"1"},{"uid":"2585974","lat":"52.263109","lng":"21.0381895","name":"11 listopada - \u015arodkowa","spot":"1","number":"9659","bikes":"14","bike_racks":"18","free_racks":"2","terminal_type":"7inch","bike_numbers":"28439,26815,26517,26224,26173,25746,25596,25445,25400,25198,25023,96569,29198,29157","bike_types":{"4":14},"place_type":"0","rack_locks":"1"},{"uid":"2585975","lat":"52.25839","lng":"21.03537","name":"Stalowa - 11 Listopada","spot":"1","number":"9660","bikes":"11","bike_racks":"24","free_racks":"14","terminal_type":"7inch","bike_numbers":"24456,28427,27800,26666,26166,25810,25191,25134,29041,28973,29278","bike_types":{"51":1,"4":10},"place_type":"0","rack_locks":"1"},{"uid":"2585978","lat":"52.234791","lng":"21.07905","name":"al. Stan\u00f3w Zjednoczonych - Ostrobramska","spot":"1","number":"9661","bikes":"9","bike_racks":"20","free_racks":"9","terminal_type":"7inch","bike_numbers":"24902,28632,28195,26034,25853,28823,96436,96424,29176","bike_types":{"4":9},"place_type":"0","rack_locks":"1"},{"uid":"2585981","lat":"52.2524758","lng":"21.0303479","name":"Floria\u0144ska - Park Praski","spot":"1","number":"9662","bikes":"2","bike_racks":"23","free_racks":"14","terminal_type":"7inch","bike_numbers":"25926,96287","bike_types":{"4":2},"place_type":"0","rack_locks":"1"},{"uid":"2585982","lat":"52.2549757","lng":"21.0339005","name":"Plac Wile\u0144ski","spot":"1","number":"9663","bikes":"35","bike_racks":"30","free_racks":"2","terminal_type":"7inch","bike_numbers":"24486,28676,28581,28489,28347,28291,28082,27922,27920,27357,27240,27219,27187,27184,26855,26392,26204,26111,26036,25969,25609,25606,25371,25345,25269,25219,29339,29105,29075,28891,28978,96046,96438,29175,29232","bike_types":{"51":1,"4":34},"place_type":"0","rack_locks":"1"},{"uid":"2585983","lat":"52.2579576","lng":"21.0399804","name":"Wile\u0144ska - Rzeszotarskiej","spot":"1","number":"9664","bikes":"11","bike_racks":"16","free_racks":"6","terminal_type":"7inch","bike_numbers":"24800,27858,26744,26307,26206,26143,25565,25091,29097,29062,28879","bike_types":{"4":11},"place_type":"0","rack_locks":"1"},{"uid":"2585984","lat":"52.2475848","lng":"20.9568001","name":"al. Prymasa Tysi\u0105clecia - Obozowa","spot":"1","number":"9665","bikes":"2","bike_racks":"13","free_racks":"10","terminal_type":"7inch","bike_numbers":"24532,25019","bike_types":{"4":2},"place_type":"0","rack_locks":"1"},{"uid":"2585985","lat":"52.248607","lng":"21.029647","name":"Okrzei - Panie\u0144ska","spot":"1","number":"9666","bikes":"14","bike_racks":"16","free_racks":"4","terminal_type":"7inch","bike_numbers":"24775,24531,28575,28435,27817,27706,27612,27330,26787,26041,25835,25477,96133,24055","bike_types":{"4":13,"26":1},"place_type":"0","rack_locks":"1"},{"uid":"2585987","lat":"52.2506334","lng":"21.0311174","name":"Sierakowskiego - K\u0142opotowskiego","spot":"1","number":"9667","bikes":"13","bike_racks":"25","free_racks":"14","terminal_type":"7inch","bike_numbers":"28313,27959,27386,27106,26706,26684,26622,25881,25787,25757,29342,96299,96284","bike_types":{"4":13},"place_type":"0","rack_locks":"1"},{"uid":"2585990","lat":"52.2520876","lng":"21.0381368","name":"Targowa - Z\u0105bkowska","spot":"1","number":"9668","bikes":"28","bike_racks":"18","free_racks":"0","terminal_type":"7inch","bike_numbers":"28512,28452,28292,28158,28087,28003,27974,27879,27856,27803,27769,27577,27451,26894,26866,26848,26807,26690,26572,25918,25910,25766,25255,25150,25053,29368,96002,29261","bike_types":{"4":28},"place_type":"0","rack_locks":"1"},{"uid":"2585992","lat":"52.2544855","lng":"21.0433458","name":"Fabryka W\u00f3dek Koneser","spot":"1","number":"9669","bikes":"18","bike_racks":"25","free_racks":"6","terminal_type":"7inch","bike_numbers":"24947,24738,24551,28627,28039,27609,27014,26947,26907,26455,26243,25856,25709,25284,25200,29283,29271,29262","bike_types":{"4":18},"place_type":"0","rack_locks":"1"},{"uid":"2585994","lat":"52.2559027","lng":"21.0495613","name":"Radzymi\u0144ska - Wiosenna","spot":"1","number":"9670","bikes":"24","bike_racks":"26","free_racks":"2","terminal_type":"7inch","bike_numbers":"24897,24769,24725,28702,28660,28548,28302,28290,27753,27731,27703,27212,27140,27135,26985,26956,25666,25652,25529,25121,25034,96281,96163,24049","bike_types":{"4":23,"26":1},"place_type":"0","rack_locks":"1"},{"uid":"2585995","lat":"52.25965","lng":"21.0529","name":"Radzymi\u0144ska - \u0141om\u017cy\u0144ska","spot":"1","number":"9671","bikes":"9","bike_racks":"24","free_racks":"14","terminal_type":"7inch","bike_numbers":"24597,24575,27291,26990,26987,25876,25593,29056,24046","bike_types":{"4":8,"26":1},"place_type":"0","rack_locks":"1"},{"uid":"2585996","lat":"52.2583512","lng":"21.0585337","name":"P\u0119tla Kaw\u0119czy\u0144ska-Bazylika","spot":"1","number":"9672","bikes":"3","bike_racks":"26","free_racks":"23","terminal_type":"7inch","bike_numbers":"25248,29249,96581","bike_types":{"4":3},"place_type":"0","rack_locks":"1"},{"uid":"2585997","lat":"52.249864871462","lng":"21.042911410332","name":"Targowa - Kijowska","spot":"1","number":"9673","bikes":"14","bike_racks":"18","free_racks":"2","terminal_type":"7inch","bike_numbers":"28535,28371,27868,27778,27755,27489,27460,26480,25780,25749,25731,25260,25159,29433","bike_types":{"4":14},"place_type":"0","rack_locks":"1"},{"uid":"2586000","lat":"52.252745","lng":"21.0510331","name":"Dworzec Wschodni - Kijowska","spot":"1","number":"9674","bikes":"26","bike_racks":"27","free_racks":"1","terminal_type":"7inch","bike_numbers":"24647,24044,25008,28461,28423,28096,27627,27493,27381,27301,27298,27054,27005,26847,26823,26789,26454,26366,25987,25836,25785,25617,28956,28964,28993,96583","bike_types":{"4":25,"26":1},"place_type":"0","rack_locks":"1"},{"uid":"2586001","lat":"52.247314","lng":"21.042731","name":"Metro Stadion Narodowy","spot":"1","number":"9675","bikes":"6","bike_racks":"15","free_racks":"5","terminal_type":"7inch","bike_numbers":"24585,27651,27551,26880,26424,25154","bike_types":{"4":6},"place_type":"0","rack_locks":"1"},{"uid":"2586003","lat":"52.2472308","lng":"21.0476456","name":"al. Zieleniecka - Teatr Powszechny","spot":"1","number":"9676","bikes":"3","bike_racks":"14","free_racks":"10","terminal_type":"7inch","bike_numbers":"24722,27169,25454","bike_types":{"4":3},"place_type":"0","rack_locks":"1"},{"uid":"2586005","lat":"52.247346","lng":"21.055947","name":"Grochowska - Mi\u0144ska","spot":"1","number":"9677","bikes":"23","bike_racks":"22","free_racks":"3","terminal_type":"7inch","bike_numbers":"24893,24620,28724,28515,28464,28274,28132,28130,27865,27589,27448,27428,27173,27025,26957,25857,25547,25056,29051,29422,28858,96015,96328","bike_types":{"4":23},"place_type":"0","rack_locks":"1"},{"uid":"2586009","lat":"52.2464","lng":"21.06868","name":"Praga-Po\u0142udnie-Ratusz","spot":"1","number":"9678","bikes":"5","bike_racks":"15","free_racks":"8","terminal_type":"7inch","bike_numbers":"28252,26629,26157,25865,96009","bike_types":{"4":5},"place_type":"0","rack_locks":"1"},{"uid":"2586011","lat":"52.2501129","lng":"21.0772011","name":"Dwernickiego - Siennicka","spot":"1","number":"9679","bikes":"15","bike_racks":"25","free_racks":"10","terminal_type":"7inch","bike_numbers":"24779,27886,27786,27229,26450,26360,26276,26263,25873,25872,25816,25597,25429,96346,29265","bike_types":{"4":15},"place_type":"0","rack_locks":"1"},{"uid":"2586012","lat":"52.260428882956","lng":"21.041538119316","name":"Stalowa - Czynszowa","spot":"1","number":"9680","bikes":"8","bike_racks":"15","free_racks":"7","terminal_type":"7inch","bike_numbers":"24588,27422,26765,26130,25530,25402,28915,29222","bike_types":{"4":8},"place_type":"0","rack_locks":"1"},{"uid":"2586014","lat":"52.2372419","lng":"21.0437644","name":"Wybrze\u017ce Szczeci\u0144skie - Stadion Narodowy","spot":"1","number":"9681","bikes":"19","bike_racks":"23","free_racks":"11","terminal_type":"7inch","bike_numbers":"24982,24494,28597,28077,27971,27605,27546,27178,27172,26750,26655,25779,25546,25374,25353,25101,25063,96507,29182","bike_types":{"4":18,"51":1},"place_type":"0","rack_locks":"1"},{"uid":"2586018","lat":"52.2387103","lng":"21.0507515","name":"Rondo Waszyngtona - Stadion Narodowy","spot":"1","number":"9682","bikes":"23","bike_racks":"27","free_racks":"3","terminal_type":"7inch","bike_numbers":"24964,24770,24676,24528,27998,27877,27698,27648,27065,27044,26415,26302,25641,25217,25211,25160,25028,29461,29646,96280,96270,96176,29215","bike_types":{"4":23},"place_type":"0","rack_locks":"1"},{"uid":"2586019","lat":"52.242281006874","lng":"21.071160435677","name":"Waszyngtona - Kinowa","spot":"1","number":"9683","bikes":"7","bike_racks":"15","free_racks":"10","terminal_type":"7inch","bike_numbers":"24960,28093,27592,26390,25235,25958,96443","bike_types":{"4":7},"place_type":"0","rack_locks":"1"},{"uid":"2586021","lat":"52.2445639","lng":"21.0838057","name":"Rondo Wiatraczna","spot":"1","number":"9684","bikes":"32","bike_racks":"30","free_racks":"0","terminal_type":"7inch","bike_numbers":"24792,24613,24526,28760,28557,28074,27819,27523,27404,27388,27376,27232,27208,27183,27094,26473,26043,25953,25905,25798,25771,25245,25169,29340,29070,28865,28862,96044,96017,96429,96291,29152","bike_types":{"4":32},"place_type":"0","rack_locks":"1"},{"uid":"2586022","lat":"52.2347451","lng":"21.053651","name":"Francuska - Walecznych","spot":"1","number":"9685","bikes":"23","bike_racks":"15","free_racks":"2","terminal_type":"7inch","bike_numbers":"24474,28534,28145,28017,27811,27621,27554,27213,26677,26627,26570,26547,26066,25707,25126,25060,28916,29451,28853,28851,96003,96258,29264","bike_types":{"51":1,"4":22},"place_type":"0","rack_locks":"1"},{"uid":"2586024","lat":"52.236598","lng":"21.064774","name":"Mi\u0119dzynarodowa - Walecznych","spot":"1","number":"9686","bikes":"10","bike_racks":"15","free_racks":"5","terminal_type":"7inch","bike_numbers":"28753,28128,27712,26837,26714,26463,25410,25233,96351,96318","bike_types":{"4":10},"place_type":"0","rack_locks":"1"},{"uid":"2586026","lat":"52.243020071904","lng":"21.102375984192","name":"Plac Szembeka","spot":"1","number":"9687","bikes":"5","bike_racks":"15","free_racks":"10","terminal_type":"7inch","bike_numbers":"24880,27837,27788,28856,24054","bike_types":{"4":4,"26":1},"place_type":"0","rack_locks":"1"},{"uid":"2586028","lat":"52.237559","lng":"21.120087","name":"P\u0119tla Goc\u0142awek","spot":"1","number":"9688","bikes":"17","bike_racks":"16","free_racks":"1","terminal_type":"7inch","bike_numbers":"24939,24592,24564,24546,24029,28693,28367,27408,26502,25996,25670,25364,25107,28906,96045,96449,96313","bike_types":{"4":16,"26":1},"place_type":"0","rack_locks":"1"},{"uid":"2586030","lat":"52.2258359","lng":"21.0600907","name":"Brukselska - PROM","spot":"1","number":"9689","bikes":"12","bike_racks":"15","free_racks":"3","terminal_type":"7inch","bike_numbers":"24685,24510,28690,28674,28411,27243,26749,26691,26016,29110,96491,96276","bike_types":{"4":12},"place_type":"0","rack_locks":"1"},{"uid":"2586031","lat":"52.260205610017","lng":"21.046854257584","name":"al. Solidarno\u015bci - Szwedzka","spot":"1","number":"9690","bikes":"17","bike_racks":"18","free_racks":"1","terminal_type":"7inch","bike_numbers":"24876,24761,28348,28305,28058,27864,27533,26032,26027,25560,29034,96468,96371,29269,29266,29241,24051","bike_types":{"4":16,"26":1},"place_type":"0","rack_locks":"1"},{"uid":"2586032","lat":"52.230088","lng":"21.067948","name":"al. Stan\u00f3w Zjednoczonych - Mi\u0119dzynarodowa","spot":"1","number":"9691","bikes":"10","bike_racks":"26","free_racks":"16","terminal_type":"7inch","bike_numbers":"27675,27634,27562,27536,27315,27006,26635,25196,29459,28872","bike_types":{"4":10},"place_type":"0","rack_locks":"1"},{"uid":"2586034","lat":"52.23483","lng":"21.09975","name":"Ostrobramska - Zamieniecka","spot":"1","number":"9692","bikes":"20","bike_racks":"23","free_racks":"3","terminal_type":"7inch","bike_numbers":"24915,28215,27747,27608,27233,27215,26929,26116,25941,25907,25699,25598,25534,25277,25149,29213,28963,96360,96278,96262","bike_types":{"4":20},"place_type":"0","rack_locks":"1"},{"uid":"2586037","lat":"52.2251969","lng":"21.0712892","name":"Afryka\u0144ska - Egipska","spot":"1","number":"9693","bikes":"9","bike_racks":"16","free_racks":"6","terminal_type":"7inch","bike_numbers":"24969,24583,24518,27777,27350,25386,25296,25110,28864","bike_types":{"4":9},"place_type":"0","rack_locks":"1"},{"uid":"2586039","lat":"52.22837","lng":"21.08581","name":"Abrahama - Kapelan\u00f3w AK","spot":"1","number":"9694","bikes":"12","bike_racks":"15","free_racks":"3","terminal_type":"7inch","bike_numbers":"24972,24909,28752,28623,28496,28105,27726,26383,25899,25379,25079,96324","bike_types":{"4":12},"place_type":"0","rack_locks":"1"},{"uid":"2586042","lat":"52.2296088","lng":"21.0945572","name":"Fieldorfa - Bukowskiego","spot":"1","number":"9695","bikes":"10","bike_racks":"20","free_racks":"10","terminal_type":"7inch","bike_numbers":"24766,24009,28765,27476,27410,26657,26091,25963,25127,96018","bike_types":{"4":9,"26":1},"place_type":"0","rack_locks":"1"},{"uid":"2586044","lat":"52.22974","lng":"21.10624","name":"Rechniewskiego - Nowaka-Jeziora\u0144skiego","spot":"1","number":"9696","bikes":"29","bike_racks":"30","free_racks":"0","terminal_type":"7inch","bike_numbers":"24888,24610,24556,24495,24467,24457,28700,28662,28260,27780,27527,27521,27468,27411,27193,26822,26813,26698,26641,26293,26250,26005,25904,25575,25482,29004,28884,28907,96490","bike_types":{"4":26,"51":3},"place_type":"0","rack_locks":"1"},{"uid":"2586045","lat":"52.2223071","lng":"21.0907259","name":"Meissnera - Fieldorfa","spot":"1","number":"9697","bikes":"13","bike_racks":"15","free_racks":"2","terminal_type":"7inch","bike_numbers":"24765,24505,28614,27973,27853,27697,27555,27398,27321,27246,27112,26542,96087","bike_types":{"4":13},"place_type":"0","rack_locks":"1"},{"uid":"2586268","lat":"52.23938046828","lng":"21.016716957092","name":"Krakowskie Przedmie\u015bcie - Traugutta 2","spot":"1","number":"94931","bikes":"19","bike_racks":"24","free_racks":"5","terminal_type":"7inch","bike_numbers":"28820,28773,28585,28490,28309,27797,26995,26939,26299,26020,25578,25441,25416,25171,25070,28951,96013,96531,96207","bike_types":{"4":19},"place_type":"0","rack_locks":"1"},{"uid":"2586270","lat":"52.241814568386","lng":"21.024039387703","name":"Lipowa - Dobra 2","spot":"1","number":"94961","bikes":"25","bike_racks":"19","free_racks":"0","terminal_type":"7inch","bike_numbers":"24943,24913,24501,28639,28553,28380,28359,28091,28086,28012,27714,27370,27353,27045,26791,26702,26102,25727,25397,25268,25240,96005,96554,96311,29256","bike_types":{"4":25},"place_type":"0","rack_locks":"1"},{"uid":"2586272","lat":"52.219916006513","lng":"21.011733412743","name":"Plac Politechniki 2","spot":"1","number":"95381","bikes":"8","bike_racks":"27","free_racks":"19","terminal_type":"7inch","bike_numbers":"27861,27611,26672,26493,26069,25038,29013,96052","bike_types":{"4":8},"place_type":"0","rack_locks":"1"},{"uid":"2675985","lat":"52.21759","lng":"21.0096855","name":"Kaczy\u0144skiego - Rektorska","spot":"1","number":"9587","bikes":"2","bike_racks":"17","free_racks":"15","terminal_type":"7inch","bike_numbers":"27524,96158","bike_types":{"4":2},"place_type":"0","rack_locks":"1"},{"uid":"2676298","lat":"52.255871","lng":"21.010043","name":"Veturilko - Sanguszki - Wybrze\u017ce Gda\u0144skie","spot":"1","number":"9716","bikes":"9","bike_racks":"14","free_racks":"5","terminal_type":"7inch","bike_numbers":"24377,24372,24367,24351,24264,24395,24294,24292,24282","bike_types":{"35":5,"34":4},