[{"region_info":{"lat":"52.2345","lng":"21.0024","zoom":"11","name":"VETURILO Poland","hotline":"+4819115","domain":"vp","country":"PL","country_name":"Poland","terms":"http:\/\/www.veturilo.waw.pl\/terms\/?v=201701","policy":"","website":"http:\/\/www.veturilo.waw.pl\/","show_free_racks":"1","booked_bikes":"0","set_point_bikes":"5277","available_bikes":"4673"},"places_summary":{"lngMin":20.8689688,"lngMax":21.120087,"latMin":52.117285,"latMax":52.3485329,"lngAvg":21.007564664631,"latAvg":52.230680576264},"places":[{"uid":"2585259","lat":"52.296298","lng":"20.9583575","name":"Dewajtis - UKSW","spot":"1","number":"9402","bikes":"36","bike_racks":"30","free_racks":"0","terminal_type":"7inch","bike_numbers":"24907,24846,24682,24608,24574,28768,28620,28370,28363,28037,27929,27645,27217,26991,26968,26860,26798,26591,26378,26338,26199,25962,25734,25461,25460,25433,25394,25077,29101,29088,28958,28919,63608,96136,29188,96584","bike_types":{"4":36},"place_type":"0","rack_locks":"1"},{"uid":"2585263","lat":"52.2909738","lng":"20.9295559","name":"Metro M\u0142ociny","spot":"1","number":"9403","bikes":"18","bike_racks":"30","free_racks":"12","terminal_type":"7inch","bike_numbers":"24714,24036,28707,28595,28503,26696,26632,26508,26477,26076,25606,25599,25400,25191,25070,29061,96568,29162","bike_types":{"4":17,"54":1},"place_type":"0","rack_locks":"1"},{"uid":"2585265","lat":"52.2901732","lng":"20.9503698","name":"Marymoncka - Dewajtis","spot":"1","number":"9404","bikes":"13","bike_racks":"30","free_racks":"18","terminal_type":"7inch","bike_numbers":"24543,24509,27966,27671,27540,26294,26242,25472,25044,29010,29428,96379,96170","bike_types":{"4":13},"place_type":"0","rack_locks":"1"},{"uid":"2585267","lat":"52.285914","lng":"20.940561","name":"Metro Wawrzyszew","spot":"1","number":"9405","bikes":"11","bike_racks":"20","free_racks":"11","terminal_type":"7inch","bike_numbers":"24847,24724,24024,28483,28280,27542,27191,25544,29025,96546,96112","bike_types":{"4":10,"26":1},"place_type":"0","rack_locks":"1"},{"uid":"2585269","lat":"52.2336142","lng":"21.0146353","name":"G\u00f3rskiego - Szpitalna","spot":"1","number":"9406","bikes":"3","bike_racks":"16","free_racks":"13","terminal_type":"7inch","bike_numbers":"26863,25612,25432","bike_types":{"4":3},"place_type":"0","rack_locks":"1"},{"uid":"2585271","lat":"52.2816265","lng":"20.9498871","name":"Metro Stare Bielany","spot":"1","number":"9407","bikes":"10","bike_racks":"30","free_racks":"21","terminal_type":"7inch","bike_numbers":"24513,27254,26663,26506,26363,26127,25949,96156","bike_types":{"4":8},"place_type":"0","rack_locks":"1"},{"uid":"2585272","lat":"52.2361217","lng":"21.0219096","name":"Ordynacka - Uniwersytet Muzyczny","spot":"1","number":"9408","bikes":"14","bike_racks":"20","free_racks":"6","terminal_type":"7inch","bike_numbers":"24463,28409,28319,27667,27318,27140,27006,26987,26944,25974,25911,25533,29092,96109","bike_types":{"51":1,"4":13},"place_type":"0","rack_locks":"1"},{"uid":"2585273","lat":"52.2768774","lng":"20.9481302","name":"Bielany-Ratusz","spot":"1","number":"9409","bikes":"25","bike_racks":"28","free_racks":"3","terminal_type":"7inch","bike_numbers":"24843,24004,28743,28213,27480,26786,26290,26100,25927,25407,25358,29066,29011,28935,96047,96227,29173","bike_types":{"4":16,"26":1},"place_type":"0","rack_locks":"1"},{"uid":"2585275","lat":"52.2761569","lng":"20.9616673","name":"Metro S\u0142odowiec","spot":"1","number":"9410","bikes":"2","bike_racks":"30","free_racks":"28","terminal_type":"7inch","bike_numbers":"27097,96285","bike_types":{"4":2},"place_type":"0","rack_locks":"1"},{"uid":"2585278","lat":"52.2777751","lng":"20.9856999","name":"Potocka - OSiR \u017boliborz","spot":"1","number":"9411","bikes":"15","bike_racks":"15","free_racks":"0","terminal_type":"7inch","bike_numbers":"24952,24931,24731,24523,27214,27072,26620,26532,25804,25796,25726,25660,96032,96013,96456","bike_types":{"4":15},"place_type":"0","rack_locks":"1"},{"uid":"2585280","lat":"52.273527782989","lng":"20.994186401367","name":"Gwia\u017adzista - Promyka","spot":"1","number":"9412","bikes":"13","bike_racks":"16","free_racks":"6","terminal_type":"7inch","bike_numbers":"24746,24538,27678,27573,27359,27143,27078,26649,26466,26030,25887,96390,96286","bike_types":{"4":13},"place_type":"0","rack_locks":"1"},{"uid":"2585281","lat":"52.270941","lng":"20.9326269","name":"al. Reymonta - Conrada","spot":"1","number":"9413","bikes":"44","bike_racks":"30","free_racks":"0","terminal_type":"7inch","bike_numbers":"24930,24839,24824,24806,28601,28408,28268,28191,28138,28133,27955,27887,27683,27661,27396,27286,27273,27171,26977,26774,26614,26423,26361,26098,26090,25976,25869,25578,25484,25306,25235,25178,25142,25052,25961,96518,96514,96506,96305,96298,96293,96171,96089,29152","bike_types":{"4":44},"place_type":"0","rack_locks":"1"},{"uid":"2585283","lat":"52.2706441","lng":"20.9504181","name":"Broniewskiego - Perzy\u0144skiego","spot":"1","number":"9414","bikes":"22","bike_racks":"16","free_racks":"4","terminal_type":"7inch","bike_numbers":"24956,24730,24557,24026,27804,27368,26999,26278,26135,26079,25956,25897,25738,25454,25171,25098,28936,24555,28810,28833,96466","bike_types":{"4":20,"26":1},"place_type":"0","rack_locks":"1"},{"uid":"2585284","lat":"52.2714203","lng":"20.9727099","name":"Metro Marymont","spot":"1","number":"9415","bikes":"28","bike_racks":"30","free_racks":"2","terminal_type":"7inch","bike_numbers":"24917,24898,24891,24698,24660,24628,28763,28600,27810,27656,27468,27123,26927,26443,26408,25816,25440,25259,29090,29028,28962,96455,96418,96406,96376,96189,96134,29249","bike_types":{"4":28},"place_type":"0","rack_locks":"1"},{"uid":"2585285","lat":"52.2694081","lng":"20.9833664","name":"Metro Plac Wilsona","spot":"1","number":"9416","bikes":"16","bike_racks":"21","free_racks":"5","terminal_type":"7inch","bike_numbers":"24687,24553,28737,28478,28265,28155,28069,27543,27160,26971,26887,26406,25830,29007,96311,96277","bike_types":{"4":16},"place_type":"0","rack_locks":"1"},{"uid":"2585286","lat":"52.2668623","lng":"20.9637032","name":"Broniewskiego - W\u0142o\u015bcia\u0144ska","spot":"1","number":"9417","bikes":"15","bike_racks":"19","free_racks":"7","terminal_type":"7inch","bike_numbers":"24927,24643,28712,28633,28401,27631,27550,27104,26608,25714,25409,29343,29076,96160,29161","bike_types":{"4":15},"place_type":"0","rack_locks":"1"},{"uid":"2585288","lat":"52.2643984","lng":"20.9723179","name":"Broniewskiego - Krasi\u0144skiego","spot":"1","number":"9418","bikes":"5","bike_racks":"16","free_racks":"11","maintenance":"1","terminal_type":"7inch","bike_numbers":"24740,27110,27023,26829,25322","bike_types":{"4":5},"place_type":"0","rack_locks":"1"},{"uid":"2585289","lat":"52.267875","lng":"21.0020667","name":"Wybrze\u017ce Gdy\u0144skie - KS Sp\u00f3jnia","spot":"1","number":"9419","bikes":"11","bike_racks":"15","free_racks":"5","terminal_type":"7inch","bike_numbers":"24639,28715,28533,28275,28096,27686,27673,25230,29065,29127,29228","bike_types":{"4":10,"0":1},"place_type":"0","rack_locks":"1"},{"uid":"2585291","lat":"52.2624054","lng":"20.9802551","name":"Plac Grunwaldzki","spot":"1","number":"9420","bikes":"23","bike_racks":"30","free_racks":"10","terminal_type":"7inch","bike_numbers":"24873,24826,24737,24648,28342,27949,27509,27380,27333,26974,26946,26451,26343,26083,25859,25258,25176,25080,29352,96500,96397,96393,96131","bike_types":{"4":23},"place_type":"0","rack_locks":"1"},{"uid":"2585296","lat":"52.2612575","lng":"20.9863191","name":"Zaj\u0105czka - Bitwy Pod Rokitn\u0105","spot":"1","number":"9421","bikes":"13","bike_racks":"15","free_racks":"3","terminal_type":"7inch","bike_numbers":"24758,24515,24015,28438,28021,27086,26562,25408,25237,96001,96275,96264,96225","bike_types":{"4":12,"26":1},"place_type":"0","rack_locks":"1"},{"uid":"2585297","lat":"52.2645018","lng":"20.9895998","name":"Plac Inwalid\u00f3w","spot":"1","number":"9422","bikes":"14","bike_racks":"15","free_racks":"0","terminal_type":"7inch","bike_numbers":"28903,28645,28025,27956,27844,26725,26516,25925,25755,25390,25161,29123,96380,96578","bike_types":{"4":13,"0":1},"place_type":"0","rack_locks":"1"},{"uid":"2585299","lat":"52.258245356688","lng":"20.898613929749","name":"P\u0119tla Stare Bemowo","spot":"1","number":"9423","bikes":"4","bike_racks":"21","free_racks":"13","terminal_type":"7inch","bike_numbers":"24764,27250,25931,25724","bike_types":{"4":4},"place_type":"0","rack_locks":"1"},{"uid":"2585301","lat":"52.260895125763","lng":"20.923923254013","name":"P\u0119tla Nowe Bemowo","spot":"1","number":"9424","bikes":"14","bike_racks":"25","free_racks":"9","terminal_type":"7inch","bike_numbers":"24790,28260,28149,27898,26773,26733,25220,28934,96008,96375,96321,96314,96233,96206","bike_types":{"4":14},"place_type":"0","rack_locks":"1"},{"uid":"2585304","lat":"52.2575903","lng":"20.9323374","name":"Obro\u0144c\u00f3w Tobruku - Pieni\u0105\u017cka","spot":"1","number":"9425","bikes":"14","bike_racks":"12","free_racks":"7","terminal_type":"7inch","bike_numbers":"24559,28694,28316,26872,26549,26438,26394,25488,25293,25137,29027,28924,28824,96222","bike_types":{"4":14},"place_type":"0","rack_locks":"1"},{"uid":"2585305","lat":"52.2593225","lng":"20.9605511","name":"Pow\u0105zkowska - Krasi\u0144skiego","spot":"1","number":"9426","bikes":"24","bike_racks":"23","free_racks":"1","terminal_type":"7inch","bike_numbers":"24944,24924,24906,24798,24652,24486,28708,28210,28054,27934,27690,27639,27486,27459,27309,27074,26279,25864,25278,25189,29039,96443,29191,24050","bike_types":{"4":22,"51":1,"26":1},"place_type":"0","rack_locks":"1"},{"uid":"2585306","lat":"52.2563145","lng":"20.9682307","name":"Pow\u0105zkowska - Plac Niemena","spot":"1","number":"9427","bikes":"10","bike_racks":"16","free_racks":"11","terminal_type":"7inch","bike_numbers":"24857,24813,28674,28055,27252,26960,26739,25866,25332,96101","bike_types":{"4":10},"place_type":"0","rack_locks":"1"},{"uid":"2585307","lat":"52.258524460024","lng":"20.970931649208","name":"Przasnyska - Rydygiera","spot":"1","number":"9428","bikes":"18","bike_racks":"15","free_racks":"0","terminal_type":"7inch","bike_numbers":"24684,24506,28589,27824,27802,26925,26868,26651,26617,26420,26216,25520,25280,25046,29060,28857,28834,29282","bike_types":{"4":18},"place_type":"0","rack_locks":"1"},{"uid":"2585308","lat":"52.253594","lng":"20.9798744","name":"Pow\u0105zkowska - Burakowska","spot":"1","number":"9429","bikes":"18","bike_racks":"20","free_racks":"1","terminal_type":"7inch","bike_numbers":"28801,28663,28570,28535,28130,28072,27860,27445,27284,26888,26323,26264,26171,25104,25073,29087,96478,96094","bike_types":{"4":18},"place_type":"0","rack_locks":"1"},{"uid":"2585311","lat":"52.2576018","lng":"20.9944975","name":"Metro Dworzec Gda\u0144ski","spot":"1","number":"9430","bikes":"43","bike_racks":"30","free_racks":"1","terminal_type":"7inch","bike_numbers":"24805,24713,24490,28885,28759,28727,28723,28584,28530,28425,28271,28157,27787,27769,27500,27460,27235,27022,26930,26833,26826,26822,26717,26605,26533,26435,26002,25609,25101,29338,29054,29362,28971,96031,96528,96519,96499,96356,96340,96220,96096,29190,29260","bike_types":{"4":42,"51":1},"place_type":"0","rack_locks":"1"},{"uid":"2585315","lat":"52.2465952","lng":"20.9429216","name":"Obozowa - Cio\u0142ka","spot":"1","number":"9432","bikes":"4","bike_racks":"13","free_racks":"9","terminal_type":"7inch","bike_numbers":"26997,28948,29144,96458","bike_types":{"4":3,"0":1},"place_type":"0","rack_locks":"1"},{"uid":"2585317","lat":"52.227621983552","lng":"20.956758856773","name":"al. Prymasa Tysi\u0105clecia - Kasprzaka","spot":"1","number":"9433","bikes":"3","bike_racks":"23","free_racks":"20","terminal_type":"7inch","bike_numbers":"28457,96362,29207","bike_types":{"4":3},"place_type":"0","rack_locks":"1"},{"uid":"2585319","lat":"52.246037","lng":"20.962463","name":"Obozowa - Radziwie","spot":"1","number":"9434","bikes":"2","bike_racks":"13","free_racks":"12","terminal_type":"7inch","bike_numbers":"27236,28806","bike_types":{"4":2},"place_type":"0","rack_locks":"1"},{"uid":"2585321","lat":"52.2514708","lng":"20.9857053","name":"al. Jana Paw\u0142a II - Stawki","spot":"1","number":"9435","bikes":"18","bike_racks":"23","free_racks":"5","terminal_type":"7inch","bike_numbers":"24681,28654,27980,27946,27135,26796,26463,26428,26181,26125,26064,25799,25676,25427,25370,25085,96239,29241","bike_types":{"4":18},"place_type":"0","rack_locks":"1"},{"uid":"2585323","lat":"52.2535305","lng":"20.9924922","name":"Stawki - Dubois","spot":"1","number":"9436","bikes":"0","bike_racks":"13","free_racks":"13","terminal_type":"7inch","place_type":"0","rack_locks":"1","bike_numbers":null,"bike_types":[]},{"uid":"2585326","lat":"52.2541702","lng":"20.9980649","name":"Andersa - Muranowska","spot":"1","number":"9437","bikes":"14","bike_racks":"30","free_racks":"16","terminal_type":"7inch","bike_numbers":"28565,28332,28312,28045,27907,27674,26988,26581,25477,29426,28969,96553,96161,29276","bike_types":{"4":14},"place_type":"0","rack_locks":"1"},{"uid":"2585327","lat":"52.255877","lng":"21.0099819","name":"Sanguszki - Wybrze\u017ce Gda\u0144skie","spot":"1","number":"9438","bikes":"32","bike_racks":"28","free_racks":"0","terminal_type":"7inch","bike_numbers":"24980,24864,24848,24668,24666,28602,28527,28285,27977,27920,27841,27701,26995,26961,26923,26785,26783,26751,26686,26513,26455,26078,25950,25719,25530,25253,25118,29348,29449,28850,96497,96154","bike_types":{"4":32},"place_type":"0","rack_locks":"1"},{"uid":"2585328","lat":"52.252175","lng":"20.923692","name":"Wroc\u0142awska \u2013 Bailly","spot":"1","number":"9439","bikes":"13","bike_racks":"27","free_racks":"13","terminal_type":"7inch","bike_numbers":"24558,24040,28638,27665,27042,26265,26223,26123,25090,29111,29126,28965,96460","bike_types":{"4":11,"26":1,"0":1},"place_type":"0","rack_locks":"1"},{"uid":"2585330","lat":"52.24418","lng":"20.97794","name":"Okopowa - Anielewicza","spot":"1","number":"9440","bikes":"6","bike_racks":"20","free_racks":"14","terminal_type":"7inch","bike_numbers":"24530,26668,26062,25893,25634,25366","bike_types":{"4":6},"place_type":"0","rack_locks":"1"},{"uid":"2585333","lat":"52.2486","lng":"20.98352","name":"Smocza - Mi\u0142a","spot":"1","number":"9441","bikes":"6","bike_racks":"15","free_racks":"10","terminal_type":"7inch","bike_numbers":"24866,24636,28424,27351,26839,26403","bike_types":{"4":6},"place_type":"0","rack_locks":"1"},{"uid":"2585334","lat":"52.24616","lng":"20.98538","name":"Smocza - Anielewicza","spot":"1","number":"9442","bikes":"11","bike_racks":"17","free_racks":"8","terminal_type":"7inch","bike_numbers":"24971,24775,28575,28547,27900,27702,27443,27384,26545,25762,96389","bike_types":{"4":11},"place_type":"0","rack_locks":"1"},{"uid":"2585335","lat":"52.247226","lng":"20.9893155","name":"al. Jana Paw\u0142a II - Anielewicza","spot":"1","number":"9443","bikes":"2","bike_racks":"22","free_racks":"20","terminal_type":"7inch","bike_numbers":"25034,29048","bike_types":{"4":2},"place_type":"0","rack_locks":"1"},{"uid":"2585337","lat":"52.249052","lng":"20.9948923","name":"Anielewicza - Zamenhofa","spot":"1","number":"9444","bikes":"3","bike_racks":"15","free_racks":"12","terminal_type":"7inch","bike_numbers":"25000,96412,96196","bike_types":{"4":3},"place_type":"0","rack_locks":"1"},{"uid":"2585338","lat":"52.2492196","lng":"20.9971878","name":"Anielewicza - Andersa","spot":"1","number":"9445","bikes":"1","bike_racks":"18","free_racks":"18","terminal_type":"7inch","bike_numbers":"27240","bike_types":{"4":1},"place_type":"0","rack_locks":"1"},{"uid":"2585340","lat":"52.251549","lng":"21.002749","name":"Bonifraterska - Franciszka\u0144ska","spot":"1","number":"9446","bikes":"8","bike_racks":"16","free_racks":"8","terminal_type":"7inch","bike_numbers":"28116,26701,26143,26128,25723,25605,25572,25309","bike_types":{"4":8},"place_type":"0","rack_locks":"1"},{"uid":"2585342","lat":"52.2541119","lng":"21.0093342","name":"Ko\u015bcielna - Piesza","spot":"1","number":"9448","bikes":"2","bike_racks":"26","free_racks":"24","terminal_type":"7inch","bike_numbers":"28028,25494","bike_types":{"4":2},"place_type":"0","rack_locks":"1"},{"uid":"2585344","lat":"52.2392622","lng":"20.8987641","name":"P\u0119tla Os. G\u00f3rczewska","spot":"1","number":"9449","bikes":"25","bike_racks":"15","free_racks":"0","terminal_type":"7inch","bike_numbers":"24631,24619,28667,28192,27968,27892,27874,27497,26955,26876,26496,26217,25831,25661,25566,25241,25197,25113,29339,28959,96433,96348,96271,96102,29238","bike_types":{"4":25},"place_type":"0","rack_locks":"1"},{"uid":"2585345","lat":"52.2389287","lng":"20.9139535","name":"Bemowo-Ratusz","spot":"1","number":"9450","bikes":"20","bike_racks":"20","free_racks":"7","terminal_type":"7inch","bike_numbers":"24835,25005,28703,28325,28147,28098,27548,27417,27028,26871,25892,25805,25801,25105,25095,25081,28809,96235,29166,29221","bike_types":{"4":20},"place_type":"0","rack_locks":"1"},{"uid":"2585346","lat":"52.2387861","lng":"20.9424946","name":"Okocimska - Olbrachta","spot":"1","number":"9451","bikes":"14","bike_racks":"18","free_racks":"4","terminal_type":"7inch","bike_numbers":"24935,24736,24659,24567,24020,25004,28400,27806,27626,26633,25889,25451,29051,96422","bike_types":{"4":13,"26":1},"place_type":"0","rack_locks":"1"},{"uid":"2585349","lat":"52.2506241","lng":"21.0533611","name":"Dworzec Wschodni - Lubelska","spot":"1","number":"9452","bikes":"14","bike_racks":"15","free_racks":"1","terminal_type":"7inch","bike_numbers":"24787,24528,28603,28387,28100,27589,27440,27353,27276,26862,26276,25659,25134,96229","bike_types":{"4":14},"place_type":"0","rack_locks":"1"},{"uid":"2585351","lat":"52.2369249","lng":"20.9723559","name":"Leszno - M\u0142ynarska","spot":"1","number":"9453","bikes":"3","bike_racks":"30","free_racks":"28","terminal_type":"7inch","bike_numbers":"24023,26136,96114","bike_types":{"26":1,"4":2},"place_type":"0","rack_locks":"1"},{"uid":"2585352","lat":"52.2430451","lng":"20.9803864","name":"Dzielna - Bellottiego","spot":"1","number":"9454","bikes":"11","bike_racks":"13","free_racks":"4","terminal_type":"7inch","bike_numbers":"24472,28592,28588,27547,26831,26236,25795,25753,25611,29103,28976","bike_types":{"51":1,"4":10},"place_type":"0","rack_locks":"1"},{"uid":"2585353","lat":"52.24108","lng":"20.98316","name":"Wolno\u015b\u0107 - Bellottiego","spot":"1","number":"9455","bikes":"2","bike_racks":"16","free_racks":"14","terminal_type":"7inch","bike_numbers":"24520,96533","bike_types":{"4":2},"place_type":"0","rack_locks":"1"},{"uid":"2585354","lat":"52.2435448","lng":"20.9873507","name":"Smocza - Nowolipki","spot":"1","number":"9456","bikes":"0","bike_racks":"16","free_racks":"16","terminal_type":"7inch","place_type":"0","rack_locks":"1","bike_numbers":null,"bike_types":[]},{"uid":"2585356","lat":"52.2445767","lng":"20.99177","name":"al. Jana Paw\u0142a II - Nowolipki","spot":"1","number":"9457","bikes":"5","bike_racks":"16","free_racks":"11","terminal_type":"7inch","bike_numbers":"24548,28525,26795,26675,28860","bike_types":{"4":5},"place_type":"0","rack_locks":"1"},{"uid":"2585358","lat":"52.22868","lng":"20.91509","name":"Powsta\u0144c\u00f3w \u015al\u0105skich - Cz\u0142uchowska","spot":"1","number":"9458","bikes":"15","bike_racks":"16","free_racks":"6","terminal_type":"7inch","bike_numbers":"24742,28772,28664,28135,27684,27485,27226,26124,26019,25640,25565,29657,96503,96256,29185","bike_types":{"4":15},"place_type":"0","rack_locks":"1"},{"uid":"2585360","lat":"52.2342032","lng":"20.934689","name":"Jana Olbrachta - Antka Rozpylacza","spot":"1","number":"9459","bikes":"17","bike_racks":"13","free_racks":"0","terminal_type":"7inch","bike_numbers":"24625,28817,28677,28568,28263,28047,27970,27945,27646,26823,26553,26543,25487,25397,25311,25019,28843","bike_types":{"4":17},"place_type":"0","rack_locks":"1"},{"uid":"2585364","lat":"52.2401623","lng":"20.9877277","name":"Wola-Ratusz","spot":"1","number":"9460","bikes":"1","bike_racks":"15","free_racks":"14","terminal_type":"7inch","bike_numbers":"29436","bike_types":{"4":1},"place_type":"0","rack_locks":"1"},{"uid":"2585368","lat":"52.2445326","lng":"20.99998","name":"Plac Bankowy - Kino Muran\u00f3w","spot":"1","number":"9462","bikes":"3","bike_racks":"17","free_racks":"15","terminal_type":"7inch","bike_numbers":"27566,26184,29216","bike_types":{"4":3},"place_type":"0","rack_locks":"1"},{"uid":"2585369","lat":"52.2449465","lng":"21.0012943","name":"Andersa - D\u0142uga","spot":"1","number":"9463","bikes":"6","bike_racks":"30","free_racks":"24","terminal_type":"7inch","bike_numbers":"26616,25848,25541,28949,96007,96350","bike_types":{"4":6},"place_type":"0","rack_locks":"1"},{"uid":"2585370","lat":"52.2442666","lng":"21.0015893","name":"Marsza\u0142kowska - al. Solidarno\u015bci","spot":"1","number":"9464","bikes":"16","bike_racks":"30","free_racks":"14","terminal_type":"7inch","bike_numbers":"24537,28665,27826,27685,27018,26309,26282,26157,26087,25371,29368,29454,96547,96385,96121,96090","bike_types":{"4":16},"place_type":"0","rack_locks":"1"},{"uid":"2585371","lat":"52.2431975","lng":"21.0016603","name":"Plac Bankowy - Ratusz","spot":"1","number":"9465","bikes":"9","bike_racks":"30","free_racks":"21","terminal_type":"7inch","bike_numbers":"28648,28635,28596,28132,26624,26086,25155,25124,96507","bike_types":{"4":9},"place_type":"0","rack_locks":"1"},{"uid":"2585373","lat":"52.2435719","lng":"21.0066801","name":"Senatorska - Biela\u0144ska","spot":"1","number":"9466","bikes":"11","bike_racks":"17","free_racks":"6","terminal_type":"7inch","bike_numbers":"28216,27967,27902,27610,26836,25923,25602,25330,25268,25188,28868","bike_types":{"4":11},"place_type":"0","rack_locks":"1"},{"uid":"2585377","lat":"52.246314509834","lng":"21.0113042593","name":"Miodowa","spot":"1","number":"9467","bikes":"20","bike_racks":"24","free_racks":"7","terminal_type":"7inch","bike_numbers":"24908,24890,24550,24469,28339,27367,26874,26743,26579,26177,26022,25960,25369,25298,25183,96058,96473,96209,96169,29206","bike_types":{"4":19,"51":1},"place_type":"0","rack_locks":"1"},{"uid":"2585378","lat":"52.2435965","lng":"21.0140803","name":"Krakowskie Przedmie\u015bcie - Tr\u0119backa","spot":"1","number":"9468","bikes":"15","bike_racks":"14","free_racks":"0","terminal_type":"7inch","bike_numbers":"27795,27737,26926,26666,25854,25619,25588,25294,25227,25202,28992,29432,96036,96410,24052","bike_types":{"4":14,"26":1},"place_type":"0","rack_locks":"1"},{"uid":"2585379","lat":"52.2465625","lng":"21.0174345","name":"Mariensztat","spot":"1","number":"9469","bikes":"12","bike_racks":"15","free_racks":"3","terminal_type":"7inch","bike_numbers":"28764,28549,27597,27544,27192,26895,26248,25916,25627,96570,96292,96077","bike_types":{"4":12},"place_type":"0","rack_locks":"1"},{"uid":"2585381","lat":"52.224934","lng":"20.945489","name":"Jana Kazimierza - Giz\u00f3w","spot":"1","number":"9471","bikes":"23","bike_racks":"13","free_racks":"0","terminal_type":"7inch","bike_numbers":"24707,28574,28540,28473,28272,27765,27515,27418,27395,27338,27145,27065,26885,26791,26454,26156,26097,25476,25372,29014,29361,25631,29165","bike_types":{"4":23},"place_type":"0","rack_locks":"1"},{"uid":"2585385","lat":"52.23016","lng":"20.951558","name":"Wolska - Elekcyjna","spot":"1","number":"9472","bikes":"20","bike_racks":"20","free_racks":"4","terminal_type":"7inch","bike_numbers":"24728,24722,28142,27756,27176,26953,26749,26381,26046,26040,26017,25728,25671,25303,29012,28921,28979,96313,96212,96122","bike_types":{"4":20},"place_type":"0","rack_locks":"1"},{"uid":"2585387","lat":"52.237662392829","lng":"20.955492854118","name":"al. Prymasa Tysi\u0105clecia - G\u00f3rczewska","spot":"1","number":"9473","bikes":"5","bike_racks":"20","free_racks":"17","terminal_type":"7inch","bike_numbers":"28474,28320,25939,25621,96016","bike_types":{"4":5},"place_type":"0","rack_locks":"1"},{"uid":"2585389","lat":"52.2333374","lng":"20.9652776","name":"Wolska - P\u0142ocka","spot":"1","number":"9474","bikes":"17","bike_racks":"15","free_racks":"7","terminal_type":"7inch","bike_numbers":"24832,24782,28644,28347,27896,27455,27231,27179,27027,26864,26740,26580,26519,26277,26057,25717,96004","bike_types":{"4":17},"place_type":"0","rack_locks":"1"},{"uid":"2585391","lat":"52.228522296173","lng":"20.969638824463","name":"Kasprzaka - Skierniewicka","spot":"1","number":"9475","bikes":"11","bike_racks":"21","free_racks":"11","terminal_type":"7inch","bike_numbers":"28882,26422,26167,26020,25825,25580,25339,25177,25020,96055,96387","bike_types":{"4":11},"place_type":"0","rack_locks":"1"},{"uid":"2585394","lat":"52.22898","lng":"20.97843","name":"Kasprzaka - Karolkowa","spot":"1","number":"9476","bikes":"0","bike_racks":"15","free_racks":"15","terminal_type":"7inch","place_type":"0","rack_locks":"1","bike_numbers":null,"bike_types":[]},{"uid":"2585396","lat":"52.2328752","lng":"20.9805411","name":"Muzeum Powstania Warszawskiego","spot":"1","number":"9477","bikes":"5","bike_racks":"10","free_racks":"5","terminal_type":"7inch","bike_numbers":"28421,26704,26658,29022,96310","bike_types":{"4":5},"place_type":"0","rack_locks":"1"},{"uid":"2585398","lat":"52.22983","lng":"20.983123","name":"Metro Rondo Daszy\u0144skiego","spot":"1","number":"9478","bikes":"5","bike_racks":"26","free_racks":"20","terminal_type":"7inch","bike_numbers":"27132,26780,26764,25414,29387","bike_types":{"4":5},"place_type":"0","rack_locks":"1"},{"uid":"2585400","lat":"52.23145","lng":"20.98869","name":"Prosta - Wronia","spot":"1","number":"9479","bikes":"15","bike_racks":"15","free_racks":"0","terminal_type":"7inch","bike_numbers":"24949,28393,27392,27306,26392,26256,26055,25720,28811,28913,28973,96351,96334,96262,96159","bike_types":{"4":15},"place_type":"0","rack_locks":"1"},{"uid":"2585401","lat":"52.2373141","lng":"20.9888488","name":"\u017belazna - Ch\u0142odna","spot":"1","number":"9480","bikes":"20","bike_racks":"15","free_racks":"0","terminal_type":"7inch","bike_numbers":"24946,24837,24006,28446,28220,28131,28011,27416,27164,27044,26493,26178,26112,25988,25499,25378,25343,96475,96415,29224","bike_types":{"4":19,"26":1},"place_type":"0","rack_locks":"1"},{"uid":"2585402","lat":"52.2344946","lng":"20.9905117","name":"\u017belazna - Grzybowska","spot":"1","number":"9481","bikes":"8","bike_racks":"20","free_racks":"13","terminal_type":"7inch","bike_numbers":"24542,28453,27778,27092,29086,96414,96276,96244","bike_types":{"4":8},"place_type":"0","rack_locks":"1"},{"uid":"2585405","lat":"52.238666","lng":"20.9957314","name":"al. Jana Paw\u0142a II - Plac Mirowski","spot":"1","number":"9482","bikes":"4","bike_racks":"16","free_racks":"12","terminal_type":"7inch","bike_numbers":"24671,24588,27885,26457","bike_types":{"4":4},"place_type":"0","rack_locks":"1"},{"uid":"2585406","lat":"52.2357151","lng":"20.9966071","name":"al. Jana Paw\u0142a II - Grzybowska","spot":"1","number":"9483","bikes":"0","bike_racks":"23","free_racks":"23","terminal_type":"7inch","place_type":"0","rack_locks":"1","bike_numbers":null,"bike_types":[]},{"uid":"2585410","lat":"52.23958","lng":"21.00027","name":"Ptasia - Zimna","spot":"1","number":"9485","bikes":"1","bike_racks":"16","free_racks":"15","terminal_type":"7inch","bike_numbers":"28060","bike_types":{"4":1},"place_type":"0","rack_locks":"1"},{"uid":"2585412","lat":"52.2336314","lng":"21.0028795","name":"Emilii Plater - \u015awi\u0119tokrzyska","spot":"1","number":"9486","bikes":"6","bike_racks":"26","free_racks":"19","terminal_type":"7inch","bike_numbers":"24973,24755,27211,26462,29452,96320","bike_types":{"4":6},"place_type":"0","rack_locks":"1"},{"uid":"2585413","lat":"52.2358704","lng":"21.0037806","name":"Plac Grzybowski","spot":"1","number":"9487","bikes":"16","bike_racks":"26","free_racks":"10","terminal_type":"7inch","bike_numbers":"28901,27677,27371,27216,27012,26555,26377,25886,25635,25482,25135,28952,28827,96339,96253,96164","bike_types":{"4":16},"place_type":"0","rack_locks":"1"},{"uid":"2585416","lat":"52.2384853","lng":"21.0067552","name":"Marsza\u0142kowska - Kr\u00f3lewska","spot":"1","number":"9488","bikes":"18","bike_racks":"19","free_racks":"2","terminal_type":"7inch","bike_numbers":"25008,28551,28044,28014,27993,27854,27763,27523,27415,27195,26099,25987,25885,25403,25362,25132,96427,29275","bike_types":{"4":18},"place_type":"0","rack_locks":"1"},{"uid":"2585417","lat":"52.2364206","lng":"21.0072407","name":"Marsza\u0142kowska - Zielna","spot":"1","number":"9489","bikes":"6","bike_racks":"30","free_racks":"24","terminal_type":"7inch","bike_numbers":"24809,24794,28608,28529,26787,26748","bike_types":{"4":6},"place_type":"0","rack_locks":"1"},{"uid":"2585420","lat":"52.2397008","lng":"21.0119292","name":"Plac Ma\u0142achowskiego","spot":"1","number":"9491","bikes":"16","bike_racks":"16","free_racks":"0","terminal_type":"7inch","bike_numbers":"24720,28033,27619,27268,26564,26379,26036,25793,25594,25573,25340,25217,25206,29004,96511,96461","bike_types":{"4":16},"place_type":"0","rack_locks":"1"},{"uid":"2585422","lat":"52.2359114","lng":"21.0135654","name":"Plac Powsta\u0144c\u00f3w Warszawy","spot":"1","number":"9492","bikes":"15","bike_racks":"20","free_racks":"5","terminal_type":"7inch","bike_numbers":"24753,24539,28728,28489,28005,27757,27604,26691,26514,26240,26001,25761,25260,28915,96272","bike_types":{"4":15},"place_type":"0","rack_locks":"1"},{"uid":"2585423","lat":"52.2393559","lng":"21.016603","name":"Krakowskie Przedmie\u015bcie - Traugutta","spot":"1","number":"9493","bikes":"16","bike_racks":"24","free_racks":"8","terminal_type":"7inch","bike_numbers":"24999,24747,24688,24642,24570,28634,28449,28114,27838,27262,27196,26879,25902,25788,96188,29231","bike_types":{"4":16},"place_type":"0","rack_locks":"1"},{"uid":"2585429","lat":"52.238298","lng":"21.0184014","name":"Obo\u017ana - Kopernika","spot":"1","number":"9495","bikes":"13","bike_racks":"22","free_racks":"8","terminal_type":"7inch","bike_numbers":"24831,24593,27875,27789,27614,26809,26805,26318,26069,25740,25523,25516,29115","bike_types":{"4":13},"place_type":"0","rack_locks":"1"},{"uid":"2585430","lat":"52.24190654256","lng":"21.024259328842","name":"Lipowa - Dobra","spot":"1","number":"9496","bikes":"39","bike_racks":"19","free_racks":"0","terminal_type":"7inch","bike_numbers":"24856,24838,24781,24622,24580,24510,24491,28517,28296,28031,27782,27747,27699,27629,27580,27473,27202,27190,27181,26958,26938,26906,26840,26399,26313,26252,26170,25878,25708,25604,25517,25489,25262,29652,28826,96048,96424,96108,29195","bike_types":{"4":38,"51":1},"place_type":"0","rack_locks":"1"},{"uid":"2585431","lat":"52.2413087","lng":"21.0281727","name":"Centrum Nauki Kopernik","spot":"1","number":"9497","bikes":"10","bike_racks":"30","free_racks":"21","terminal_type":"7inch","bike_numbers":"24911,24903,27869,27242,26219,25872,25211,28938,28831,96005","bike_types":{"4":10},"place_type":"0","rack_locks":"1"},{"uid":"2585432","lat":"52.2264464","lng":"20.9837164","name":"Kolejowa","spot":"1","number":"9498","bikes":"10","bike_racks":"16","free_racks":"6","terminal_type":"7inch","bike_numbers":"24818,24680,24640,28511,27924,27733,27587,26494,28997,96585","bike_types":{"4":10},"place_type":"0","rack_locks":"1"},{"uid":"2585433","lat":"52.22983","lng":"20.993996","name":"\u017belazna - Sienna","spot":"1","number":"9499","bikes":"5","bike_racks":"24","free_racks":"19","terminal_type":"7inch","bike_numbers":"24914,27355,26716,29448,24048","bike_types":{"4":4,"26":1},"place_type":"0","rack_locks":"1"},{"uid":"2585435","lat":"52.230201297582","lng":"20.999550819397","name":"al. Jana Paw\u0142a II - Z\u0142ota","spot":"1","number":"9500","bikes":"6","bike_racks":"16","free_racks":"10","terminal_type":"7inch","bike_numbers":"24495,28726,27658,27245,26261,25082","bike_types":{"51":1,"4":5},"place_type":"0","rack_locks":"1"},{"uid":"2585438","lat":"52.2309778","lng":"21.0036755","name":"Emilii Plater - Z\u0142ota","spot":"1","number":"9501","bikes":"8","bike_racks":"30","free_racks":"22","terminal_type":"7inch","bike_numbers":"28819,27470,26705,26427,26059,28989,96372,96238","bike_types":{"4":8},"place_type":"0","rack_locks":"1"},{"uid":"2585440","lat":"52.232816601853","lng":"21.006980538368","name":"Pa\u0142ac Kultury i Nauki","spot":"1","number":"9502","bikes":"13","bike_racks":"17","free_racks":"4","terminal_type":"7inch","bike_numbers":"28561,28509,28017,27295,26989,26745,26590,25438,25310,25270,29038,28909,29372","bike_types":{"4":13},"place_type":"0","rack_locks":"1"},{"uid":"2585442","lat":"52.232934","lng":"21.0101791","name":"Marsza\u0142kowska - Z\u0142ota","spot":"1","number":"9503","bikes":"15","bike_racks":"22","free_racks":"7","terminal_type":"7inch","bike_numbers":"24916,24786,28755,28626,27660,27524,27419,27201,27100,26963,26729,26179,25511,28832,96573","bike_types":{"4":15},"place_type":"0","rack_locks":"1"},{"uid":"2585445","lat":"52.231987","lng":"21.016092","name":"Bracka - Krucza","spot":"1","number":"9504","bikes":"3","bike_racks":"20","free_racks":"17","terminal_type":"7inch","bike_numbers":"26996,25283,96060","bike_types":{"4":3},"place_type":"0","rack_locks":"1"},{"uid":"2585446","lat":"52.2355713","lng":"21.0179642","name":"Nowy \u015awiat - Warecka","spot":"1","number":"9505","bikes":"5","bike_racks":"24","free_racks":"20","terminal_type":"7inch","bike_numbers":"28624,27976,25238,25058,96543","bike_types":{"4":5},"place_type":"0","rack_locks":"1"},{"uid":"2585447","lat":"52.2337571","lng":"21.0202789","name":"Ga\u0142czy\u0144skiego - Foksal","spot":"1","number":"9506","bikes":"7","bike_racks":"24","free_racks":"17","terminal_type":"7inch","bike_numbers":"28599,26319,26198,25353,29461,25629,28837","bike_types":{"4":7},"place_type":"0","rack_locks":"1"},{"uid":"2585450","lat":"52.2375934","lng":"21.0256487","name":"Topiel - Tamka","spot":"1","number":"9507","bikes":"41","bike_racks":"20","free_racks":"1","terminal_type":"7inch","bike_numbers":"24859,24501,24462,24459,28598,28554,28548,28351,28150,28019,28018,27997,27331,27187,27183,27090,27087,26907,26760,26735,26596,26442,26441,26364,26068,25922,25771,25071,25023,29098,28858,28875,96014,96550,96535,96492,96471,96254,96197,29163,29154","bike_types":{"4":39,"51":2},"place_type":"0","rack_locks":"1"},{"uid":"2585452","lat":"52.2358752","lng":"21.0317323","name":"Solec - Jaracza","spot":"1","number":"9508","bikes":"18","bike_racks":"15","free_racks":"1","terminal_type":"7inch","bike_numbers":"28218,28027,27729,27675,27464,27259,27248,27117,27073,27030,26053,26007,25422,96317,96309,96173,96110,29159","bike_types":{"4":18},"place_type":"0","rack_locks":"1"},{"uid":"2585453","lat":"52.2218874","lng":"20.9795301","name":"al. Jerozolimskie - Niemcewicza","spot":"1","number":"9509","bikes":"10","bike_racks":"19","free_racks":"8","terminal_type":"7inch","bike_numbers":"28672,28282,27387,27174,26142,26045,26010,29649,96523,96217","bike_types":{"4":10},"place_type":"0","rack_locks":"1"},{"uid":"2585455","lat":"52.2222155","lng":"20.9866293","name":"Ochota-Ratusz","spot":"1","number":"9510","bikes":"3","bike_racks":"23","free_racks":"19","terminal_type":"7inch","bike_numbers":"26362,25317,96428","bike_types":{"4":3},"place_type":"0","rack_locks":"1"},{"uid":"2585457","lat":"52.2249718","lng":"20.9897661","name":"Plac Zawiszy","spot":"1","number":"9511","bikes":"4","bike_racks":"24","free_racks":"20","terminal_type":"7inch","bike_numbers":"24584,28477,26527,26469","bike_types":{"4":4},"place_type":"0","rack_locks":"1"},{"uid":"2585460","lat":"52.22626","lng":"20.9961309","name":"al. Jerozolimskie - Lindleya","spot":"1","number":"9512","bikes":"1","bike_racks":"15","free_racks":"13","terminal_type":"7inch","bike_numbers":"28464","bike_types":{"4":1},"place_type":"0","rack_locks":"1"},{"uid":"2585462","lat":"52.2241455","lng":"20.9975244","name":"Lindleya - szpital","spot":"1","number":"9513","bikes":"20","bike_racks":"28","free_racks":"12","terminal_type":"7inch","bike_numbers":"24734,24564,28639,28485,28078,27823,27403,27119,26990,26720,26662,26509,26500,26315,26286,25242,60845,96019,96099,96586","bike_types":{"4":20},"place_type":"0","rack_locks":"1"},{"uid":"2585464","lat":"52.227861","lng":"21.0008509","name":"Warszawa \u015ar\u00f3dmie\u015bcie WKD","spot":"1","number":"9514","bikes":"11","bike_racks":"18","free_racks":"7","terminal_type":"7inch","bike_numbers":"24774,24467,28695,28552,28475,27173,26878,26859,28891,28975,96496","bike_types":{"4":10,"51":1},"place_type":"0","rack_locks":"1"},{"uid":"2585466","lat":"52.2249555","lng":"21.0031664","name":"Oczki - WUM","spot":"1","number":"9515","bikes":"11","bike_racks":"19","free_racks":"8","terminal_type":"7inch","bike_numbers":"24877,28753,28586,28429,27401,27095,27093,27008,26981,26141,29044","bike_types":{"4":11},"place_type":"0","rack_locks":"1"},{"uid":"2585469","lat":"52.2290464","lng":"21.0054544","name":"Emilii Plater - Al. Jerozolimskie","spot":"1","number":"9517","bikes":"5","bike_racks":"30","free_racks":"24","terminal_type":"7inch","bike_numbers":"27876,27669,25548,29364,28871","bike_types":{"4":5},"place_type":"0","rack_locks":"1"},{"uid":"2585470","lat":"52.2259343","lng":"21.0067537","name":"Emilii Plater - Wsp\u00f3lna","spot":"1","number":"9518","bikes":"7","bike_racks":"15","free_racks":"8","terminal_type":"7inch","bike_numbers":"24943,24549,28704,27727,27564,25035,28814","bike_types":{"4":7},"place_type":"0","rack_locks":"1"},{"uid":"2585472","lat":"52.23001","lng":"21.01088","name":"Metro Centrum","spot":"1","number":"9519","bikes":"25","bike_racks":"30","free_racks":"5","terminal_type":"7inch","bike_numbers":"24783,24670,28892,28367,28300,27687,27651,27637,27439,27233,27020,26851,26698,26627,26283,26131,25416,25094,28907,96411,96404,96377,96374,96153,29278","bike_types":{"4":25},"place_type":"0","rack_locks":"1"},{"uid":"2585473","lat":"52.229347019086","lng":"21.011314988136","name":"Marsza\u0142kowska - Al. Jerozolimskie","spot":"1","number":"9520","bikes":"0","bike_racks":"20","free_racks":"20","terminal_type":"7inch","place_type":"0","rack_locks":"1","bike_numbers":null,"bike_types":[]},{"uid":"2585476","lat":"52.230418150276","lng":"21.013610959053","name":"al. Jerozolimskie - rejon Rotundy","spot":"1","number":"9521","bikes":"12","bike_racks":"24","free_racks":"12","terminal_type":"7inch","bike_numbers":"24043,28766,27718,26912,26556,26488,25345,25279,29073,29435,96477,29198","bike_types":{"26":1,"4":11},"place_type":"0","rack_locks":"1"},{"uid":"2585477","lat":"52.2262882","lng":"21.0135705","name":"Marsza\u0142kowska - Ho\u017ca","spot":"1","number":"9522","bikes":"2","bike_racks":"15","free_racks":"12","terminal_type":"7inch","bike_numbers":"27059,96280","bike_types":{"4":2},"place_type":"0","rack_locks":"1"},{"uid":"2585492","lat":"52.2282923","lng":"21.0178542","name":"Krucza - Wsp\u00f3lna","spot":"1","number":"9523","bikes":"13","bike_racks":"28","free_racks":"15","terminal_type":"7inch","bike_numbers":"28494,27835,27081,25704,25163,25103,25024,28912,28985,96373,96118,96093,29255","bike_types":{"4":13},"place_type":"0","rack_locks":"1"},{"uid":"2585684","lat":"52.23144","lng":"21.0213036","name":"Rondo de Gaulle'a","spot":"1","number":"9524","bikes":"9","bike_racks":"22","free_racks":"13","terminal_type":"7inch","bike_numbers":"24732,24517,28578,27108,26145,25992,25395,25175,96097","bike_types":{"4":9},"place_type":"0","rack_locks":"1"},{"uid":"2585694","lat":"52.2278487","lng":"21.0235084","name":"Plac Trzech Krzy\u017cy","spot":"1","number":"9525","bikes":"21","bike_racks":"23","free_racks":"2","maintenance":"1","terminal_type":"7inch","bike_numbers":"28458,28379,28368,28089,27988,27128,26967,26734,26552,26180,25837,25542,25405,25207,25083,29340,29040,29427,28838,96563,96442","bike_types":{"4":21},"place_type":"0","rack_locks":"1"},{"uid":"2585695","lat":"52.23324","lng":"21.0261179","name":"Smolna - PKP Powi\u015ble","spot":"1","number":"9526","bikes":"1","bike_racks":"18","free_racks":"18","terminal_type":"7inch","bike_numbers":"27374","bike_types":{"4":1},"place_type":"0","rack_locks":"1"},{"uid":"2585699","lat":"52.2340191","lng":"21.0300328","name":"Herberta - PKP Powi\u015ble","spot":"1","number":"9527","bikes":"18","bike_racks":"26","free_racks":"8","terminal_type":"7inch","bike_numbers":"24933,28775,28121,27600,27454,27130,27096,26037,25984,25948,25675,25643,25540,25449,25244,29419,28840,96237","bike_types":{"4":18},"place_type":"0","rack_locks":"1"},{"uid":"2585704","lat":"52.2347879","lng":"21.0340991","name":"Solec - al. 3 Maja","spot":"1","number":"9528","bikes":"22","bike_racks":"24","free_racks":"7","terminal_type":"7inch","bike_numbers":"24661,28685,28637,28532,28486,28472,28253,27927,27798,27633,27606,27527,27126,26920,26601,26259,25913,25842,25773,25721,25010,29203","bike_types":{"4":22},"place_type":"0","rack_locks":"1"},{"uid":"2585708","lat":"52.2301405","lng":"21.0303694","name":"Ksi\u0105\u017c\u0119ca - Rozbrat","spot":"1","number":"9529","bikes":"24","bike_racks":"15","free_racks":"2","terminal_type":"7inch","bike_numbers":"24976,24965,24654,28749,28653,28376,28212,27611,27529,27061,26830,26673,25292,25254,25240,25049,29445,96527,96510,96457,96187,96125,96081,29189","bike_types":{"4":24},"place_type":"0","rack_locks":"1"},{"uid":"2585711","lat":"52.2172177","lng":"20.9713608","name":"Szcz\u0119\u015bliwicka - APS","spot":"1","number":"9530","bikes":"3","bike_racks":"22","free_racks":"19","terminal_type":"7inch","bike_numbers":"26736,28776,96572","bike_types":{"4":3},"place_type":"0","rack_locks":"1"},{"uid":"2585712","lat":"52.2179474","lng":"20.9775567","name":"Kopi\u0144ska - Bia\u0142obrzeska","spot":"1","number":"9531","bikes":"6","bike_racks":"15","free_racks":"9","terminal_type":"7inch","bike_numbers":"24860,27043,26727,25129,96504,96384","bike_types":{"4":6},"place_type":"0","rack_locks":"1"},{"uid":"2585714","lat":"52.2178554","lng":"20.9828138","name":"Plac Narutowicza","spot":"1","number":"9532","bikes":"3","bike_racks":"30","free_racks":"27","terminal_type":"7inch","bike_numbers":"24739,24033,27889","bike_types":{"4":2,"26":1},"place_type":"0","rack_locks":"1"},{"uid":"2585716","lat":"52.216641","lng":"20.9879476","name":"Raszy\u0144ska - Wawelska","spot":"1","number":"9533","bikes":"1","bike_racks":"20","free_racks":"18","terminal_type":"7inch","bike_numbers":"28563","bike_types":{"4":1},"place_type":"0","rack_locks":"1"},{"uid":"2585717","lat":"52.2191029","lng":"20.9890149","name":"Raszy\u0144ska - Filtrowa","spot":"1","number":"9534","bikes":"3","bike_racks":"18","free_racks":"13","terminal_type":"7inch","bike_numbers":"27867,27466,26075","bike_types":{"4":3},"place_type":"0","rack_locks":"1"},{"uid":"2585720","lat":"52.220676","lng":"21.0045554","name":"al. Niepodleg\u0142o\u015bci - Nowowiejska","spot":"1","number":"9535","bikes":"5","bike_racks":"30","free_racks":"25","terminal_type":"7inch","bike_numbers":"28760,27815,27266,26232,25308","bike_types":{"4":5},"place_type":"0","rack_locks":"1"},{"uid":"2585721","lat":"52.2174693","lng":"21.0056537","name":"Kaczy\u0144skiego - al. Niepodleg\u0142o\u015bci","spot":"1","number":"9536","bikes":"10","bike_racks":"16","free_racks":"6","terminal_type":"7inch","bike_numbers":"24655,27063,26707,26561,26358,25428,25277,96530,96124,29158","bike_types":{"4":10},"place_type":"0","rack_locks":"1"},{"uid":"2585722","lat":"52.2226831","lng":"21.0081097","name":"Noakowskiego - Koszykowa","spot":"1","number":"9537","bikes":"19","bike_racks":"24","free_racks":"4","terminal_type":"7inch","bike_numbers":"24577,27963,27127,27068,26710,26638,26531,26481,26445,26385,26352,26051,25875,25865,25504,25431,25222,28941,28808","bike_types":{"4":19},"place_type":"0","rack_locks":"1"},{"uid":"2585724","lat":"52.219916","lng":"21.0116824","name":"Plac Politechniki","spot":"1","number":"9538","bikes":"2","bike_racks":"27","free_racks":"23","terminal_type":"7inch","bike_numbers":"28501,27784","bike_types":{"4":2},"place_type":"0","rack_locks":"1"},{"uid":"2585727","lat":"52.223503","lng":"21.0128519","name":"Pozna\u0144ska - Zesp\u00f3\u0142 Szk\u00f3\u0142 Gastronomicznych","spot":"1","number":"9539","bikes":"6","bike_racks":"18","free_racks":"12","terminal_type":"7inch","bike_numbers":"24920,26801,26016,25981,25589,25319","bike_types":{"4":6},"place_type":"0","rack_locks":"1"},{"uid":"2585728","lat":"52.2174857","lng":"21.0142949","name":"Rondo Jazdy Polskiej","spot":"1","number":"9540","bikes":"3","bike_racks":"24","free_racks":"21","terminal_type":"7inch","bike_numbers":"24638,28146,27084","bike_types":{"4":3},"place_type":"0","rack_locks":"1"},{"uid":"2585729","lat":"52.2197435","lng":"21.0157353","name":"ul. Wary\u0144skiego-ul. Nowowiejska-Metro Politechnika ","spot":"1","number":"9541","bikes":"3","bike_racks":"18","free_racks":"17","terminal_type":"7inch","bike_numbers":"24987,24657,29050","bike_types":{"4":3},"place_type":"0","rack_locks":"1"},{"uid":"2585731","lat":"52.2197681","lng":"21.0172775","name":"Plac Zbawiciela","spot":"1","number":"9542","bikes":"4","bike_racks":"12","free_racks":"7","terminal_type":"7inch","bike_numbers":"27576,26929,25410,29280","bike_types":{"4":4},"place_type":"0","rack_locks":"1"},{"uid":"2585735","lat":"52.2229427","lng":"21.0158211","name":"Plac Konstytucji","spot":"1","number":"9543","bikes":"15","bike_racks":"30","free_racks":"15","terminal_type":"7inch","bike_numbers":"24718,28558,28391,27951,27732,26573,25513,25344,25086,29365,28777,28807,96022,96491,96100","bike_types":{"4":15},"place_type":"0","rack_locks":"1"},{"uid":"2585737","lat":"52.2238152","lng":"21.0207859","name":"Mokotowska - Pi\u0119kna","spot":"1","number":"9544","bikes":"5","bike_racks":"20","free_racks":"16","terminal_type":"7inch","bike_numbers":"27888,27369,28816,28918,96558","bike_types":{"4":5},"place_type":"0","rack_locks":"1"},{"uid":"2585738","lat":"52.2200212","lng":"21.0256299","name":"Plac na Rozdro\u017cu","spot":"1","number":"9545","bikes":"1","bike_racks":"26","free_racks":"26","terminal_type":"7inch","bike_numbers":"25184","bike_types":{"4":1},"place_type":"0","rack_locks":"1"},{"uid":"2585742","lat":"52.2249504","lng":"21.0268155","name":"Matejki - Wiejska","spot":"1","number":"9546","bikes":"8","bike_racks":"20","free_racks":"12","terminal_type":"7inch","bike_numbers":"24874,28479,26854,26630,26350,26267,25792,96174","bike_types":{"4":8},"place_type":"0","rack_locks":"1"},{"uid":"2585747","lat":"52.2221129","lng":"21.0343873","name":"My\u015bliwiecka - Rozbrat","spot":"1","number":"9547","bikes":"23","bike_racks":"21","free_racks":"0","terminal_type":"7inch","bike_numbers":"24881,24823,24565,24497,28710,28683,28444,28120,28012,27653,27420,26910,26467,26095,25641,25109,29110,29447,28805,28888,96417,96216,29172","bike_types":{"4":22,"51":1},"place_type":"0","rack_locks":"1"},{"uid":"2585748","lat":"52.2277124","lng":"21.0442955","name":"Port Czerniakowski","spot":"1","number":"9548","bikes":"28","bike_racks":"30","free_racks":"12","terminal_type":"7inch","bike_numbers":"24865,24802,24502,28579,28573,28516,28495,28412,28375,28355,27836,27640,27256,27218,27125,26585,26571,26490,26478,25299,25219,25169,29083,29459,25622,28972,96026,96565","bike_types":{"4":28},"place_type":"0","rack_locks":"1"},{"uid":"2585749","lat":"52.2109711","lng":"20.9759125","name":"Gr\u00f3jecka - Bitwy Warszawskiej 1920 roku","spot":"1","number":"9549","bikes":"6","bike_racks":"20","free_racks":"13","terminal_type":"7inch","bike_numbers":"28721,28259,27711,26504,26074,96363","bike_types":{"4":6},"place_type":"0","rack_locks":"1"},{"uid":"2585750","lat":"52.2130296","lng":"20.9819985","name":"Pasteura - Winnicka - UW","spot":"1","number":"9550","bikes":"13","bike_racks":"24","free_racks":"11","terminal_type":"7inch","bike_numbers":"24958,24455,25001,27915,27282,26845,26432,25877,25583,25062,29017,96447,96394","bike_types":{"4":12,"51":1},"place_type":"0","rack_locks":"1"},{"uid":"2585762","lat":"52.2107722","lng":"20.9847557","name":"Stefana Banacha - UW","spot":"1","number":"9551","bikes":"14","bike_racks":"29","free_racks":"9","terminal_type":"7inch","bike_numbers":"27979,27882,27819,27312,27188,26342,26307,29344,29112,29002,29360,29137,96551,96520","bike_types":{"4":13,"0":1},"place_type":"0","rack_locks":"1"},{"uid":"2585764","lat":"52.212671","lng":"21.003437","name":"Biblioteka Narodowa","spot":"1","number":"9552","bikes":"1","bike_racks":"24","free_racks":"23","terminal_type":"7inch","bike_numbers":"27412","bike_types":{"4":1},"place_type":"0","rack_locks":"1"},{"uid":"2585766","lat":"52.21691","lng":"21.01997","name":"Marsza\u0142kowska - Litewska","spot":"1","number":"9553","bikes":"15","bike_racks":"15","free_racks":"0","terminal_type":"7inch","bike_numbers":"24605,24518,28623,28341,28118,27511,27483,26029,26004,25819,96029,96542,96318,29156,29272","bike_types":{"4":15},"place_type":"0","rack_locks":"1"},{"uid":"2585770","lat":"52.2083858","lng":"20.9631103","name":"P\u0119tla Szcz\u0119\u015bliwice","spot":"1","number":"9554","bikes":"7","bike_racks":"19","free_racks":"12","terminal_type":"7inch","bike_numbers":"24858,25009,27848,27272,25920,25844,96006","bike_types":{"4":7},"place_type":"0","rack_locks":"1"},{"uid":"2585771","lat":"52.206153650625","lng":"20.970287919044","name":"Dickensa - Geodet\u00f3w","spot":"1","number":"9555","bikes":"7","bike_racks":"16","free_racks":"11","terminal_type":"7inch","bike_numbers":"25006,28410,26559,25186,29106,96370,29252","bike_types":{"4":7},"place_type":"0","rack_locks":"1"},{"uid":"2585772","lat":"52.205361371875","lng":"20.984664559364","name":"\u017bwirki i Wigury - Ksi\u0119cia Trojdena","spot":"1","number":"9556","bikes":"15","bike_racks":"17","free_racks":"1","terminal_type":"7inch","bike_numbers":"28423,27866,27703,27603,27324,27296,26916,26742,26712,26613,26039,25748,25320,28815,96143","bike_types":{"4":15},"place_type":"0","rack_locks":"1"},{"uid":"2585774","lat":"52.205801893754","lng":"20.998928546906","name":"Rakowiecka - \u015aw. A. Boboli","spot":"1","number":"9557","bikes":"12","bike_racks":"17","free_racks":"5","terminal_type":"7inch","bike_numbers":"24717,28740,27577,26453,26052,25457,25232,25193,29084,96509,96279,96179","bike_types":{"4":12},"place_type":"0","rack_locks":"1"},{"uid":"2585776","lat":"52.209916","lng":"21.0067794","name":"al. Niepodleg\u0142o\u015bci - Batorego","spot":"1","number":"9558","bikes":"7","bike_racks":"26","free_racks":"23","terminal_type":"7inch","bike_numbers":"24716,28038,27244,26299,25880,25620,25393","bike_types":{"4":7},"place_type":"0","rack_locks":"1"},{"uid":"2585779","lat":"52.2132375","lng":"21.0210568","name":"Plac Unii Lubelskiej","spot":"1","number":"9559","bikes":"23","bike_racks":"24","free_racks":"4","terminal_type":"7inch","bike_numbers":"24925,24695,24612,28662,28482,28469,28279,27957,27883,27779,27219,26889,26187,25871,25827,25822,25125,29374,96028,96488,96421,96395,96172","bike_types":{"4":23},"place_type":"0","rack_locks":"1"},{"uid":"2585781","lat":"52.2027557","lng":"20.9508951","name":"W\u0142odarzewska - Maszynowa","spot":"1","number":"9560","bikes":"2","bike_racks":"18","free_racks":"15","terminal_type":"7inch","bike_numbers":"96050,96192","bike_types":{"4":2},"place_type":"0","rack_locks":"1"},{"uid":"2585782","lat":"52.2017647","lng":"20.9820897","name":"Sanocka - Pruszkowska","spot":"1","number":"9561","bikes":"1","bike_racks":"15","free_racks":"14","terminal_type":"7inch","bike_numbers":"27880","bike_types":{"4":1},"place_type":"0","rack_locks":"1"},{"uid":"2585785","lat":"52.1981365","lng":"20.9833717","name":"\u017bwirki i Wigury - Rac\u0142awicka","spot":"1","number":"9562","bikes":"5","bike_racks":"18","free_racks":"13","terminal_type":"7inch","bike_numbers":"28034,27169,25199,29654,96193","bike_types":{"4":5},"place_type":"0","rack_locks":"1"},{"uid":"2585787","lat":"52.20177","lng":"20.99969","name":"Wo\u0142oska - Kulskiego","spot":"1","number":"9563","bikes":"7","bike_racks":"15","free_racks":"8","terminal_type":"7inch","bike_numbers":"24585,27919,27881,27493,26917,26411,25314","bike_types":{"4":7},"place_type":"0","rack_locks":"1"},{"uid":"2585788","lat":"52.2042638","lng":"21.014428","name":"Madali\u0144skiego - Kazimierzowska","spot":"1","number":"9564","bikes":"1","bike_racks":"24","free_racks":"22","terminal_type":"7inch","bike_numbers":"27161","bike_types":{"4":1},"place_type":"0","rack_locks":"1"},{"uid":"2585789","lat":"52.2055175","lng":"21.0231033","name":"Pu\u0142awska - Dworkowa","spot":"1","number":"9565","bikes":"2","bike_racks":"19","free_racks":"16","terminal_type":"7inch","bike_numbers":"26094,25694","bike_types":{"4":2},"place_type":"0","rack_locks":"1"},{"uid":"2585790","lat":"52.2071756","lng":"21.0312643","name":"Belwederska - Gagarina","spot":"1","number":"9566","bikes":"15","bike_racks":"30","free_racks":"15","terminal_type":"7inch","bike_numbers":"28869,28154,27831,27719,26975,26940,26597,26013,26006,25802,25648,25524,25216,28830,28884","bike_types":{"4":15},"place_type":"0","rack_locks":"1"},{"uid":"2585791","lat":"52.2074193","lng":"21.0479621","name":"Czerniakowska - Gagarina","spot":"1","number":"9567","bikes":"30","bike_racks":"25","free_racks":"1","terminal_type":"7inch","bike_numbers":"24820,24816,24645,28641,28546,28459,28286,28136,28050,27563,27409,26951,26699,26402,26326,26285,26108,26071,26063,25938,25229,25013,29034,29433,29656,28828,28977,96346,96241,24053","bike_types":{"4":29,"26":1},"place_type":"0","rack_locks":"1"},{"uid":"2585794","lat":"52.1938131","lng":"20.9914431","name":"Etiudy Rewolucyjnej - Mi\u0105czy\u0144ska","spot":"1","number":"9568","bikes":"16","bike_racks":"18","free_racks":"9","terminal_type":"7inch","bike_numbers":"24828,28640,28384,28262,27477,27148,25862,25586,25584,25465,25112,29113,96033,96493,96469,96416","bike_types":{"4":16},"place_type":"0","rack_locks":"1"},{"uid":"2585799","lat":"52.1994156","lng":"21.0121384","name":"Metro Rac\u0142awicka","spot":"1","number":"9570","bikes":"1","bike_racks":"30","free_racks":"30","terminal_type":"7inch","bike_numbers":"27051","bike_types":{"4":1},"place_type":"0","rack_locks":"1"},{"uid":"2585800","lat":"52.199505","lng":"21.0240975","name":"Pu\u0142awska - Dolna","spot":"1","number":"9571","bikes":"1","bike_racks":"18","free_racks":"17","terminal_type":"7inch","bike_numbers":"25528","bike_types":{"4":1},"place_type":"0","rack_locks":"1"},{"uid":"2585802","lat":"52.2014754","lng":"21.0360047","name":"Sobieskiego - Che\u0142mska","spot":"1","number":"9572","bikes":"15","bike_racks":"15","free_racks":"0","terminal_type":"7inch","bike_numbers":"24929,24038,28283,28108,28104,28039,27741,27447,25991,25551,25133,96274,96202,96200,96186","bike_types":{"4":14,"26":1},"place_type":"0","rack_locks":"1"},{"uid":"2585804","lat":"52.1998446","lng":"21.05095","name":"Czerniakowska - ZUS","spot":"1","number":"9573","bikes":"19","bike_racks":"15","free_racks":"0","terminal_type":"7inch","bike_numbers":"24934,24754,24627,28338,28331,27676,27425,27139,27015,26966,26308,26205,26133,25914,25610,25373,25255,28852,96184","bike_types":{"4":19},"place_type":"0","rack_locks":"1"},{"uid":"2585807","lat":"52.1916776","lng":"20.8689688","name":"PKP Ursus-Nied\u017awiadek","spot":"1","number":"9574","bikes":"9","bike_racks":"15","free_racks":"6","terminal_type":"7inch","bike_numbers":"24744,24519,28905,27598,27205,25840,29131,96512,96345","bike_types":{"4":8,"0":1},"place_type":"0","rack_locks":"1"},{"uid":"2585808","lat":"52.1960469","lng":"20.8849347","name":"PKP Ursus","spot":"1","number":"9575","bikes":"8","bike_racks":"16","free_racks":"8","terminal_type":"7inch","bike_numbers":"24968,28591,28083,26602,26328,25888,25835,25221","bike_types":{"4":8},"place_type":"0","rack_locks":"1"},{"uid":"2585809","lat":"52.1869936","lng":"20.8906478","name":"Sosnkowskiego - OSiR Ursus","spot":"1","number":"9576","bikes":"13","bike_racks":"15","free_racks":"2","terminal_type":"7inch","bike_numbers":"24576,28336,28122,27569,26659,26397,26393,25667,25436,25256,28893,96470,96091","bike_types":{"4":13},"place_type":"0","rack_locks":"1"},{"uid":"2585811","lat":"52.2005548","lng":"20.8937538","name":"Ursus-Ratusz","spot":"1","number":"9577","bikes":"8","bike_racks":"15","free_racks":"7","terminal_type":"7inch","bike_numbers":"27379,26708,25860,25733,25655,29639,28825,96364","bike_types":{"4":8},"place_type":"0","rack_locks":"1"},{"uid":"2585814","lat":"52.1906376","lng":"20.8999443","name":"Skoroszewska - Prystora","spot":"1","number":"9578","bikes":"15","bike_racks":"17","free_racks":"2","terminal_type":"7inch","bike_numbers":"28668,28287,27942,27131,27047,26339,26024,25469,25304,25194,28842,96525,96400,96323,96301","bike_types":{"4":15},"place_type":"0","rack_locks":"1"},{"uid":"2585817","lat":"52.1882609","lng":"20.9603771","name":"G\u0142adka - OSiR W\u0142ochy","spot":"1","number":"9579","bikes":"12","bike_racks":"16","free_racks":"3","terminal_type":"7inch","bike_numbers":"24596,28636,28538,28112,28049,27813,26528,26426,25664,25116,29141,96315","bike_types":{"4":11,"0":1},"place_type":"0","rack_locks":"1"},{"uid":"2585820","lat":"52.2056441","lng":"20.9159142","name":"PKP W\u0142ochy","spot":"1","number":"9580","bikes":"6","bike_racks":"17","free_racks":"11","terminal_type":"7inch","bike_numbers":"24674,27546,26334,25363,28983,96056","bike_types":{"4":6},"place_type":"0","rack_locks":"1"},{"uid":"2585821","lat":"52.2012157","lng":"20.9353145","name":"al. Jerozolimskie - Popularna","spot":"1","number":"9581","bikes":"2","bike_racks":"17","free_racks":"15","terminal_type":"7inch","bike_numbers":"27743,28910","bike_types":{"4":2},"place_type":"0","rack_locks":"1"},{"uid":"2585824","lat":"52.1924709","lng":"20.9596664","name":"W\u0142ochy-Ratusz","spot":"1","number":"9582","bikes":"13","bike_racks":"14","free_racks":"1","terminal_type":"7inch","bike_numbers":"24885,24465,28476,28327,27843,27797,27582,26042,25853,29079,29134,28847,28846","bike_types":{"4":12,"51":1},"place_type":"0","rack_locks":"1"},{"uid":"2585825","lat":"52.1946888","lng":"20.9667823","name":"1 Sierpnia - DK W\u0142ochy","spot":"1","number":"9583","bikes":"6","bike_racks":"15","free_racks":"9","terminal_type":"7inch","bike_numbers":"28460,26964,26456,29200,28942,29267","bike_types":{"4":6},"place_type":"0","rack_locks":"1"},{"uid":"2585827","lat":"52.1888962","lng":"21.0175887","name":"Metro Wierzbno","spot":"1","number":"9584","bikes":"1","bike_racks":"20","free_racks":"19","terminal_type":"7inch","bike_numbers":"29178","bike_types":{"4":1},"place_type":"0","rack_locks":"1"},{"uid":"2585830","lat":"52.18648","lng":"21.02538","name":"Pu\u0142awska - Idzikowskiego","spot":"1","number":"9585","bikes":"8","bike_racks":"17","free_racks":"9","terminal_type":"7inch","bike_numbers":"24795,28497,27071,26640,25758,25727,25274,96057","bike_types":{"4":8},"place_type":"0","rack_locks":"1"},{"uid":"2585835","lat":"52.1882861","lng":"21.0498825","name":"Sobieskiego - Mangalia","spot":"1","number":"9586","bikes":"22","bike_racks":"15","free_racks":"0","terminal_type":"7inch","bike_numbers":"24697,24471,24011,27846,27705,27641,27293,27255,26939,26476,26288,26250,26118,26101,26038,25851,25823,25316,28944,96556,96147,96119","bike_types":{"4":20,"51":1,"26":1},"place_type":"0","rack_locks":"1"},{"uid":"2585837","lat":"52.178777","lng":"21.0016387","name":"Wo\u0142oska - Marynarska","spot":"1","number":"9588","bikes":"20","bike_racks":"26","free_racks":"6","terminal_type":"7inch","bike_numbers":"28577,28251,28193,27964,27913,27545,27537,27434,27213,27209,27011,26873,26146,25638,25595,25173,29648,96259,96141,29279","bike_types":{"4":20},"place_type":"0","rack_locks":"1"},{"uid":"2585838","lat":"52.1800882","lng":"21.0207403","name":"al. Niepodleg\u0142o\u015bci - al. Wilanowska","spot":"1","number":"9589","bikes":"12","bike_racks":"22","free_racks":"10","terminal_type":"7inch","bike_numbers":"24768,24762,28143,27783,26664,26329,25967,25912,25702,25388,25061,29114","bike_types":{"4":12},"place_type":"0","rack_locks":"1"},{"uid":"2585839","lat":"52.1779163","lng":"21.049562","name":"P\u0119tla Stegny","spot":"1","number":"9590","bikes":"14","bike_racks":"23","free_racks":"14","terminal_type":"7inch","bike_numbers":"24827,27695,27391,27297,26861,25945,25681,25333,25111,25026,28778,96515,96312,29268","bike_types":{"4":14},"place_type":"0","rack_locks":"1"},{"uid":"2585843","lat":"52.1818472","lng":"21.0562822","name":"Sobieskiego - \u015bw. Bonifacego","spot":"1","number":"9591","bikes":"17","bike_racks":"22","free_racks":"6","terminal_type":"7inch","bike_numbers":"24887,28717,28582,28556,28334,28015,27973,27772,27402,26526,26070,25846,25828,25820,25639,28964,96043","bike_types":{"4":17},"place_type":"0","rack_locks":"1"},{"uid":"2585844","lat":"52.1702836","lng":"20.9959132","name":"P\u0119tla Bokserska","spot":"1","number":"9592","bikes":"10","bike_racks":"15","free_racks":"5","terminal_type":"7inch","bike_numbers":"24954,28666,28196,27851,26728,26356,25495,96049,96226,29220","bike_types":{"4":10},"place_type":"0","rack_locks":"1"},{"uid":"2585846","lat":"52.1710498","lng":"21.0059144","name":"Gintrowskiego - Gotarda","spot":"1","number":"9593","bikes":"2","bike_racks":"15","free_racks":"13","terminal_type":"7inch","bike_numbers":"24853,26246","bike_types":{"4":2},"place_type":"0","rack_locks":"1"},{"uid":"2585848","lat":"52.174435","lng":"21.0128814","name":"al. Lotnik\u00f3w - Kaczmarskiego","spot":"1","number":"9594","bikes":"3","bike_racks":"30","free_racks":"28","terminal_type":"7inch","bike_numbers":"27635,26524,29089","bike_types":{"4":3},"place_type":"0","rack_locks":"1"},{"uid":"2585850","lat":"52.1733132","lng":"21.0257305","name":"Metro S\u0142u\u017cew","spot":"1","number":"9595","bikes":"9","bike_racks":"24","free_racks":"15","terminal_type":"7inch","bike_numbers":"26746,25654,25500,25153,25031,29021,28900,96485,29218","bike_types":{"4":9},"place_type":"0","rack_locks":"1"},{"uid":"2585853","lat":"52.17343","lng":"21.03179","name":"Wa\u0142brzyska - Wr\u00f3bla","spot":"1","number":"9596","bikes":"19","bike_racks":"30","free_racks":"11","terminal_type":"7inch","bike_numbers":"28520,28023,28002,27812,27556,27399,27215,27066,27036,26993,26637,26324,26322,25789,25426,25224,29431,96038,96355","bike_types":{"4":19},"place_type":"0","rack_locks":"1"},{"uid":"2585856","lat":"52.170135","lng":"21.0685748","name":"Jana III Sobieskiego - al. Wilanowska","spot":"1","number":"9597","bikes":"16","bike_racks":"15","free_racks":"5","terminal_type":"7inch","bike_numbers":"24981,24797,24590,28729,28696,28493,28437,28413,27153,26458,25459,25442,25204,25097,28951,96303","bike_types":{"4":16},"place_type":"0","rack_locks":"1"},{"uid":"2585860","lat":"52.1655879","lng":"21.0839331","name":"al. Wilanowska - Przycz\u00f3\u0142kowa","spot":"1","number":"9598","bikes":"16","bike_racks":"16","free_racks":"0","terminal_type":"7inch","bike_numbers":"24610,28321,28051,27407,27288,26797,26677,26365,25507,25501,25361,28881,96040,96177,96162,29201","bike_types":{"4":16},"place_type":"0","rack_locks":"1"},{"uid":"2585863","lat":"52.16479","lng":"21.10925","name":"Vogla - Syta","spot":"1","number":"9599","bikes":"13","bike_racks":"16","free_racks":"3","terminal_type":"7inch","bike_numbers":"24489,28528,28433,28365,28256,27834,27825,27474,26434,26345,25808,29349,29095","bike_types":{"51":1,"4":12},"place_type":"0","rack_locks":"1"},{"uid":"2585868","lat":"52.1606257","lng":"21.0723245","name":"al. Rzeczypospolitej - Klimczaka","spot":"1","number":"9600","bikes":"9","bike_racks":"16","free_racks":"5","terminal_type":"7inch","bike_numbers":"24651,27992,27894,26512,26114,25999,25352,60855,96178","bike_types":{"4":9},"place_type":"0","rack_locks":"1"},{"uid":"2585871","lat":"52.1569168","lng":"21.0760903","name":"al. Rzeczypospolitej - Branickiego","spot":"1","number":"9601","bikes":"26","bike_racks":"16","free_racks":"1","terminal_type":"7inch","bike_numbers":"24922,24484,28092,27884,27430,27373,27348,26919,26448,26304,26262,26230,25870,25772,25678,25555,25412,25285,25234,25040,29055,96405,96342,96330,96145,29170","bike_types":{"4":25,"51":1},"place_type":"0","rack_locks":"1"},{"uid":"2585872","lat":"52.1593735","lng":"21.086449","name":"Przycz\u00f3\u0142kowa - Branickiego","spot":"1","number":"9602","bikes":"13","bike_racks":"16","free_racks":"4","terminal_type":"7inch","bike_numbers":"24614,24569,24534,28615,28513,28380,27241,26520,25829,25703,25439,25185,28848","bike_types":{"4":13},"place_type":"0","rack_locks":"1"},{"uid":"2585873","lat":"52.1618136","lng":"21.0277355","name":"Metro Ursyn\u00f3w II","spot":"1","number":"9603","bikes":"0","bike_racks":"30","free_racks":"29","terminal_type":"7inch","place_type":"0","rack_locks":"1","bike_numbers":null,"bike_types":[]},{"uid":"2585875","lat":"52.1622579","lng":"21.0280761","name":"Metro Ursyn\u00f3w I","spot":"1","number":"9604","bikes":"8","bike_racks":"30","free_racks":"22","terminal_type":"7inch","bike_numbers":"24712,24693,28689,27453,27053,26813,25225,25045","bike_types":{"4":8},"place_type":"0","rack_locks":"1"},{"uid":"2585876","lat":"52.162401","lng":"21.0383811","name":"Jastrz\u0119bowskiego - SGGW","spot":"1","number":"9605","bikes":"19","bike_racks":"28","free_racks":"9","terminal_type":"7inch","bike_numbers":"24862,24741,24624,24611,24476,24021,28537,27981,27549,27431,27147,27129,26904,26880,25015,29346,28974,96465,96358","bike_types":{"4":17,"51":1,"26":1},"place_type":"0","rack_locks":"1"},{"uid":"2585880","lat":"52.1557534","lng":"21.0232776","name":"Romera - Pieciolinii","spot":"1","number":"9606","bikes":"10","bike_racks":"16","free_racks":"6","terminal_type":"7inch","bike_numbers":"28803,28661,27568,27025,26149,26065,25326,25210,29096,96552","bike_types":{"4":10},"place_type":"0","rack_locks":"1"},{"uid":"2585883","lat":"52.1568674","lng":"21.0338401","name":"Metro Stok\u0142osy","spot":"1","number":"9607","bikes":"18","bike_racks":"27","free_racks":"9","terminal_type":"7inch","bike_numbers":"24656,28701,28576,28366,28349,28343,27969,27918,27091,26905,25952,25908,25420,29035,28940,28845,63621,63605","bike_types":{"4":18},"place_type":"0","rack_locks":"1"},{"uid":"2585885","lat":"52.1572887","lng":"21.0440084","name":"Roso\u0142a - Ciszewskiego - SGGW","spot":"1","number":"9608","bikes":"34","bike_racks":"30","free_racks":"0","terminal_type":"7inch","bike_numbers":"24850,24844,24822,24791,28698,28419,28403,28377,27994,27878,27659,27506,27289,27197,27069,26850,26722,26574,26515,26189,25935,25735,25697,25561,25559,25346,25286,29024,28839,28870,28906,96037,96025,96459","bike_types":{"4":34},"place_type":"0","rack_locks":"1"},{"uid":"2585888","lat":"52.1521429","lng":"21.0181224","name":"Pu\u0142awska - Pileckiego","spot":"1","number":"9609","bikes":"11","bike_racks":"22","free_racks":"11","terminal_type":"7inch","bike_numbers":"24615,28731,27724,27496,27228,26984,26652,25776,60836,96084,29237","bike_types":{"4":11},"place_type":"0","rack_locks":"1"},{"uid":"2585893","lat":"52.1495064","lng":"21.0332527","name":"Ciszewskiego - Pileckiego","spot":"1","number":"9610","bikes":"10","bike_racks":"22","free_racks":"13","terminal_type":"7inch","bike_numbers":"24817,28630,28057,26612,26525,26067,25536,25493,25375,28994","bike_types":{"4":10},"place_type":"0","rack_locks":"1"},{"uid":"2585894","lat":"52.1549453","lng":"21.0492977","name":"Roso\u0142a - Gandhi","spot":"1","number":"9611","bikes":"10","bike_racks":"22","free_racks":"8","terminal_type":"7inch","bike_numbers":"28735,28622,28311,27570,26357,26102,25557,25481,25331,25068","bike_types":{"4":10},"place_type":"0","rack_locks":"1"},{"uid":"2585897","lat":"52.1493105","lng":"21.0453361","name":"Metro Imielin","spot":"1","number":"9612","bikes":"16","bike_racks":"22","free_racks":"7","terminal_type":"7inch","bike_numbers":"24851,24554,28398,28345,28340,27613,27352,27223,27075,25894,25525,25448,25377,29032,96295,96245","bike_types":{"4":16},"place_type":"0","rack_locks":"1"},{"uid":"2585899","lat":"52.1522333","lng":"21.0563922","name":"Roso\u0142a - Weso\u0142a","spot":"1","number":"9613","bikes":"3","bike_racks":"23","free_racks":"19","terminal_type":"7inch","bike_numbers":"28621,27793,27565","bike_types":{"4":3},"place_type":"0","rack_locks":"1"},{"uid":"2585901","lat":"52.1427201","lng":"21.0383624","name":"Pileckiego - Alternatywy","spot":"1","number":"9614","bikes":"4","bike_racks":"30","free_racks":"26","terminal_type":"7inch","bike_numbers":"28372,28326,29660,63628","bike_types":{"4":4},"place_type":"0","rack_locks":"1"},{"uid":"2585902","lat":"52.142735","lng":"21.0448131","name":"Dereniowa - P\u0142askowickiej","spot":"1","number":"9615","bikes":"15","bike_racks":"22","free_racks":"9","terminal_type":"7inch","bike_numbers":"24886,28416,28040,27987,27790,27583,26626,26557,26499,26244,25665,25273,29053,63613,96399","bike_types":{"4":15},"place_type":"0","rack_locks":"1"},{"uid":"2585904","lat":"52.1376039","lng":"21.0505531","name":"Stryje\u0144skich - Belgradzka","spot":"1","number":"9616","bikes":"7","bike_racks":"15","free_racks":"12","terminal_type":"7inch","bike_numbers":"24777,28748,26487,25964,25067,28982,96052","bike_types":{"4":7},"place_type":"0","rack_locks":"1"},{"uid":"2585905","lat":"52.1403909","lng":"21.0568187","name":"Metro Natolin","spot":"1","number":"9617","bikes":"34","bike_racks":"30","free_racks":"0","terminal_type":"7inch","bike_numbers":"24953,28505,28502,28466,28024,27829,27781,27471,27426,27111,26883,26598,26589,26523,26341,26212,26193,26191,26148,26005,25839,25673,25474,25392,25267,25047,29552,28844,28968,60867,96566,96107,29177,24047","bike_types":{"4":33,"26":1},"place_type":"0","rack_locks":"1"},{"uid":"2585906","lat":"52.1420749","lng":"21.0659905","name":"Belgradzka - Roso\u0142a","spot":"1","number":"9618","bikes":"9","bike_racks":"23","free_racks":"11","terminal_type":"7inch","bike_numbers":"24975,24632,27859,27599,26695,26245,29064,29553,96338","bike_types":{"4":9},"place_type":"0","rack_locks":"1"},{"uid":"2585908","lat":"52.1314333","lng":"21.0561562","name":"Stryje\u0144skich - W\u0105wozowa","spot":"1","number":"9619","bikes":"37","bike_racks":"23","free_racks":"3","terminal_type":"7inch","bike_numbers":"24977,24475,28773,28481,28448,28383,28298,28221,28144,28099,28068,27941,27759,27585,27382,27304,27251,26928,26898,26688,26412,26105,26096,25978,25812,25741,25556,25490,28945,28854,63629,63623,96561,96454,96437,96224,29192","bike_types":{"4":36,"51":1},"place_type":"0","rack_locks":"1"},{"uid":"2585911","lat":"52.3326052","lng":"20.9418404","name":"Ordon\u00f3wny - \u015awiatowida","spot":"1","number":"9620","bikes":"22","bike_racks":"22","free_racks":"3","terminal_type":"7inch","bike_numbers":"24882,24743,24677,28314,27664,27612,26915,26692,26655,26582,26461,26225,26018,25936,25300,25036,25030,96486,96441,96265,96248,96591","bike_types":{"4":22},"place_type":"0","rack_locks":"1"},{"uid":"2585913","lat":"52.1310925","lng":"21.0654795","name":"Metro Kabaty","spot":"1","number":"9621","bikes":"14","bike_racks":"22","free_racks":"8","terminal_type":"7inch","bike_numbers":"24022,28804,27507,27495,27308,27189,26753,26351,26155,25966,25571,60863,96085,96592","bike_types":{"26":1,"4":13},"place_type":"0","rack_locks":"1"},{"uid":"2585916","lat":"52.1332642","lng":"21.0747962","name":"W\u0105wozowa - Roso\u0142a","spot":"1","number":"9622","bikes":"7","bike_racks":"18","free_racks":"11","terminal_type":"7inch","bike_numbers":"27595,27016,26609,26544,29184","bike_types":{"4":5},"place_type":"0","rack_locks":"1"},{"uid":"2585917","lat":"52.324116","lng":"21.05663","name":"Skarbka z G\u00f3r - Berensona","spot":"1","number":"9623","bikes":"18","bike_racks":"26","free_racks":"8","terminal_type":"7inch","bike_numbers":"24939,28657,28619,28607,28277,28090,27821,27680,27632,26881,26768,26194,26152,25587,28812,96020,96430,29246","bike_types":{"4":18},"place_type":"0","rack_locks":"1"},{"uid":"2585919","lat":"52.3485329","lng":"20.9418336","name":"Aluzyjna - Tr\u0105by","spot":"1","number":"9624","bikes":"13","bike_racks":"16","free_racks":"6","terminal_type":"7inch","bike_numbers":"24926,28612,27986,26759,26623,26000,25841,29045,29555,96391,96327,96199,96190","bike_types":{"4":13},"place_type":"0","rack_locks":"1"},{"uid":"2585920","lat":"52.3226982","lng":"20.9448107","name":"\u015awiatowida - Mehoffera","spot":"1","number":"9625","bikes":"11","bike_racks":"16","free_racks":"5","terminal_type":"7inch","bike_numbers":"28821,27721,27335,27170,26674,26330,25646,25577,25305,29373,28878","bike_types":{"4":11},"place_type":"0","rack_locks":"1"},{"uid":"2585921","lat":"52.3212548","lng":"20.9477347","name":"Bia\u0142o\u0142\u0119cki O\u015brodek Sportu","spot":"1","number":"9626","bikes":"20","bike_racks":"30","free_racks":"10","terminal_type":"7inch","bike_numbers":"24993,28682,28671,28652,28426,27847,26954,26941,26575,26551,26489,26172,28995,96044,96042,96481,96448,96137,29181,29223","bike_types":{"4":20},"place_type":"0","rack_locks":"1"},{"uid":"2585922","lat":"52.3211272","lng":"20.9712964","name":"Bia\u0142o\u0142\u0119ka-Ratusz","spot":"1","number":"9627","bikes":"10","bike_racks":"19","free_racks":"9","terminal_type":"7inch","bike_numbers":"24900,24833,28771,28431,27996,27167,25607,29108,96396,29197","bike_types":{"4":10},"place_type":"0","rack_locks":"1"},{"uid":"2585924","lat":"52.3132981","lng":"20.9655324","name":"My\u015bliborska - al. Kukli\u0144skiego","spot":"1","number":"9628","bikes":"25","bike_racks":"22","free_racks":"0","terminal_type":"7inch","bike_numbers":"28680,28562,28395,28390,28190,27952,27895,27868,27465,27350,27303,27098,26865,26835,26834,26645,26536,26475,25915,25736,25139,96522,96306,96257,96138","bike_types":{"4":25},"place_type":"0","rack_locks":"1"},{"uid":"2585925","lat":"52.3031984","lng":"20.9891666","name":"Modli\u0144ska - \u017bera\u0144ska","spot":"1","number":"9629","bikes":"33","bike_racks":"30","free_racks":"2","terminal_type":"7inch","bike_numbers":"24849,24675,24560,28886,28308,28127,27982,27960,27871,27725,27704,27080,26769,26763,26757,26678,26592,26472,26188,25968,25784,25710,25470,25398,25297,25092,29125,29133,96544,96524,96129,96117,29254","bike_types":{"4":31,"0":2},"place_type":"0","rack_locks":"1"},{"uid":"2585926","lat":"52.3150181","lng":"21.0610807","name":"Skarbka z G\u00f3r - Magiczna","spot":"1","number":"9630","bikes":"31","bike_racks":"30","free_racks":"4","terminal_type":"7inch","bike_numbers":"24830,24692,24042,25002,28587,28583,28456,28440,28301,28067,27954,27538,27513,27487,27360,27354,27279,27115,26827,26820,26460,26400,25591,25376,25146,29130,96451,96128,96120,29180,29233","bike_types":{"4":29,"26":1,"0":1},"place_type":"0","rack_locks":"1"},{"uid":"2585928","lat":"52.3000268","lng":"21.0425266","name":"P\u0119tla Br\u00f3dno - Podgrodzie","spot":"1","number":"9631","bikes":"26","bike_racks":"16","free_racks":"0","terminal_type":"7inch","bike_numbers":"24799,24649,28750,28734,28566,28442,28404,27650,27463,27450,27427,27305,27274,27260,26986,26129,25807,25701,25615,25597,25538,28863,96468,96240,96086,29157","bike_types":{"4":26},"place_type":"0","rack_locks":"1"},{"uid":"2585929","lat":"52.2939957","lng":"21.0272258","name":"Rembieli\u0144ska - Kondratowicza","spot":"1","number":"9632","bikes":"23","bike_racks":"23","free_racks":"0","terminal_type":"7inch","bike_numbers":"24979,24700,24672,28350,27742,27462,27435,27328,27037,26994,26896,26738,26719,26522,26292,25782,25089,29386,29434,96536,96368,29160,29273","bike_types":{"4":23},"place_type":"0","rack_locks":"1"},{"uid":"2585931","lat":"52.2917236","lng":"21.0481189","name":"Targ\u00f3wek-Ratusz","spot":"1","number":"9633","bikes":"25","bike_racks":"22","free_racks":"0","terminal_type":"7inch","bike_numbers":"24978,24883,24600,28699,28675,28553,28550,28402,28352,28022,27575,26058,25855,25553,25552,25510,25180,29075,29124,96490,96369,96282,96103,29193,96577","bike_types":{"4":24,"0":1},"place_type":"0","rack_locks":"1"},{"uid":"2585932","lat":"52.292208","lng":"21.0419554","name":"Kondratowicza - Chodecka","spot":"1","number":"9634","bikes":"17","bike_racks":"23","free_racks":"6","terminal_type":"7inch","bike_numbers":"28420,28378,28305,28151,28075,27601,27498,26275,26231,25943,25928,25458,25423,29350,29139,96526,96329","bike_types":{"4":16,"0":1},"place_type":"0","rack_locks":"1"},{"uid":"2585934","lat":"52.2925145","lng":"21.0573949","name":"Kondratowicza - Przy Grodzisku","spot":"1","number":"9635","bikes":"21","bike_racks":"18","free_racks":"2","terminal_type":"7inch","bike_numbers":"28658,28651,28354,28291,28278,27794,27421,27342,27122,26817,26793,26433,26305,26208,26140,26048,25712,25467,29082,29143,29243","bike_types":{"4":20,"0":1},"place_type":"0","rack_locks":"1"},{"uid":"2585936","lat":"52.2878069","lng":"21.0213829","name":"Wysockiego - Poborza\u0144ska","spot":"1","number":"9636","bikes":"20","bike_racks":"23","free_racks":"4","terminal_type":"7inch","bike_numbers":"24552,28758,28524,27290,27138,27035,26979,26844,26756,26599,26153,26138,25929,25406,25170,29388,96015,96574,96539,29222","bike_types":{"4":20},"place_type":"0","rack_locks":"1"},{"uid":"2585937","lat":"52.2885915","lng":"21.0310087","name":"Rembieli\u0144ska - Wyszogrodzka","spot":"1","number":"9637","bikes":"11","bike_racks":"30","free_racks":"20","terminal_type":"7inch","bike_numbers":"28357,28082,27512,27300,26537,26505,26346,26110,29037,96336,29253","bike_types":{"4":11},"place_type":"0","rack_locks":"1"},{"uid":"2585938","lat":"52.2864841","lng":"21.0401998","name":"Chodecka - \u017buromi\u0144ska","spot":"1","number":"9638","bikes":"17","bike_racks":"15","free_racks":"3","terminal_type":"7inch","bike_numbers":"24586,28705,28702,28523,28414,28373,27366,26857,26824,26767,26642,26390,25815,25526,29441,96041,29247","bike_types":{"4":17},"place_type":"0","rack_locks":"1"},{"uid":"2585939","lat":"52.281231017533","lng":"21.025852560997","name":"Wysockiego - Matki Teresy z Kalkuty","spot":"1","number":"9639","bikes":"18","bike_racks":"17","free_racks":"0","terminal_type":"7inch","bike_numbers":"24573,24030,28762,28585,28498,28392,28374,27944,27663,26667,26221,26060,25351,29117,29046,28849,96203,96165","bike_types":{"4":17,"26":1},"place_type":"0","rack_locks":"1"},{"uid":"2585941","lat":"52.2835693","lng":"21.0720858","name":"Blokowa - DK Zacisze","spot":"1","number":"9640","bikes":"36","bike_racks":"18","free_racks":"0","terminal_type":"7inch","bike_numbers":"24918,24876,24804,28876,28394,28267,28053,27978,27832,27799,27786,27670,27609,27584,27561,27437,27298,27116,27007,26634,26546,26501,26237,26204,26130,25821,25731,25435,25357,25122,25100,28966,96517,96386,96261,96132","bike_types":{"4":36},"place_type":"0","rack_locks":"1"},{"uid":"2585942","lat":"52.276259","lng":"21.0530748","name":"P\u0119tla Targ\u00f3wek","spot":"1","number":"9641","bikes":"18","bike_racks":"22","free_racks":"8","terminal_type":"7inch","bike_numbers":"24845,28643,28109,27914,27792,27751,27376,27344,26485,26459,26214,25910,25775,25757,25707,25689,96051,29232","bike_types":{"4":18},"place_type":"0","rack_locks":"1"},{"uid":"2585943","lat":"52.27139","lng":"21.01566","name":"Jagiello\u0144ska - ALK","spot":"1","number":"9642","bikes":"12","bike_racks":"16","free_racks":"4","terminal_type":"7inch","bike_numbers":"24525,28593,28510,28042,27644,27361,27106,26921,25167,25075,96003,96281","bike_types":{"4":12},"place_type":"0","rack_locks":"1"},{"uid":"2585947","lat":"52.2694683","lng":"21.0499817","name":"Ossowskiego","spot":"1","number":"9644","bikes":"5","bike_racks":"17","free_racks":"12","terminal_type":"7inch","bike_numbers":"24921,27615,25706,29030,29245","bike_types":{"4":5},"place_type":"0","rack_locks":"1"},{"uid":"2585951","lat":"52.272602123161","lng":"21.063210368156","name":"Radzymi\u0144ska -Trocka","spot":"1","number":"9645","bikes":"19","bike_racks":"20","free_racks":"10","terminal_type":"7inch","bike_numbers":"28686,28362,28088,27814,27730,27489,27422,27397,27341,27134,26163,25901,25882,25321,25117,29135,96023,29199,29230","bike_types":{"4":18,"0":1},"place_type":"0","rack_locks":"1"},{"uid":"2585953","lat":"52.27347","lng":"21.07698","name":"Bukowiecka - Zamkowa","spot":"1","number":"9646","bikes":"15","bike_racks":"15","free_racks":"3","terminal_type":"7inch","bike_numbers":"24604,24487,28103,27939,27551,27405,26808,26263,25732,25527,25483,25195,28954,29146,96242","bike_types":{"4":13,"51":1,"0":1},"place_type":"0","rack_locks":"1"},{"uid":"2585954","lat":"52.2668885","lng":"21.0585675","name":"Radzymi\u0144ska - Piotra Skargi","spot":"1","number":"9647","bikes":"30","bike_racks":"20","free_racks":"0","terminal_type":"7inch","bike_numbers":"24901,24658,24617,28697,28471,28293,27158,26491,26173,26161,26104,25954,25926,25919,25596,25359,25323,25263,25248,25228,25141,25032,25016,29120,96494,96484,96463,96106,29202,29248","bike_types":{"4":29,"0":1},"place_type":"0","rack_locks":"1"},{"uid":"2585955","lat":"52.2614369","lng":"21.0155744","name":"Wybrze\u017ce Helskie - ZOO","spot":"1","number":"9648","bikes":"7","bike_racks":"22","free_racks":"16","terminal_type":"7inch","bike_numbers":"24855,28642,28076,26998,26761,26257,25349","bike_types":{"4":7},"place_type":"0","rack_locks":"1"},{"uid":"2585956","lat":"52.2632492","lng":"21.0212231","name":"Rondo Starzy\u0144skiego","spot":"1","number":"9649","bikes":"16","bike_racks":"24","free_racks":"10","terminal_type":"7inch","bike_numbers":"24773,24008,28874,28542,28101,27776,27734,27707,27261,26588,26106,25356,29013,96555,96344,29151","bike_types":{"4":15,"26":1},"place_type":"0","rack_locks":"1"},{"uid":"2585958","lat":"52.26421","lng":"21.02618","name":"Darwina - Nusbauma-Hilarowicza","spot":"1","number":"9650","bikes":"14","bike_racks":"21","free_racks":"10","terminal_type":"7inch","bike_numbers":"24938,28606,27877,27019,26777,26758,26584,25890,25751,25466,25198,25148,25099,25096","bike_types":{"4":14},"place_type":"0","rack_locks":"1"},{"uid":"2585960","lat":"52.26554","lng":"21.03122","name":"Namys\u0142owska - Darwina","spot":"1","number":"9651","bikes":"15","bike_racks":"15","free_racks":"0","terminal_type":"7inch","bike_numbers":"24780,25003,28719,27559,27002,26713,26331,26266,25700,25663,29429,29142,96267,96116,96581","bike_types":{"4":14,"0":1},"place_type":"0","rack_locks":"1"},{"uid":"2585961","lat":"52.2690405","lng":"21.0379493","name":"Rondo \u017baba","spot":"1","number":"9652","bikes":"18","bike_racks":"22","free_racks":"4","terminal_type":"7inch","bike_numbers":"24928,24644,24606,27520,27323,27263,27225,26847,26440,26281,25564,25325,25018,29003,96498,96326,96302,96080","bike_types":{"4":18},"place_type":"0","rack_locks":"1"},{"uid":"2585963","lat":"52.2591682","lng":"21.0262224","name":"Jagiello\u0144ska - Plac Hallera","spot":"1","number":"9653","bikes":"27","bike_racks":"20","free_racks":"5","terminal_type":"7inch","bike_numbers":"24842,24599,24496,24481,28385,28134,28128,27893,27652,27249,26982,26297,26168,26164,26033,25993,25933,25811,25725,25677,25447,25093,28963,96545,96126,29174,29214","bike_types":{"4":25,"51":2},"place_type":"0","rack_locks":"1"},{"uid":"2585964","lat":"52.2613811","lng":"21.0305437","name":"Plac Hallera - Sawinkowa","spot":"1","number":"9654","bikes":"26","bike_racks":"28","free_racks":"2","terminal_type":"7inch","bike_numbers":"24955,24729,28647,28294,28258,28214,28148,28064,27696,27627,27557,27533,27518,27239,26886,26715,26644,26395,26327,25076,25074,25053,29641,29140,96398,96328","bike_types":{"4":25,"0":1},"place_type":"0","rack_locks":"1"},{"uid":"2585967","lat":"52.263","lng":"21.03418","name":"Namys\u0142owska - Szymanowskiego","spot":"1","number":"9655","bikes":"13","bike_racks":"16","free_racks":"8","terminal_type":"7inch","bike_numbers":"28432,27998,27899,27574,27343,26565,26089,25368,25091,28987,96531,96208,24049","bike_types":{"4":12,"26":1},"place_type":"0","rack_locks":"1"},{"uid":"2585968","lat":"52.2538188","lng":"21.0231542","name":"Ratuszowa - ZOO","spot":"1","number":"9656","bikes":"22","bike_racks":"23","free_racks":"3","terminal_type":"7inch","bike_numbers":"24811,28732,28616,28560,28303,27833,27502,27446,27424,27385,26846,26229,26150,26111,26085,25989,25767,25130,28960,29644,28859,96401","bike_types":{"4":22},"place_type":"0","rack_locks":"1"},{"uid":"2585971","lat":"52.256355","lng":"21.029538","name":"Jagiello\u0144ska - Ratuszowa","spot":"1","number":"9657","bikes":"9","bike_racks":"16","free_racks":"7","terminal_type":"7inch","bike_numbers":"27413,26685,26226,25857,25739,25471,25462,25150,28988","bike_types":{"4":9},"place_type":"0","rack_locks":"1"},{"uid":"2585972","lat":"52.261449","lng":"21.037614","name":"11 Listopada - Ratuszowa","spot":"1","number":"9658","bikes":"26","bike_racks":"30","free_racks":"5","terminal_type":"7inch","bike_numbers":"24793,28897,28569,28504,28439,28427,28295,28264,28026,27764,27761,27723,27560,27175,26922,26503,26404,26366,26166,26081,25810,25419,25415,28799,28978,96431","bike_types":{"4":26},"place_type":"0","rack_locks":"1"},{"uid":"2585974","lat":"52.263109","lng":"21.0381895","name":"11 listopada - \u015arodkowa","spot":"1","number":"9659","bikes":"17","bike_racks":"18","free_racks":"2","terminal_type":"7inch","bike_numbers":"28515,28369,28006,27818,27275,26815,26732,26517,26464,26360,26224,25746,25666,25445,29446,96284,96167","bike_types":{"4":17},"place_type":"0","rack_locks":"1"},{"uid":"2585975","lat":"52.25839","lng":"21.03537","name":"Stalowa - 11 Listopada","spot":"1","number":"9660","bikes":"6","bike_racks":"24","free_racks":"19","terminal_type":"7inch","bike_numbers":"24456,28276,25593,25264,25157,29155","bike_types":{"51":1,"4":5},"place_type":"0","rack_locks":"1"},{"uid":"2585978","lat":"52.234791","lng":"21.07905","name":"al. Stan\u00f3w Zjednoczonych - Ostrobramska","spot":"1","number":"9661","bikes":"13","bike_racks":"20","free_racks":"7","terminal_type":"7inch","bike_numbers":"24905,24526,28741,28632,28274,26965,26959,26643,26386,26383,25745,28829,96529","bike_types":{"4":13},"place_type":"0","rack_locks":"1"},{"uid":"2585981","lat":"52.2524758","lng":"21.0303479","name":"Floria\u0144ska - Park Praski","spot":"1","number":"9662","bikes":"18","bike_racks":"23","free_racks":"5","terminal_type":"7inch","bike_numbers":"24683,24663,28324,28052,27879,27803,27199,27124,26949,26586,25918,25754,25341,25290,25126,25114,96392,96283","bike_types":{"4":18},"place_type":"0","rack_locks":"1"},{"uid":"2585982","lat":"52.2549757","lng":"21.0339005","name":"Plac Wile\u0144ski","spot":"1","number":"9663","bikes":"29","bike_racks":"30","free_racks":"4","terminal_type":"7inch","bike_numbers":"24913,24767,24696,28745,28691,28678,28405,28397,28137,28126,28066,27775,27622,26730,25896,25856,25585,25336,29041,25625,96452,96408,96337,96288,96230,96113,29281,29269,24046","bike_types":{"4":28,"26":1},"place_type":"0","rack_locks":"1"},{"uid":"2585983","lat":"52.2579576","lng":"21.0399804","name":"Wile\u0144ska - Rzeszotarskiej","spot":"1","number":"9664","bikes":"22","bike_racks":"16","free_racks":"4","terminal_type":"7inch","bike_numbers":"24983,24800,28139,27935,27862,27837,27009,26985,26918,26765,26415,26368,26206,25539,25382,29367,28967,28961,96549,96382,96252,96205","bike_types":{"4":22},"place_type":"0","rack_locks":"1"},{"uid":"2585984","lat":"52.2475848","lng":"20.9568001","name":"al. Prymasa Tysi\u0105clecia - Obozowa","spot":"1","number":"9665","bikes":"13","bike_racks":"13","free_racks":"5","terminal_type":"7inch","bike_numbers":"24616,24532,24028,27390,26945,26603,26409,25590,25364,25012,96152,29186,29239","bike_types":{"4":12,"26":1},"place_type":"0","rack_locks":"1"},{"uid":"2585985","lat":"52.248607","lng":"21.029647","name":"Okrzei - Panie\u0144ska","spot":"1","number":"9666","bikes":"13","bike_racks":"16","free_racks":"6","terminal_type":"7inch","bike_numbers":"28673,28435,28297,28194,27817,27330,26154,25969,29105,96231,96133,24055,96583","bike_types":{"4":12,"26":1},"place_type":"0","rack_locks":"1"},{"uid":"2585987","lat":"52.2506334","lng":"21.0311174","name":"Sierakowskiego - K\u0142opotowskiego","spot":"1","number":"9667","bikes":"14","bike_racks":"25","free_racks":"12","terminal_type":"7inch","bike_numbers":"24897,24044,27959,27499,27406,26947,26901,26622,26247,26113,25881,25787,25480,96299","bike_types":{"4":13,"26":1},"place_type":"0","rack_locks":"1"},{"uid":"2585990","lat":"52.2520876","lng":"21.0381368","name":"Targowa - Z\u0105bkowska","spot":"1","number":"9668","bikes":"29","bike_racks":"18","free_racks":"0","terminal_type":"7inch","bike_numbers":"24932,24769,28822,28676,28292,27974,27482,27429,27184,27054,27026,26848,26807,26702,26572,26554,26302,25813,25766,25651,25491,25334,25212,25064,29097,29063,96002,96501,29261","bike_types":{"4":29},"place_type":"0","rack_locks":"1"},{"uid":"2585992","lat":"52.2544855","lng":"21.0433458","name":"Fabryka W\u00f3dek Koneser","spot":"1","number":"9669","bikes":"13","bike_racks":"25","free_racks":"12","terminal_type":"7inch","bike_numbers":"24947,24551,28010,27389,27316,27014,26894,26706,26629,26547,25709,29283,29262","bike_types":{"4":13},"place_type":"0","rack_locks":"1"},{"uid":"2585994","lat":"52.2559027","lng":"21.0495613","name":"Radzymi\u0144ska - Wiosenna","spot":"1","number":"9670","bikes":"16","bike_racks":"26","free_racks":"11","terminal_type":"7inch","bike_numbers":"24796,24725,28660,27586,27554,27363,27212,26875,26866,26109,25337,25287,25250,96021,29183,29182","bike_types":{"4":16},"place_type":"0","rack_locks":"1"},{"uid":"2585995","lat":"52.25965","lng":"21.0529","name":"Radzymi\u0144ska - \u0141om\u017cy\u0144ska","spot":"1","number":"9671","bikes":"11","bike_racks":"24","free_racks":"15","terminal_type":"7inch","bike_numbers":"24514,27393,27291,26529,26273,25876,25649,25636,29049,96176,29244","bike_types":{"4":11},"place_type":"0","rack_locks":"1"},{"uid":"2585996","lat":"52.2583512","lng":"21.0585337","name":"P\u0119tla Kaw\u0119czy\u0144ska-Bazylika","spot":"1","number":"9672","bikes":"24","bike_racks":"26","free_racks":"0","terminal_type":"7inch","bike_numbers":"24880,28302,28209,28020,27916,27827,27621,27283,27064,27062,26842,26530,26241,25998,25563,25200,25051,25050,29081,29072,29020,96046,96361,96579","bike_types":{"4":24},"place_type":"0","rack_locks":"1"},{"uid":"2585997","lat":"52.249864871462","lng":"21.042911410332","name":"Targowa - Kijowska","spot":"1","number":"9673","bikes":"17","bike_racks":"18","free_racks":"6","terminal_type":"7inch","bike_numbers":"24870,24776,28531,28371,27755,27657,27165,26709,26648,25783,25781,25498,25159,25025,25011,96332,96185","bike_types":{"4":17},"place_type":"0","rack_locks":"1"},{"uid":"2586000","lat":"52.252745","lng":"21.0510331","name":"Dworzec Wschodni - Kijowska","spot":"1","number":"9674","bikes":"17","bike_racks":"27","free_racks":"7","terminal_type":"7inch","bike_numbers":"24647,28629,28564,28544,28119,28106,27381,27301,27277,26814,26495,26450,26151,25944,25567,28956,28836","bike_types":{"4":17},"place_type":"0","rack_locks":"1"},{"uid":"2586001","lat":"52.247314","lng":"21.042731","name":"Metro Stadion Narodowy","spot":"1","number":"9675","bikes":"19","bike_racks":"15","free_racks":"4","terminal_type":"7inch","bike_numbers":"24771,24524,24010,28700,28484,28452,27712,27448,27168,26636,26587,26414,26387,25971,25937,25379,29057,96319,96191","bike_types":{"4":18,"26":1},"place_type":"0","rack_locks":"1"},{"uid":"2586003","lat":"52.2472308","lng":"21.0476456","name":"al. Zieleniecka - Teatr Powszechny","spot":"1","number":"9676","bikes":"12","bike_racks":"14","free_racks":"1","terminal_type":"7inch","bike_numbers":"24761,24634,28436,28087,28016,27706,26771,26606,26424,29116,28879,29148","bike_types":{"4":12},"place_type":"0","rack_locks":"1"},{"uid":"2586005","lat":"52.247346","lng":"21.055947","name":"Grochowska - Mi\u0144ska","spot":"1","number":"9677","bikes":"17","bike_racks":"22","free_racks":"5","terminal_type":"7inch","bike_numbers":"24998,24997,24575,24546,28718,27809,27162,26914,26744,26646,26287,25760,25029,25632,96009,96482,96148","bike_types":{"4":17},"place_type":"0","rack_locks":"1"},{"uid":"2586009","lat":"52.2464","lng":"21.06868","name":"Praga-Po\u0142udnie-Ratusz","spot":"1","number":"9678","bikes":"10","bike_racks":"15","free_racks":"5","terminal_type":"7inch","bike_numbers":"24841,28724,28309,27444,25838,25790,28872,96034,96429,96297","bike_types":{"4":10},"place_type":"0","rack_locks":"1"},{"uid":"2586011","lat":"52.2501129","lng":"21.0772011","name":"Dwernickiego - Siennicka","spot":"1","number":"9679","bikes":"28","bike_racks":"25","free_racks":"0","terminal_type":"7inch","bike_numbers":"24902,24893,24867,24626,28490,28406,28254,27886,27590,27229,27094,26957,26772,26660,26654,26213,26126,26093,26054,26041,25980,25674,25592,25160,25065,29451,96054,29265","bike_types":{"4":28},"place_type":"0","rack_locks":"1"},{"uid":"2586012","lat":"52.260428882956","lng":"21.041538119316","name":"Stalowa - Czynszowa","spot":"1","number":"9680","bikes":"9","bike_racks":"15","free_racks":"6","terminal_type":"7inch","bike_numbers":"28461,28364,27922,27365,26789,26611,26031,29271,29225","bike_types":{"4":9},"place_type":"0","rack_locks":"1"},{"uid":"2586014","lat":"52.2372419","lng":"21.0437644","name":"Wybrze\u017ce Szczeci\u0144skie - Stadion Narodowy","spot":"1","number":"9681","bikes":"16","bike_racks":"23","free_racks":"7","terminal_type":"7inch","bike_numbers":"24665,24494,25007,28597,28077,27971,27714,27700,27178,27172,26200,26147,25843,25779,25063,96450","bike_types":{"4":15,"51":1},"place_type":"0","rack_locks":"1"},{"uid":"2586018","lat":"52.2387103","lng":"21.0507515","name":"Rondo Waszyngtona - Stadion Narodowy","spot":"1","number":"9682","bikes":"9","bike_racks":"27","free_racks":"14","terminal_type":"7inch","bike_numbers":"24964,28681,27925,27562,27024,25688,25441,25127,96582","bike_types":{"4":9},"place_type":"0","rack_locks":"1"},{"uid":"2586019","lat":"52.242281006874","lng":"21.071160435677","name":"Waszyngtona - Kinowa","spot":"1","number":"9683","bikes":"6","bike_racks":"15","free_racks":"10","terminal_type":"7inch","bike_numbers":"24545,24005,27182,26183,26117,25106","bike_types":{"4":5,"26":1},"place_type":"0","rack_locks":"1"},{"uid":"2586021","lat":"52.2445639","lng":"21.0838057","name":"Rondo Wiatraczna","spot":"1","number":"9684","bikes":"19","bike_racks":"30","free_racks":"17","terminal_type":"7inch","bike_numbers":"24960,24788,24613,24479,28557,28521,28310,26837,26653,26473,26043,25953,25749,25652,25245,29078,29070,28865,96149","bike_types":{"4":18,"51":1},"place_type":"0","rack_locks":"1"},{"uid":"2586022","lat":"52.2347451","lng":"21.053651","name":"Francuska - Walecznych","spot":"1","number":"9685","bikes":"7","bike_racks":"15","free_racks":"8","terminal_type":"7inch","bike_numbers":"24633,28714,27989,27208,26211,96341,96142","bike_types":{"4":7},"place_type":"0","rack_locks":"1"},{"uid":"2586024","lat":"52.236598","lng":"21.064774","name":"Mi\u0119dzynarodowa - Walecznych","spot":"1","number":"9686","bikes":"15","bike_racks":"15","free_racks":"0","terminal_type":"7inch","bike_numbers":"24895,24676,28411,27777,27642,27423,27271,27070,26794,26293,25693,25478,29015,96294,96078","bike_types":{"4":15},"place_type":"0","rack_locks":"1"},{"uid":"2586026","lat":"52.243020071904","lng":"21.102375984192","name":"Plac Szembeka","spot":"1","number":"9687","bikes":"13","bike_racks":"15","free_racks":"2","terminal_type":"7inch","bike_numbers":"24945,26371,26014,25917,25705,25546,25514,25233,25144,25107,28890,96464,96087","bike_types":{"4":13},"place_type":"0","rack_locks":"1"},{"uid":"2586028","lat":"52.237559","lng":"21.120087","name":"P\u0119tla Goc\u0142awek","spot":"1","number":"9688","bikes":"20","bike_racks":"16","free_racks":"0","terminal_type":"7inch","bike_numbers":"24531,28693,27608,27408,27144,27118,26682,26502,26066,26034,26015,25996,25957,25905,25598,25338,25060,96045,96449,96092","bike_types":{"4":20},"place_type":"0","rack_locks":"1"},{"uid":"2586030","lat":"52.2258359","lng":"21.0600907","name":"Brukselska - PROM","spot":"1","number":"9689","bikes":"25","bike_racks":"15","free_racks":"0","terminal_type":"7inch","bike_numbers":"24982,24974,24685,24602,28690,28491,28468,28358,28315,28074,27932,27858,27692,27505,26942,26816,26684,26162,25803,25696,25601,25284,25043,29136,96017","bike_types":{"4":24,"0":1},"place_type":"0","rack_locks":"1"},{"uid":"2586031","lat":"52.260205610017","lng":"21.046854257584","name":"al. Solidarno\u015bci - Szwedzka","spot":"1","number":"9690","bikes":"23","bike_racks":"18","free_racks":"0","terminal_type":"7inch","bike_numbers":"24815,28774,28499,28348,28058,27864,27503,26956,26480,26032,26027,25985,25977,25402,25088,25624,96569,96438,96402,96287,96266,29266,24051","bike_types":{"4":22,"26":1},"place_type":"0","rack_locks":"1"},{"uid":"2586032","lat":"52.230088","lng":"21.067948","name":"al. Stan\u00f3w Zjednoczonych - Mi\u0119dzynarodowa","spot":"1","number":"9691","bikes":"36","bike_racks":"26","free_racks":"1","terminal_type":"7inch","bike_numbers":"24861,24635,24620,24492,28555,28102,27634,27536,27530,27517,27452,27414,27398,27005,26935,26934,26855,26243,26197,25973,25756,25716,25446,25381,25119,25072,29056,28950,29646,28853,28970,96474,96436,96357,29264,96589","bike_types":{"4":35,"51":1},"place_type":"0","rack_locks":"1"},{"uid":"2586034","lat":"52.23483","lng":"21.09975","name":"Ostrobramska - Zamieniecka","spot":"1","number":"9692","bikes":"12","bike_racks":"23","free_racks":"14","terminal_type":"7inch","bike_numbers":"24915,27112,26665,25941,25824,25722,25699,25575,25421,25149,28798,96291","bike_types":{"4":12},"place_type":"0","rack_locks":"1"},{"uid":"2586037","lat":"52.2251969","lng":"21.0712892","name":"Afryka\u0144ska - Egipska","spot":"1","number":"9693","bikes":"20","bike_racks":"16","free_racks":"2","terminal_type":"7inch","bike_numbers":"24969,24909,24583,28738,28512,28389,27953,27870,27698,27479,27246,26766,25904,25534,25386,25110,28864,96476,29175,29147","bike_types":{"4":20},"place_type":"0","rack_locks":"1"},{"uid":"2586039","lat":"52.22837","lng":"21.08581","name":"Abrahama - Kapelan\u00f3w AK","spot":"1","number":"9694","bikes":"15","bike_racks":"15","free_racks":"0","terminal_type":"7inch","bike_numbers":"24972,24748,28496,27861,27243,26897,25899,25744,25302,25079,96324,96258,96249,29187,29240","bike_types":{"4":15},"place_type":"0","rack_locks":"1"},{"uid":"2586044","lat":"52.22974","lng":"21.10624","name":"Rechniewskiego - Nowaka-Jeziora\u0144skiego","spot":"1","number":"9696","bikes":"21","bike_racks":"30","free_racks":"11","terminal_type":"7inch","bike_numbers":"24984,24888,28207,28195,28105,28093,28085,27377,26672,26091,26025,25670,25327,25275,25028,29033,28862,28823,96487,96155,29176","bike_types":{"4":21},"place_type":"0","rack_locks":"1"},{"uid":"2586045","lat":"52.2223071","lng":"21.0907259","name":"Meissnera - Fieldorfa","spot":"1","number":"9697","bikes":"26","bike_racks":"15","free_racks":"1","terminal_type":"7inch","bike_numbers":"24705,24505,28873,28752,28646,28614,28534,28465,28322,28252,27865,27853,27697,27555,27321,27267,27049,27033,26367,26253,26023,25296,29213,28841,96296,96576","bike_types":{"4":26},"place_type":"0","rack_locks":"1"},{"uid":"2586268","lat":"52.23938046828","lng":"21.016716957092","name":"Krakowskie Przedmie\u015bcie - Traugutta 2","spot":"1","number":"94931","bikes":"17","bike_racks":"24","free_racks":"7","terminal_type":"7inch","bike_numbers":"24970,24951,24735,24726,27983,27965,27720,27302,27079,27000,26852,26239,25729,96540,96423,96105,29149","bike_types":{"4":17},"place_type":"0","rack_locks":"1"},{"uid":"2586270","lat":"52.241814568386","lng":"21.024039387703","name":"Lipowa - Dobra 2","spot":"1","number":"94961","bikes":"29","bike_racks":"19","free_racks":"0","terminal_type":"7inch","bike_numbers":"24995,24792,24750,24466,28899,28769,28318,28290,28091,28080,28009,27975,27840,27760,27370,26936,26843,26810,26215,26209,25924,25895,29554,28877,96516,96495,96419,29256,29242","bike_types":{"4":28,"51":1},"place_type":"0","rack_locks":"1"},{"uid":"2586272","lat":"52.219916006513","lng":"21.011733412743","name":"Plac Politechniki 2","spot":"1","number":"95381","bikes":"3","bike_racks":"27","free_racks":"24","terminal_type":"7inch","bike_numbers":"26741,25038,96444","bike_types":{"4":3},"place_type":"0","rack_locks":"1"},