[{"region_info":{"lat":"52.2345","lng":"21.0024","zoom":"11","name":"VETURILO Poland","hotline":"+4819115","domain":"vp","country":"PL","country_name":"Poland","terms":"http:\/\/www.veturilo.waw.pl\/terms\/?v=201701","policy":"","website":"http:\/\/www.veturilo.waw.pl\/","show_free_racks":"1","booked_bikes":"0","set_point_bikes":"5279","available_bikes":"4395"},"places_summary":{"lngMin":20.8689688,"lngMax":21.120087,"latMin":52.117285,"latMax":52.3485329,"lngAvg":21.007811803367,"latAvg":52.230676667704},"places":[{"uid":"2585259","lat":"52.296298","lng":"20.9583575","name":"Dewajtis - UKSW","spot":"1","number":"9402","bikes":"16","bike_racks":"30","free_racks":"15","terminal_type":"7inch","bike_numbers":"24731,28676,28434,27912,27097,26963,26925,26860,26774,26017,25927,25842,25384,25358,96002,96170","bike_types":{"4":16},"place_type":"0","rack_locks":"1"},{"uid":"2585263","lat":"52.2909738","lng":"20.9295559","name":"Metro M\u0142ociny","spot":"1","number":"9403","bikes":"9","bike_racks":"30","free_racks":"19","terminal_type":"7inch","bike_numbers":"24614,27843,27517,27098,26915,26651,25722,25292,29072","bike_types":{"4":10},"place_type":"0","rack_locks":"1"},{"uid":"2585265","lat":"52.2901732","lng":"20.9503698","name":"Marymoncka - Dewajtis","spot":"1","number":"9404","bikes":"21","bike_racks":"30","free_racks":"12","terminal_type":"7inch","bike_numbers":"24843,28442,28094,27989,27713,27701,26632,26546,26330,26217,25956,25776,25734,25407,25248,25080,25044,29010,29428,28913,96379","bike_types":{"4":22},"place_type":"0","rack_locks":"1"},{"uid":"2585267","lat":"52.285914","lng":"20.940561","name":"Metro Wawrzyszew","spot":"1","number":"9405","bikes":"3","bike_racks":"20","free_racks":"17","terminal_type":"7inch","bike_numbers":"25499,29338,28911","bike_types":{"4":3},"place_type":"0","rack_locks":"1"},{"uid":"2585269","lat":"52.2336142","lng":"21.0146353","name":"G\u00f3rskiego - Szpitalna","spot":"1","number":"9406","bikes":"9","bike_racks":"16","free_racks":"7","terminal_type":"7inch","bike_numbers":"24560,28712,27700,27070,26442,26313,25820,29646,25624","bike_types":{"4":9},"place_type":"0","rack_locks":"1"},{"uid":"2585271","lat":"52.2816265","lng":"20.9498871","name":"Metro Stare Bielany","spot":"1","number":"9407","bikes":"8","bike_racks":"30","free_racks":"21","terminal_type":"7inch","bike_numbers":"28260,27950,26663,26575,26018,28776,28986,96502","bike_types":{"4":8},"place_type":"0","rack_locks":"1"},{"uid":"2585272","lat":"52.2361217","lng":"21.0219096","name":"Ordynacka - Uniwersytet Muzyczny","spot":"1","number":"9408","bikes":"12","bike_racks":"20","free_racks":"7","terminal_type":"7inch","bike_numbers":"24937,28472,27812,27606,26787,26192,25920,25180,25020,29200,96389,96207","bike_types":{"4":12},"place_type":"0","rack_locks":"1"},{"uid":"2585273","lat":"52.2768774","lng":"20.9481302","name":"Bielany-Ratusz","spot":"1","number":"9409","bikes":"11","bike_racks":"28","free_racks":"17","terminal_type":"7inch","bike_numbers":"24492,28610,28217,26815,26100,25991,25857,25740,25544,25436,25239","bike_types":{"51":1,"4":10},"place_type":"0","rack_locks":"1"},{"uid":"2585275","lat":"52.2761569","lng":"20.9616673","name":"Metro S\u0142odowiec","spot":"1","number":"9410","bikes":"20","bike_racks":"30","free_racks":"5","terminal_type":"7inch","bike_numbers":"24918,24713,24513,24032,27636,26926,26562,26554,26011,25970,25633,25353,25147,29361,29419,29553,28973,96479,96359,96090","bike_types":{"4":19,"26":1},"place_type":"0","rack_locks":"1"},{"uid":"2585278","lat":"52.2777751","lng":"20.9856999","name":"Potocka - OSiR \u017boliborz","spot":"1","number":"9411","bikes":"17","bike_racks":"15","free_racks":"0","terminal_type":"7inch","bike_numbers":"27876,27673,27670,27182,27147,27072,26599,26250,25604,25435,25338,25275,29002,28815,96521,96357,29212","bike_types":{"4":17},"place_type":"0","rack_locks":"1"},{"uid":"2585280","lat":"52.273527782989","lng":"20.994186401367","name":"Gwia\u017adzista - Promyka","spot":"1","number":"9412","bikes":"16","bike_racks":"16","free_racks":"0","terminal_type":"7inch","bike_numbers":"24864,24818,24694,24612,24532,24491,28720,27861,27609,27422,27037,26371,26222,25159,25083,96575","bike_types":{"4":15,"51":1},"place_type":"0","rack_locks":"1"},{"uid":"2585281","lat":"52.270941","lng":"20.9326269","name":"al. Reymonta - Conrada","spot":"1","number":"9413","bikes":"33","bike_racks":"30","free_racks":"0","terminal_type":"7inch","bike_numbers":"24972,24934,24707,24583,24574,28822,28680,27996,27871,27841,27646,26729,26692,26679,26475,26449,26286,26090,26076,25931,25444,25433,25322,25220,25115,25114,29101,29068,29657,28859,28831,96462,96190","bike_types":{"4":33},"place_type":"0","rack_locks":"1"},{"uid":"2585283","lat":"52.2706441","lng":"20.9504181","name":"Broniewskiego - Perzy\u0144skiego","spot":"1","number":"9414","bikes":"20","bike_racks":"16","free_racks":"4","terminal_type":"7inch","bike_numbers":"24978,24549,24009,28721,28316,28041,27969,27760,27335,26834,26326,25915,25841,25767,25268,28935,96530,96511,29169,96582","bike_types":{"4":19,"26":1},"place_type":"0","rack_locks":"1"},{"uid":"2585284","lat":"52.2714203","lng":"20.9727099","name":"Metro Marymont","spot":"1","number":"9415","bikes":"21","bike_racks":"30","free_racks":"8","terminal_type":"7inch","bike_numbers":"24750,24746,24646,28252,27859,27737,27161,26709,26607,26432,26319,25856,25766,25592,25585,25162,28829,96037,96474,96425,96238","bike_types":{"4":21},"place_type":"0","rack_locks":"1"},{"uid":"2585285","lat":"52.2694081","lng":"20.9833664","name":"Metro Plac Wilsona","spot":"1","number":"9416","bikes":"26","bike_racks":"21","free_racks":"0","terminal_type":"7inch","bike_numbers":"24967,24926,24897,24798,24783,28904,28772,28599,28538,28056,27899,27431,27404,27222,26501,26095,25930,25804,25704,25478,25461,25119,25033,29034,29014,96546","bike_types":{"4":26},"place_type":"0","rack_locks":"1"},{"uid":"2585286","lat":"52.2668623","lng":"20.9637032","name":"Broniewskiego - W\u0142o\u015bcia\u0144ska","spot":"1","number":"9417","bikes":"17","bike_racks":"19","free_racks":"8","terminal_type":"7inch","bike_numbers":"24902,24553,28775,28086,27505,27196,26965,26606,26253,25840,25520,25400,25081,25622,96419,96335,29150","bike_types":{"4":17},"place_type":"0","rack_locks":"1"},{"uid":"2585288","lat":"52.2643984","lng":"20.9723179","name":"Broniewskiego - Krasi\u0144skiego","spot":"1","number":"9418","bikes":"7","bike_racks":"16","free_racks":"9","maintenance":"1","terminal_type":"7inch","bike_numbers":"24816,24740,28428,28194,25090,96411,96237","bike_types":{"4":7},"place_type":"0","rack_locks":"1"},{"uid":"2585289","lat":"52.267875","lng":"21.0020667","name":"Wybrze\u017ce Gdy\u0144skie - KS Sp\u00f3jnia","spot":"1","number":"9419","bikes":"15","bike_racks":"15","free_racks":"0","terminal_type":"7inch","bike_numbers":"24471,28560,28191,27756,26900,26238,26131,25843,25741,25555,25222,25077,29213,29647,96327","bike_types":{"51":1,"4":14},"place_type":"0","rack_locks":"1"},{"uid":"2585291","lat":"52.2624054","lng":"20.9802551","name":"Plac Grunwaldzki","spot":"1","number":"9420","bikes":"12","bike_racks":"30","free_racks":"17","terminal_type":"7inch","bike_numbers":"24891,28275,28021,27769,27655,26946,26841,26525,25605,25176,28875,96097","bike_types":{"4":12},"place_type":"0","rack_locks":"1"},{"uid":"2585296","lat":"52.2612575","lng":"20.9863191","name":"Zaj\u0105czka - Bitwy Pod Rokitn\u0105","spot":"1","number":"9421","bikes":"10","bike_racks":"15","free_racks":"5","terminal_type":"7inch","bike_numbers":"28555,27450,27224,25802,25415,29038,29020,28842,28832,96267","bike_types":{"4":10},"place_type":"0","rack_locks":"1"},{"uid":"2585297","lat":"52.2645018","lng":"20.9895998","name":"Plac Inwalid\u00f3w","spot":"1","number":"9422","bikes":"8","bike_racks":"15","free_racks":"7","terminal_type":"7inch","bike_numbers":"28566,28022,28014,27308,27250,26519,25413,96417","bike_types":{"4":8},"place_type":"0","rack_locks":"1"},{"uid":"2585299","lat":"52.258245356688","lng":"20.898613929749","name":"P\u0119tla Stare Bemowo","spot":"1","number":"9423","bikes":"14","bike_racks":"21","free_racks":"6","terminal_type":"7inch","bike_numbers":"24461,27934,26468,26458,26213,26049,25889,25706,25365,25216,25073,25632,96518,96192","bike_types":{"51":1,"4":13},"place_type":"0","rack_locks":"1"},{"uid":"2585301","lat":"52.260895125763","lng":"20.923923254013","name":"P\u0119tla Nowe Bemowo","spot":"1","number":"9424","bikes":"21","bike_racks":"25","free_racks":"3","terminal_type":"7inch","bike_numbers":"24930,24559,28514,27380,25519,25264,24555,96444,96377,96376,96375,96374,96321,96314,96293,96233,96232,96228,96227,96206,96111","bike_types":{"4":21},"place_type":"0","rack_locks":"1"},{"uid":"2585304","lat":"52.2575903","lng":"20.9323374","name":"Obro\u0144c\u00f3w Tobruku - Pieni\u0105\u017cka","spot":"1","number":"9425","bikes":"8","bike_racks":"12","free_racks":"4","terminal_type":"7inch","bike_numbers":"28374,27771,27438,26620,25677,25612,96216,96143","bike_types":{"4":8},"place_type":"0","rack_locks":"1"},{"uid":"2585305","lat":"52.2593225","lng":"20.9605511","name":"Pow\u0105zkowska - Krasi\u0144skiego","spot":"1","number":"9426","bikes":"16","bike_racks":"23","free_racks":"8","terminal_type":"7inch","bike_numbers":"27860,27617,27459,26667,26613,26279,26098,25306,25207,25019,29066,29061,29039,29654,96392,29231","bike_types":{"4":16},"place_type":"0","rack_locks":"1"},{"uid":"2585306","lat":"52.2563145","lng":"20.9682307","name":"Pow\u0105zkowska - Plac Niemena","spot":"1","number":"9427","bikes":"10","bike_racks":"16","free_racks":"6","terminal_type":"7inch","bike_numbers":"24537,24017,28665,28142,26592,26111,25278,96306,96259,96140","bike_types":{"4":9,"26":1},"place_type":"0","rack_locks":"1"},{"uid":"2585307","lat":"52.258524460024","lng":"20.970931649208","name":"Przasnyska - Rydygiera","spot":"1","number":"9428","bikes":"11","bike_racks":"15","free_racks":"4","terminal_type":"7inch","bike_numbers":"24944,28635,27638,26762,26644,26168,25705,25698,28950,29449,96272","bike_types":{"4":11},"place_type":"0","rack_locks":"1"},{"uid":"2585308","lat":"52.253594","lng":"20.9798744","name":"Pow\u0105zkowska - Burakowska","spot":"1","number":"9429","bikes":"9","bike_racks":"20","free_racks":"11","terminal_type":"7inch","bike_numbers":"24971,24528,28351,27201,27195,96032,63601,96489,96117","bike_types":{"4":9},"place_type":"0","rack_locks":"1"},{"uid":"2585311","lat":"52.2576018","lng":"20.9944975","name":"Metro Dworzec Gda\u0144ski","spot":"1","number":"9430","bikes":"14","bike_racks":"30","free_racks":"18","terminal_type":"7inch","bike_numbers":"24776,28575,28093,27922,27502,27124,25614,25588,25018,29054,96547,96506,96499,29221","bike_types":{"4":14},"place_type":"0","rack_locks":"1"},{"uid":"2585315","lat":"52.2465952","lng":"20.9429216","name":"Obozowa - Cio\u0142ka","spot":"1","number":"9432","bikes":"3","bike_racks":"13","free_racks":"11","terminal_type":"7inch","bike_numbers":"24931,28397,96273","bike_types":{"4":3},"place_type":"0","rack_locks":"1"},{"uid":"2585317","lat":"52.227621983552","lng":"20.956758856773","name":"al. Prymasa Tysi\u0105clecia - Kasprzaka","spot":"1","number":"9433","bikes":"18","bike_racks":"23","free_racks":"11","terminal_type":"7inch","bike_numbers":"24790,24742,24659,28726,28687,28208,28133,27317,26980,26839,26773,26705,26308,25094,96013,96491,96268,29199","bike_types":{"4":18},"place_type":"0","rack_locks":"1"},{"uid":"2585319","lat":"52.246037","lng":"20.962463","name":"Obozowa - Radziwie","spot":"1","number":"9434","bikes":"5","bike_racks":"13","free_racks":"8","terminal_type":"7inch","bike_numbers":"27711,27663,27293,26395,25621","bike_types":{"4":5},"place_type":"0","rack_locks":"1"},{"uid":"2585321","lat":"52.2514708","lng":"20.9857053","name":"al. Jana Paw\u0142a II - Stawki","spot":"1","number":"9435","bikes":"13","bike_racks":"23","free_racks":"10","terminal_type":"7inch","bike_numbers":"24903,24717,24539,28600,27469,27272,26974,26716,25757,25313,96512,96414,96295","bike_types":{"4":13},"place_type":"0","rack_locks":"1"},{"uid":"2585323","lat":"52.2535305","lng":"20.9924922","name":"Stawki - Dubois","spot":"1","number":"9436","bikes":"2","bike_racks":"13","free_racks":"11","terminal_type":"7inch","bike_numbers":"24804,96513","bike_types":{"4":2},"place_type":"0","rack_locks":"1"},{"uid":"2585326","lat":"52.2541702","lng":"20.9980649","name":"Andersa - Muranowska","spot":"1","number":"9437","bikes":"20","bike_racks":"30","free_racks":"11","terminal_type":"7inch","bike_numbers":"28738,28441,28213,27794,27664,27633,27322,27219,26721,26450,26133,25684,25579,25578,25391,25267,29340,28878,29175,29257","bike_types":{"4":20},"place_type":"0","rack_locks":"1"},{"uid":"2585327","lat":"52.255877","lng":"21.0099819","name":"Sanguszki - Wybrze\u017ce Gda\u0144skie","spot":"1","number":"9438","bikes":"21","bike_racks":"28","free_racks":"6","terminal_type":"7inch","bike_numbers":"24788,28565,28296,28096,27968,27733,27720,27425,26247,26219,25822,25543,25534,25462,25252,25186,28960,25625,28855,96363,29244","bike_types":{"4":21},"place_type":"0","rack_locks":"1"},{"uid":"2585328","lat":"52.252175","lng":"20.923692","name":"Wroc\u0142awska \u2013 Bailly","spot":"1","number":"9439","bikes":"24","bike_racks":"27","free_racks":"3","terminal_type":"7inch","bike_numbers":"24721,28638,27581,27295,26508,26380,25401,29111,96031,96007,96569,96519,96488,96384,96343,96332,96290,96285,96256,96245,96217,96168,96153,96108","bike_types":{"4":24},"place_type":"0","rack_locks":"1"},{"uid":"2585330","lat":"52.24418","lng":"20.97794","name":"Okopowa - Anielewicza","spot":"1","number":"9440","bikes":"14","bike_racks":"20","free_racks":"6","terminal_type":"7inch","bike_numbers":"24618,28120,27079,26675,26054,25917,25895,25695,25571,29447,96571,96520,96178,96104","bike_types":{"4":14},"place_type":"0","rack_locks":"1"},{"uid":"2585333","lat":"52.2486","lng":"20.98352","name":"Smocza - Mi\u0142a","spot":"1","number":"9441","bikes":"4","bike_racks":"15","free_racks":"13","terminal_type":"7inch","bike_numbers":"28897,28293,26101,25167","bike_types":{"4":4},"place_type":"0","rack_locks":"1"},{"uid":"2585334","lat":"52.24616","lng":"20.98538","name":"Smocza - Anielewicza","spot":"1","number":"9442","bikes":"1","bike_racks":"17","free_racks":"16","terminal_type":"7inch","bike_numbers":"24735","bike_types":{"4":1},"place_type":"0","rack_locks":"1"},{"uid":"2585335","lat":"52.247226","lng":"20.9893155","name":"al. Jana Paw\u0142a II - Anielewicza","spot":"1","number":"9443","bikes":"0","bike_racks":"22","free_racks":"22","terminal_type":"7inch","place_type":"0","rack_locks":"1","bike_numbers":null,"bike_types":[]},{"uid":"2585337","lat":"52.249052","lng":"20.9948923","name":"Anielewicza - Zamenhofa","spot":"1","number":"9444","bikes":"1","bike_racks":"15","free_racks":"14","terminal_type":"7inch","bike_numbers":"96412","bike_types":{"4":1},"place_type":"0","rack_locks":"1"},{"uid":"2585338","lat":"52.2492196","lng":"20.9971878","name":"Anielewicza - Andersa","spot":"1","number":"9445","bikes":"1","bike_racks":"18","free_racks":"17","terminal_type":"7inch","bike_numbers":"28487","bike_types":{"4":1},"place_type":"0","rack_locks":"1"},{"uid":"2585340","lat":"52.251549","lng":"21.002749","name":"Bonifraterska - Franciszka\u0144ska","spot":"1","number":"9446","bikes":"13","bike_racks":"16","free_racks":"3","terminal_type":"7inch","bike_numbers":"28590,27080,26990,26830,26643,26384,25324,25282,25227,25151,96486,96406,29190","bike_types":{"4":13},"place_type":"0","rack_locks":"1"},{"uid":"2585342","lat":"52.2541119","lng":"21.0093342","name":"Ko\u015bcielna - Piesza","spot":"1","number":"9448","bikes":"11","bike_racks":"26","free_racks":"14","terminal_type":"7inch","bike_numbers":"28357,28207,27994,27714,27159,26451,25615,25547,25113,28826,96591","bike_types":{"4":11},"place_type":"0","rack_locks":"1"},{"uid":"2585344","lat":"52.2392622","lng":"20.8987641","name":"P\u0119tla Os. G\u00f3rczewska","spot":"1","number":"9449","bikes":"11","bike_racks":"15","free_racks":"4","terminal_type":"7inch","bike_numbers":"27847,27804,27423,27074,26950,26852,26565,25533,25446,25259,28992","bike_types":{"4":11},"place_type":"0","rack_locks":"1"},{"uid":"2585345","lat":"52.2389287","lng":"20.9139535","name":"Bemowo-Ratusz","spot":"1","number":"9450","bikes":"15","bike_racks":"20","free_racks":"5","terminal_type":"7inch","bike_numbers":"24839,24682,28643,28333,28146,27842,27002,26836,26452,26365,25729,25160,28824,96524,96382","bike_types":{"4":15},"place_type":"0","rack_locks":"1"},{"uid":"2585346","lat":"52.2387861","lng":"20.9424946","name":"Okocimska - Olbrachta","spot":"1","number":"9451","bikes":"4","bike_racks":"18","free_racks":"13","terminal_type":"7inch","bike_numbers":"27786,27710,26028,96438","bike_types":{"4":4},"place_type":"0","rack_locks":"1"},{"uid":"2585349","lat":"52.2506241","lng":"21.0533611","name":"Dworzec Wschodni - Lubelska","spot":"1","number":"9452","bikes":"12","bike_racks":"15","free_racks":"2","terminal_type":"7inch","bike_numbers":"24548,28694,28603,28502,28368,27570,27297,27216,25688,25429,96404,96313","bike_types":{"4":12},"place_type":"0","rack_locks":"1"},{"uid":"2585351","lat":"52.2369249","lng":"20.9723559","name":"Leszno - M\u0142ynarska","spot":"1","number":"9453","bikes":"9","bike_racks":"30","free_racks":"20","terminal_type":"7inch","bike_numbers":"24813,24530,24023,28579,28544,27473,26136,96287,96114","bike_types":{"4":8,"26":1},"place_type":"0","rack_locks":"1"},{"uid":"2585352","lat":"52.2430451","lng":"20.9803864","name":"Dzielna - Bellottiego","spot":"1","number":"9454","bikes":"5","bike_racks":"13","free_racks":"8","terminal_type":"7inch","bike_numbers":"27318,26154,25687,25562,25215","bike_types":{"4":5},"place_type":"0","rack_locks":"1"},{"uid":"2585353","lat":"52.24108","lng":"20.98316","name":"Wolno\u015b\u0107 - Bellottiego","spot":"1","number":"9455","bikes":"7","bike_racks":"16","free_racks":"7","terminal_type":"7inch","bike_numbers":"27946,27580,27460,26523,26033,25728,96001","bike_types":{"4":7},"place_type":"0","rack_locks":"1"},{"uid":"2585354","lat":"52.2435448","lng":"20.9873507","name":"Smocza - Nowolipki","spot":"1","number":"9456","bikes":"11","bike_racks":"16","free_racks":"3","terminal_type":"7inch","bike_numbers":"24949,24462,28481,28152,28150,27735,27099,26920,26688,26083,25724","bike_types":{"4":10,"51":1},"place_type":"0","rack_locks":"1"},{"uid":"2585356","lat":"52.2445767","lng":"20.99177","name":"al. Jana Paw\u0142a II - Nowolipki","spot":"1","number":"9457","bikes":"3","bike_racks":"16","free_racks":"13","terminal_type":"7inch","bike_numbers":"25525,25210,96436","bike_types":{"4":3},"place_type":"0","rack_locks":"1"},{"uid":"2585358","lat":"52.22868","lng":"20.91509","name":"Powsta\u0144c\u00f3w \u015al\u0105skich - Cz\u0142uchowska","spot":"1","number":"9458","bikes":"8","bike_racks":"16","free_racks":"7","terminal_type":"7inch","bike_numbers":"24658,28392,25694,25693,25184,29123,96345,96315","bike_types":{"4":7,"0":1},"place_type":"0","rack_locks":"1"},{"uid":"2585360","lat":"52.2342032","lng":"20.934689","name":"Jana Olbrachta - Antka Rozpylacza","spot":"1","number":"9459","bikes":"12","bike_racks":"13","free_racks":"4","terminal_type":"7inch","bike_numbers":"28620,27534,27371,26698,26483,25691,25320,25036,96390,96200,96077,29149","bike_types":{"4":12},"place_type":"0","rack_locks":"1"},{"uid":"2585364","lat":"52.2401623","lng":"20.9877277","name":"Wola-Ratusz","spot":"1","number":"9460","bikes":"5","bike_racks":"15","free_racks":"10","terminal_type":"7inch","bike_numbers":"27631,26447,26231,26048,25746","bike_types":{"4":5},"place_type":"0","rack_locks":"1"},{"uid":"2585368","lat":"52.2445326","lng":"20.99998","name":"Plac Bankowy - Kino Muran\u00f3w","spot":"1","number":"9462","bikes":"9","bike_racks":"17","free_racks":"5","terminal_type":"7inch","bike_numbers":"27566,27242,25399,29142,28838,96497,96427,96358,96281","bike_types":{"4":8,"0":1},"place_type":"0","rack_locks":"1"},{"uid":"2585369","lat":"52.2449465","lng":"21.0012943","name":"Andersa - D\u0142uga","spot":"1","number":"9463","bikes":"9","bike_racks":"30","free_racks":"20","terminal_type":"7inch","bike_numbers":"24997,24602,28039,27009,26512,25689,25356,28970,96021","bike_types":{"4":9},"place_type":"0","rack_locks":"1"},{"uid":"2585370","lat":"52.2442666","lng":"21.0015893","name":"Marsza\u0142kowska - al. Solidarno\u015bci","spot":"1","number":"9464","bikes":"6","bike_racks":"30","free_racks":"20","terminal_type":"7inch","bike_numbers":"27795,26971,26343,25659,25641,96496","bike_types":{"4":6},"place_type":"0","rack_locks":"1"},{"uid":"2585371","lat":"52.2431975","lng":"21.0016603","name":"Plac Bankowy - Ratusz","spot":"1","number":"9465","bikes":"17","bike_racks":"30","free_racks":"13","terminal_type":"7inch","bike_numbers":"24469,24014,28035,27729,27444,27370,27171,27160,26328,26014,25437,25203,29648,96503,96318,96241,29165","bike_types":{"51":1,"26":1,"4":15},"place_type":"0","rack_locks":"1"},{"uid":"2585373","lat":"52.2435719","lng":"21.0066801","name":"Senatorska - Biela\u0144ska","spot":"1","number":"9466","bikes":"2","bike_racks":"17","free_racks":"13","terminal_type":"7inch","bike_numbers":"26842,25105","bike_types":{"4":2},"place_type":"0","rack_locks":"1"},{"uid":"2585377","lat":"52.246314509834","lng":"21.0113042593","name":"Miodowa","spot":"1","number":"9467","bikes":"11","bike_racks":"24","free_racks":"12","terminal_type":"7inch","bike_numbers":"24996,24478,27328,27199,26875,26685,26075,25606,25355,29070,96451","bike_types":{"4":10,"51":1},"place_type":"0","rack_locks":"1"},{"uid":"2585378","lat":"52.2435965","lng":"21.0140803","name":"Krakowskie Przedmie\u015bcie - Tr\u0119backa","spot":"1","number":"9468","bikes":"12","bike_racks":"14","free_racks":"0","terminal_type":"7inch","bike_numbers":"24648,25006,28702,28593,28286,27811,27327,26843,25753,25403,25104,96034","bike_types":{"4":12},"place_type":"0","rack_locks":"1"},{"uid":"2585379","lat":"52.2465625","lng":"21.0174345","name":"Mariensztat","spot":"1","number":"9469","bikes":"14","bike_racks":"15","free_racks":"1","terminal_type":"7inch","bike_numbers":"24831,24482,28507,27802,27426,27397,27269,26096,25945,25487,96048,96551,96096,29265","bike_types":{"4":13,"51":1},"place_type":"0","rack_locks":"1"},{"uid":"2585381","lat":"52.224934","lng":"20.945489","name":"Jana Kazimierza - Giz\u00f3w","spot":"1","number":"9471","bikes":"3","bike_racks":"13","free_racks":"10","terminal_type":"7inch","bike_numbers":"24885,24834,96400","bike_types":{"4":3},"place_type":"0","rack_locks":"1"},{"uid":"2585385","lat":"52.2299137","lng":"20.9508179","name":"Wolska - Elekcyjna","spot":"1","number":"9472","bikes":"14","bike_racks":"20","free_racks":"5","terminal_type":"7inch","bike_numbers":"24536,28718,28390,27504,27133,26898,26545,25972,25762,25613,28808,96221,96127,96084","bike_types":{"4":14},"place_type":"0","rack_locks":"1"},{"uid":"2585387","lat":"52.237662392829","lng":"20.955492854118","name":"al. Prymasa Tysi\u0105clecia - G\u00f3rczewska","spot":"1","number":"9473","bikes":"15","bike_racks":"20","free_racks":"7","terminal_type":"7inch","bike_numbers":"24466,28320,27540,27065,26673,25873,25676,25382,25349,29022,96016,96265,96131,29220,96580","bike_types":{"51":1,"4":14},"place_type":"0","rack_locks":"1"},{"uid":"2585389","lat":"52.2333374","lng":"20.9652776","name":"Wolska - P\u0142ocka","spot":"1","number":"9474","bikes":"3","bike_racks":"15","free_racks":"12","terminal_type":"7inch","bike_numbers":"28287,26755,25221","bike_types":{"4":3},"place_type":"0","rack_locks":"1"},{"uid":"2585391","lat":"52.228522296173","lng":"20.969638824463","name":"Kasprzaka - Skierniewicka","spot":"1","number":"9475","bikes":"3","bike_racks":"21","free_racks":"17","terminal_type":"7inch","bike_numbers":"24884,96118,96109","bike_types":{"4":3},"place_type":"0","rack_locks":"1"},{"uid":"2585394","lat":"52.22898","lng":"20.97843","name":"Kasprzaka - Karolkowa","spot":"1","number":"9476","bikes":"6","bike_racks":"15","free_racks":"9","terminal_type":"7inch","bike_numbers":"24638,24596,27973,26006,29431,96270","bike_types":{"4":6},"place_type":"0","rack_locks":"1"},{"uid":"2585396","lat":"52.2328752","lng":"20.9805411","name":"Muzeum Powstania Warszawskiego","spot":"1","number":"9477","bikes":"2","bike_racks":"10","free_racks":"7","terminal_type":"7inch","bike_numbers":"27869,26203","bike_types":{"4":2},"place_type":"0","rack_locks":"1"},{"uid":"2585398","lat":"52.22983","lng":"20.983123","name":"Metro Rondo Daszy\u0144skiego","spot":"1","number":"9478","bikes":"17","bike_racks":"26","free_racks":"9","terminal_type":"7inch","bike_numbers":"24870,28658,28291,27941,27788,27695,27672,26872,26756,26725,26579,26363,26124,25161,29063,29641,96378","bike_types":{"4":17},"place_type":"0","rack_locks":"1"},{"uid":"2585400","lat":"52.23145","lng":"20.98869","name":"Prosta - Wronia","spot":"1","number":"9479","bikes":"13","bike_racks":"15","free_racks":"2","terminal_type":"7inch","bike_numbers":"24991,24987,28325,27810,27501,27463,27229,26412,26405,25884,25465,25211,96176","bike_types":{"4":13},"place_type":"0","rack_locks":"1"},{"uid":"2585401","lat":"52.2373141","lng":"20.9888488","name":"\u017belazna - Ch\u0142odna","spot":"1","number":"9480","bikes":"10","bike_racks":"15","free_racks":"4","terminal_type":"7inch","bike_numbers":"24832,28446,27497,27205,26796,26321,25707,25697,25522,25254","bike_types":{"4":10},"place_type":"0","rack_locks":"1"},{"uid":"2585402","lat":"52.2344946","lng":"20.9905117","name":"\u017belazna - Grzybowska","spot":"1","number":"9481","bikes":"10","bike_racks":"20","free_racks":"9","terminal_type":"7inch","bike_numbers":"24916,28512,27807,27437,26867,26695,25204,96543,96527,96183","bike_types":{"4":10},"place_type":"0","rack_locks":"1"},{"uid":"2585405","lat":"52.238666","lng":"20.9957314","name":"al. Jana Paw\u0142a II - Plac Mirowski","spot":"1","number":"9482","bikes":"4","bike_racks":"16","free_racks":"10","terminal_type":"7inch","bike_numbers":"28899,27885,27271,25726","bike_types":{"4":4},"place_type":"0","rack_locks":"1"},{"uid":"2585406","lat":"52.2357151","lng":"20.9966071","name":"al. Jana Paw\u0142a II - Grzybowska","spot":"1","number":"9483","bikes":"1","bike_racks":"23","free_racks":"21","terminal_type":"7inch","bike_numbers":"25712","bike_types":{"4":1},"place_type":"0","rack_locks":"1"},{"uid":"2585410","lat":"52.23958","lng":"21.00027","name":"Ptasia - Zimna","spot":"1","number":"9485","bikes":"11","bike_racks":"16","free_racks":"4","terminal_type":"7inch","bike_numbers":"24036,28695,28499,28006,27273,27113,27083,27042,26770,25229,96415","bike_types":{"54":1,"4":10},"place_type":"0","rack_locks":"1"},{"uid":"2585412","lat":"52.2336314","lng":"21.0028795","name":"Emilii Plater - \u015awi\u0119tokrzyska","spot":"1","number":"9486","bikes":"8","bike_racks":"26","free_racks":"18","terminal_type":"7inch","bike_numbers":"28715,28281,27286,27186,26109,26066,96159,29177","bike_types":{"4":8},"place_type":"0","rack_locks":"1"},{"uid":"2585413","lat":"52.2358704","lng":"21.0037806","name":"Plac Grzybowski","spot":"1","number":"9487","bikes":"2","bike_racks":"26","free_racks":"24","terminal_type":"7inch","bike_numbers":"28060,96439","bike_types":{"4":2},"place_type":"0","rack_locks":"1"},{"uid":"2585416","lat":"52.2384853","lng":"21.0067552","name":"Marsza\u0142kowska - Kr\u00f3lewska","spot":"1","number":"9488","bikes":"5","bike_racks":"19","free_racks":"10","terminal_type":"7inch","bike_numbers":"28458,27870,27016,26743,25946","bike_types":{"4":5},"place_type":"0","rack_locks":"1"},{"uid":"2585417","lat":"52.2364206","lng":"21.0072407","name":"Marsza\u0142kowska - Zielna","spot":"1","number":"9489","bikes":"14","bike_racks":"30","free_racks":"16","terminal_type":"7inch","bike_numbers":"24876,27868,27776,27512,27264,27202,27170,27040,26262,26103,26000,25998,25598,29372","bike_types":{"4":15},"place_type":"0","rack_locks":"1"},{"uid":"2585420","lat":"52.2397008","lng":"21.0119292","name":"Plac Ma\u0142achowskiego","spot":"1","number":"9491","bikes":"13","bike_racks":"16","free_racks":"4","terminal_type":"7inch","bike_numbers":"24765,24564,28534,28303,28108,27731,27231,26772,26712,26526,26062,25830,29206","bike_types":{"4":13},"place_type":"0","rack_locks":"1"},{"uid":"2585422","lat":"52.2359114","lng":"21.0135654","name":"Plac Powsta\u0144c\u00f3w Warszawy","spot":"1","number":"9492","bikes":"3","bike_racks":"20","free_racks":"18","terminal_type":"7inch","bike_numbers":"96568,96385,24047","bike_types":{"4":2,"26":1},"place_type":"0","rack_locks":"1"},{"uid":"2585423","lat":"52.2393559","lng":"21.016603","name":"Krakowskie Przedmie\u015bcie - Traugutta","spot":"1","number":"9493","bikes":"16","bike_racks":"24","free_racks":"6","terminal_type":"7inch","bike_numbers":"25000,28379,27838,27573,27562,27138,26989,26790,26407,26128,25477,25231,25103,25012,29032,28997","bike_types":{"4":16},"place_type":"0","rack_locks":"1"},{"uid":"2585429","lat":"52.238298","lng":"21.0184014","name":"Obo\u017ana - Kopernika","spot":"1","number":"9495","bikes":"15","bike_racks":"22","free_racks":"7","terminal_type":"7inch","bike_numbers":"24693,24685,24545,27386,27319,26961,26243,25764,25438,25383,25155,25063,96056,96041,96133","bike_types":{"4":15},"place_type":"0","rack_locks":"1"},{"uid":"2585430","lat":"52.2418852","lng":"21.0241279","name":"Lipowa - Dobra","spot":"1","number":"9496","bikes":"19","bike_racks":"19","free_racks":"0","terminal_type":"7inch","bike_numbers":"24591,28323,28304,28100,27966,27849,27832,27589,27441,27427,27017,26858,26514,26424,25725,29445,29164,29217,29216","bike_types":{"4":19},"place_type":"0","rack_locks":"1"},{"uid":"2585431","lat":"52.2413087","lng":"21.0281727","name":"Centrum Nauki Kopernik","spot":"1","number":"9497","bikes":"33","bike_racks":"30","free_racks":"0","terminal_type":"7inch","bike_numbers":"24965,24874,24677,28693,28561,28391,28031,27910,27864,27858,27848,27837,27699,27634,26878,26876,26594,26353,26174,26115,26085,25948,25463,25106,29033,29027,96022,96348,29191,29172,29171,29162,29157","bike_types":{"4":33},"place_type":"0","rack_locks":"1"},{"uid":"2585432","lat":"52.2264464","lng":"20.9837164","name":"Kolejowa","spot":"1","number":"9498","bikes":"9","bike_racks":"16","free_racks":"7","terminal_type":"7inch","bike_numbers":"28312,28148,27915,27355,26435,26145,25708,25021,96248","bike_types":{"4":9},"place_type":"0","rack_locks":"1"},{"uid":"2585433","lat":"52.22983","lng":"20.993996","name":"\u017belazna - Sienna","spot":"1","number":"9499","bikes":"15","bike_racks":"24","free_racks":"7","terminal_type":"7inch","bike_numbers":"24795,24684,28748,28615,28259,28153,27997,27506,27488,26471,25871,29360,29128,28813,28998","bike_types":{"4":15,"0":1},"place_type":"0","rack_locks":"1"},{"uid":"2585435","lat":"52.230201297582","lng":"20.999550819397","name":"al. Jana Paw\u0142a II - Z\u0142ota","spot":"1","number":"9500","bikes":"6","bike_racks":"16","free_racks":"12","terminal_type":"7inch","bike_numbers":"27749,27188,25827,25730,25253,96484","bike_types":{"4":6},"place_type":"0","rack_locks":"1"},{"uid":"2585438","lat":"52.2309778","lng":"21.0036755","name":"Emilii Plater - Z\u0142ota","spot":"1","number":"9501","bikes":"25","bike_racks":"30","free_racks":"6","terminal_type":"7inch","bike_numbers":"24983,24928,24751,24521,24508,25003,28804,28155,28025,27513,27004,26922,26701,26522,26065,25960,25671,25483,25303,25242,25088,96367,96134,96585,96588","bike_types":{"4":25},"place_type":"0","rack_locks":"1"},{"uid":"2585440","lat":"52.232816601853","lng":"21.006980538368","name":"Pa\u0142ac Kultury i Nauki","spot":"1","number":"9502","bikes":"2","bike_racks":"17","free_racks":"15","terminal_type":"7inch","bike_numbers":"24801,25681","bike_types":{"4":2},"place_type":"0","rack_locks":"1"},{"uid":"2585442","lat":"52.232934","lng":"21.0101791","name":"Marsza\u0142kowska - Z\u0142ota","spot":"1","number":"9503","bikes":"4","bike_racks":"22","free_racks":"18","terminal_type":"7inch","bike_numbers":"24736,25721,25685,28985","bike_types":{"4":4},"place_type":"0","rack_locks":"1"},{"uid":"2585445","lat":"52.231987","lng":"21.016092","name":"Bracka - Krucza","spot":"1","number":"9504","bikes":"13","bike_racks":"20","free_racks":"5","terminal_type":"7inch","bike_numbers":"24982,24747,28769,26957,26668,26278,26252,25782,25761,29103,96045,96469,96466","bike_types":{"4":13},"place_type":"0","rack_locks":"1"},{"uid":"2585446","lat":"52.2355713","lng":"21.0179642","name":"Nowy \u015awiat - Warecka","spot":"1","number":"9505","bikes":"17","bike_racks":"24","free_racks":"7","terminal_type":"7inch","bike_numbers":"24619,24506,28612,28457,28269,27394,26690,26666,26144,25540,25524,25500,25442,29092,96058,29176,29203","bike_types":{"4":16},"place_type":"0","rack_locks":"1"},{"uid":"2585447","lat":"52.2337571","lng":"21.0202789","name":"Ga\u0142czy\u0144skiego - Foksal","spot":"1","number":"9506","bikes":"17","bike_racks":"24","free_racks":"8","terminal_type":"7inch","bike_numbers":"24824,28154,27790,27665,27413,26947,26747,26211,26140,25733,25191,25071,96432,29196,29195,29227,29218","bike_types":{"4":17},"place_type":"0","rack_locks":"1"},{"uid":"2585450","lat":"52.2375934","lng":"21.0256487","name":"Topiel - Tamka","spot":"1","number":"9507","bikes":"27","bike_racks":"20","free_racks":"0","terminal_type":"7inch","bike_numbers":"24980,24940,24828,28734,28701,28646,28630,28282,27844,27661,27600,27440,27365,27130,27087,26807,26200,26002,25670,25643,25456,25013,29367,29121,25630,96386,96191","bike_types":{"4":26,"0":1},"place_type":"0","rack_locks":"1"},{"uid":"2585452","lat":"52.2358752","lng":"21.0317323","name":"Solec - Jaracza","spot":"1","number":"9508","bikes":"9","bike_racks":"15","free_racks":"3","terminal_type":"7inch","bike_numbers":"28655,28460,28406,28265,27007,25935,25933,25644,96528","bike_types":{"4":9},"place_type":"0","rack_locks":"1"},{"uid":"2585453","lat":"52.2218874","lng":"20.9795301","name":"al. Jerozolimskie - Niemcewicza","spot":"1","number":"9509","bikes":"6","bike_racks":"19","free_racks":"13","terminal_type":"7inch","bike_numbers":"28660,26495,26210,26209,25082,28806","bike_types":{"4":6},"place_type":"0","rack_locks":"1"},{"uid":"2585455","lat":"52.2222155","lng":"20.9866293","name":"Ochota-Ratusz","spot":"1","number":"9510","bikes":"6","bike_racks":"23","free_racks":"14","terminal_type":"7inch","bike_numbers":"24762,28490,27764,28963,96275,96177","bike_types":{"4":6},"place_type":"0","rack_locks":"1"},{"uid":"2585457","lat":"52.2249718","lng":"20.9897661","name":"Plac Zawiszy","spot":"1","number":"9511","bikes":"9","bike_racks":"24","free_racks":"17","terminal_type":"7inch","bike_numbers":"27949,26917,25778,25723,25517,25016,29105,28912,96493","bike_types":{"4":9},"place_type":"0","rack_locks":"1"},{"uid":"2585460","lat":"52.22626","lng":"20.9961309","name":"al. Jerozolimskie - Lindleya","spot":"1","number":"9512","bikes":"13","bike_racks":"15","free_racks":"2","terminal_type":"7inch","bike_numbers":"28404,28279,27867,26676,26552,26428,25969,25851,25468,25177,25064,96026,96545","bike_types":{"4":13},"place_type":"0","rack_locks":"1"},{"uid":"2585462","lat":"52.2241455","lng":"20.9975244","name":"Lindleya - szpital","spot":"1","number":"9513","bikes":"21","bike_racks":"28","free_racks":"9","terminal_type":"7inch","bike_numbers":"24942,28564,28563,28547,28493,27796,26916,26722,26662,26549,26356,26289,25978,25800,25648,29113,29456,28894,96024,96006,96100","bike_types":{"4":21},"place_type":"0","rack_locks":"1"},{"uid":"2585464","lat":"52.227861","lng":"21.0008509","name":"Warszawa \u015ar\u00f3dmie\u015bcie WKD","spot":"1","number":"9514","bikes":"11","bike_racks":"18","free_racks":"7","terminal_type":"7inch","bike_numbers":"24927,24543,24475,24012,28332,27801,27778,27521,26402,25539,96360","bike_types":{"4":9,"51":1,"26":1},"place_type":"0","rack_locks":"1"},{"uid":"2585466","lat":"52.2249555","lng":"21.0031664","name":"Oczki - WUM","spot":"1","number":"9515","bikes":"13","bike_racks":"19","free_racks":"5","terminal_type":"7inch","bike_numbers":"24720,24455,28667,28089,27384,27181,27071,26988,25226,96099,96095,29210,29224","bike_types":{"4":12,"51":1},"place_type":"0","rack_locks":"1"},{"uid":"2585469","lat":"52.2290464","lng":"21.0054544","name":"Emilii Plater - Al. Jerozolimskie","spot":"1","number":"9517","bikes":"25","bike_racks":"30","free_racks":"6","terminal_type":"7inch","bike_numbers":"24542,24458,28763,28678,28049,27679,27592,27489,27480,27176,27146,27066,26730,26564,26439,26023,26003,25745,25657,25493,28936,28841,96012,96540,96311","bike_types":{"4":24,"51":1},"place_type":"0","rack_locks":"1"},{"uid":"2585470","lat":"52.2259343","lng":"21.0067537","name":"Emilii Plater - Wsp\u00f3lna","spot":"1","number":"9518","bikes":"13","bike_racks":"15","free_racks":"3","terminal_type":"7inch","bike_numbers":"24510,28735,28380,28046,27429,27142,26653,26581,26135,25713,25283,96046,29166","bike_types":{"4":13},"place_type":"0","rack_locks":"1"},{"uid":"2585472","lat":"52.23001","lng":"21.01088","name":"Metro Centrum","spot":"1","number":"9519","bikes":"25","bike_racks":"30","free_racks":"3","terminal_type":"7inch","bike_numbers":"24921,24531,24522,28747,28685,28681,28664,28624,28149,28004,27846,27296,27245,27090,26509,26225,26086,25966,25963,25126,29345,96531,96449,96263,96579","bike_types":{"4":25},"place_type":"0","rack_locks":"1"},{"uid":"2585473","lat":"52.229347019086","lng":"21.011314988136","name":"Marsza\u0142kowska - Al. Jerozolimskie","spot":"1","number":"9520","bikes":"19","bike_racks":"20","free_racks":"0","terminal_type":"7inch","bike_numbers":"24995,24739,24700,24043,24005,28347,27921,27767,27036,26919,26630,26585,25932,25812,25717,25304,96515,96507,96082","bike_types":{"4":17,"26":2},"place_type":"0","rack_locks":"1"},{"uid":"2585476","lat":"52.230418150276","lng":"21.013610959053","name":"al. Jerozolimskie - rejon Rotundy","spot":"1","number":"9521","bikes":"7","bike_racks":"24","free_racks":"18","terminal_type":"7inch","bike_numbers":"27693,26665,26658,25310,96214,29255,24054","bike_types":{"4":6},"place_type":"0","rack_locks":"1"},{"uid":"2585477","lat":"52.2262882","lng":"21.0135705","name":"Marsza\u0142kowska - Ho\u017ca","spot":"1","number":"9522","bikes":"5","bike_racks":"15","free_racks":"9","terminal_type":"7inch","bike_numbers":"28364,27935,27059,26813,96085","bike_types":{"4":5},"place_type":"0","rack_locks":"1"},{"uid":"2585492","lat":"52.2282923","lng":"21.0178542","name":"Krucza - Wsp\u00f3lna","spot":"1","number":"9523","bikes":"4","bike_racks":"28","free_racks":"22","terminal_type":"7inch","bike_numbers":"28414,26281,25481,28946","bike_types":{"4":6},"place_type":"0","rack_locks":"1"},{"uid":"2585684","lat":"52.23144","lng":"21.0213036","name":"Rondo de Gaulle'a","spot":"1","number":"9524","bikes":"10","bike_racks":"22","free_racks":"10","terminal_type":"7inch","bike_numbers":"24894,27724,27453,27424,25714,25035,96081,29211,29263,29223","bike_types":{"4":10},"place_type":"0","rack_locks":"1"},{"uid":"2585694","lat":"52.2278487","lng":"21.0235084","name":"Plac Trzech Krzy\u017cy","spot":"1","number":"9525","bikes":"11","bike_racks":"23","free_racks":"12","maintenance":"1","terminal_type":"7inch","bike_numbers":"24716,24655,27399,26446,26329,26246,26148,25934,25476,25327,96166","bike_types":{"4":12},"place_type":"0","rack_locks":"1"},{"uid":"2585695","lat":"52.23324","lng":"21.0261179","name":"Smolna - PKP Powi\u015ble","spot":"1","number":"9526","bikes":"10","bike_racks":"18","free_racks":"8","terminal_type":"7inch","bike_numbers":"24908,24626,24021,28650,28330,28052,27952,26874,26603,25112","bike_types":{"4":9,"26":1},"place_type":"0","rack_locks":"1"},{"uid":"2585699","lat":"52.2340191","lng":"21.0300328","name":"Herberta - PKP Powi\u015ble","spot":"1","number":"9527","bikes":"38","bike_racks":"26","free_racks":"0","terminal_type":"7inch","bike_numbers":"24973,24888,24875,24859,24683,24665,24459,28639,28616,28517,28257,28139,27757,27615,27579,27486,27418,27405,27209,26851,26596,26573,25532,25299,25132,25079,29106,29448,29554,28888,28918,96478,96304,96193,96172,29168,29153,96589","bike_types":{"4":37,"51":1},"place_type":"0","rack_locks":"1"},{"uid":"2585704","lat":"52.2347879","lng":"21.0340991","name":"Solec - al. 3 Maja","spot":"1","number":"9528","bikes":"21","bike_racks":"24","free_racks":"1","terminal_type":"7inch","bike_numbers":"24867,24827,24497,28732,27658,27228,26481,26187,26183,26040,25911,25798,25732,25618,25386,25034,25031,29080,28995,96339,96080","bike_types":{"4":20,"51":1},"place_type":"0","rack_locks":"1"},{"uid":"2585708","lat":"52.2301405","lng":"21.0303694","name":"Ksi\u0105\u017c\u0119ca - Rozbrat","spot":"1","number":"9529","bikes":"14","bike_racks":"15","free_racks":"1","terminal_type":"7inch","bike_numbers":"28750,28586,28341,28020,27967,27853,27082,26516,25793,25342,25188,29091,96434,96235","bike_types":{"4":14},"place_type":"0","rack_locks":"1"},{"uid":"2585711","lat":"52.2172177","lng":"20.9713608","name":"Szcz\u0119\u015bliwicka - APS","spot":"1","number":"9530","bikes":"8","bike_racks":"22","free_racks":"11","terminal_type":"7inch","bike_numbers":"27642,27084,26736,26092,26091,25563,96301,96083","bike_types":{"4":8},"place_type":"0","rack_locks":"1"},{"uid":"2585712","lat":"52.2179474","lng":"20.9775567","name":"Kopi\u0144ska - Bia\u0142obrzeska","spot":"1","number":"9531","bikes":"3","bike_racks":"15","free_racks":"12","terminal_type":"7inch","bike_numbers":"24577,26099,25145","bike_types":{"4":3},"place_type":"0","rack_locks":"1"},{"uid":"2585714","lat":"52.2178554","lng":"20.9828138","name":"Plac Narutowicza","spot":"1","number":"9532","bikes":"13","bike_racks":"30","free_racks":"16","terminal_type":"7inch","bike_numbers":"24630,24584,28449,27740,26490,25244,29344,28846,96498,96365,96319,96121,96092","bike_types":{"4":13},"place_type":"0","rack_locks":"1"},{"uid":"2585716","lat":"52.216641","lng":"20.9879476","name":"Raszy\u0144ska - Wawelska","spot":"1","number":"9533","bikes":"1","bike_racks":"12","free_racks":"11","terminal_type":"7inch","bike_numbers":"28949","bike_types":{"4":1},"place_type":"0","rack_locks":"1"},{"uid":"2585717","lat":"52.2191029","lng":"20.9890149","name":"Raszy\u0144ska - Filtrowa","spot":"1","number":"9534","bikes":"2","bike_racks":"18","free_racks":"16","terminal_type":"7inch","bike_numbers":"25369,25218","bike_types":{"4":2},"place_type":"0","rack_locks":"1"},{"uid":"2585720","lat":"52.220676","lng":"21.0045554","name":"al. Niepodleg\u0142o\u015bci - Nowowiejska","spot":"1","number":"9535","bikes":"14","bike_racks":"30","free_racks":"14","terminal_type":"7inch","bike_numbers":"24961,28700,28654,27525,27499,27156,27022,26586,26244,26141,25939,25667,25279,96009","bike_types":{"4":14},"place_type":"0","rack_locks":"1"},{"uid":"2585721","lat":"52.2174693","lng":"21.0056537","name":"Kaczy\u0144skiego - al. Niepodleg\u0142o\u015bci","spot":"1","number":"9536","bikes":"3","bike_racks":"16","free_racks":"13","terminal_type":"7inch","bike_numbers":"28764,28055,29205","bike_types":{"4":3},"place_type":"0","rack_locks":"1"},{"uid":"2585722","lat":"52.2226831","lng":"21.0081097","name":"Noakowskiego - Koszykowa","spot":"1","number":"9537","bikes":"8","bike_racks":"24","free_racks":"16","terminal_type":"7inch","bike_numbers":"24670,28008,27343,26828,26369,25919,25501,96408","bike_types":{"4":8},"place_type":"0","rack_locks":"1"},{"uid":"2585724","lat":"52.219916","lng":"21.0116824","name":"Plac Politechniki","spot":"1","number":"9538","bikes":"6","bike_racks":"27","free_racks":"21","terminal_type":"7inch","bike_numbers":"27982,27277,25863,25196,96459,29174","bike_types":{"4":6},"place_type":"0","rack_locks":"1"},{"uid":"2585727","lat":"52.223503","lng":"21.0128519","name":"Pozna\u0144ska - Zesp\u00f3\u0142 Szk\u00f3\u0142 Gastronomicznych","spot":"1","number":"9539","bikes":"6","bike_racks":"18","free_racks":"12","terminal_type":"7inch","bike_numbers":"28027,27406,26513,25872,96443,96586","bike_types":{"4":6},"place_type":"0","rack_locks":"1"},{"uid":"2585728","lat":"52.2174857","lng":"21.0142949","name":"Rondo Jazdy Polskiej","spot":"1","number":"9540","bikes":"4","bike_racks":"24","free_racks":"20","terminal_type":"7inch","bike_numbers":"24951,26724,96060,96057","bike_types":{"4":4},"place_type":"0","rack_locks":"1"},{"uid":"2585729","lat":"52.2197435","lng":"21.0157353","name":"Metro Politechnika - Nowowiejska","spot":"1","number":"9541","bikes":"1","bike_racks":"18","free_racks":"18","terminal_type":"7inch","bike_numbers":"25004","bike_types":{"4":1},"place_type":"0","rack_locks":"1"},{"uid":"2585731","lat":"52.2197681","lng":"21.0172775","name":"Plac Zbawiciela","spot":"1","number":"9542","bikes":"8","bike_racks":"12","free_racks":"2","terminal_type":"7inch","bike_numbers":"24905,27675,27408,27165,27131,26184,28798,96316","bike_types":{"4":8},"place_type":"0","rack_locks":"1"},{"uid":"2585735","lat":"52.2229427","lng":"21.0158211","name":"Plac Konstytucji","spot":"1","number":"9543","bikes":"9","bike_racks":"30","free_racks":"20","terminal_type":"7inch","bike_numbers":"24913,24489,28697,27829,27251,26740,26674,25882,96014","bike_types":{"4":8,"51":1},"place_type":"0","rack_locks":"1"},{"uid":"2585737","lat":"52.2238152","lng":"21.0207859","name":"Mokotowska - Pi\u0119kna","spot":"1","number":"9544","bikes":"1","bike_racks":"20","free_racks":"20","terminal_type":"7inch","bike_numbers":"27369","bike_types":{"4":1},"place_type":"0","rack_locks":"1"},{"uid":"2585738","lat":"52.2200212","lng":"21.0256299","name":"Plac na Rozdro\u017cu","spot":"1","number":"9545","bikes":"24","bike_racks":"26","free_racks":"0","terminal_type":"7inch","bike_numbers":"24518,24512,24038,28723,28082,27809,27774,27572,27557,27434,27376,27266,26893,26890,26718,25890,25134,25129,25097,96538,96437,29256,29225,29222","bike_types":{"4":24,"26":1},"place_type":"0","rack_locks":"1"},{"uid":"2585742","lat":"52.2249504","lng":"21.0268155","name":"Matejki - Wiejska","spot":"1","number":"9546","bikes":"7","bike_racks":"20","free_racks":"16","terminal_type":"7inch","bike_numbers":"24999,27561,26648,26563,26503,29347,96211","bike_types":{"4":7},"place_type":"0","rack_locks":"1"},{"uid":"2585747","lat":"52.2221129","lng":"21.0343873","name":"My\u015bliwiecka - Rozbrat","spot":"1","number":"9547","bikes":"34","bike_racks":"21","free_racks":"0","terminal_type":"7inch","bike_numbers":"24933,24907,24758,24722,24678,24501,28802,28595,28501,27898,27775,27637,27134,27044,26994,26887,26850,26811,26638,26493,26266,26205,25838,25788,25686,25668,25554,25441,25069,29017,28805,96558,96205,29250","bike_types":{"4":35},"place_type":"0","rack_locks":"1"},{"uid":"2585748","lat":"52.2277124","lng":"21.0442955","name":"Port Czerniakowski","spot":"1","number":"9548","bikes":"10","bike_racks":"30","free_racks":"18","terminal_type":"7inch","bike_numbers":"24633,28637,27815,27515,26959,26273,25773,25451,25243,25051","bike_types":{"4":10},"place_type":"0","rack_locks":"1"},{"uid":"2585749","lat":"52.2109711","lng":"20.9759125","name":"Gr\u00f3jecka - Bitwy Warszawskiej 1920 roku","spot":"1","number":"9549","bikes":"14","bike_racks":"20","free_racks":"4","terminal_type":"7inch","bike_numbers":"24563,24556,24004,28254,27477,26497,26453,26322,26178,25372,29049,28895,96255,96158","bike_types":{"4":15,"26":1},"place_type":"0","rack_locks":"1"},{"uid":"2585750","lat":"52.2130296","lng":"20.9819985","name":"Pasteura - Winnicka - UW","spot":"1","number":"9550","bikes":"0","bike_racks":"24","free_racks":"24","terminal_type":"7inch","place_type":"0","rack_locks":"1","bike_numbers":null,"bike_types":[]},{"uid":"2585762","lat":"52.2107722","lng":"20.9847557","name":"Stefana Banacha - UW","spot":"1","number":"9551","bikes":"4","bike_racks":"29","free_racks":"24","terminal_type":"7inch","bike_numbers":"27164,27129,26826,60854","bike_types":{"4":4},"place_type":"0","rack_locks":"1"},{"uid":"2585764","lat":"52.212671","lng":"21.003437","name":"Biblioteka Narodowa","spot":"1","number":"9552","bikes":"10","bike_racks":"24","free_racks":"13","terminal_type":"7inch","bike_numbers":"24664,24620,26962,26930,25976,25455,25263,25116,29073,63608","bike_types":{"4":11},"place_type":"0","rack_locks":"1"},{"uid":"2585766","lat":"52.21691","lng":"21.01997","name":"Marsza\u0142kowska - Litewska","spot":"1","number":"9553","bikes":"6","bike_racks":"15","free_racks":"9","terminal_type":"7inch","bike_numbers":"24534,27734,27508,26932,25929,25658","bike_types":{"4":6},"place_type":"0","rack_locks":"1"},{"uid":"2585770","lat":"52.2083858","lng":"20.9631103","name":"P\u0119tla Szcz\u0119\u015bliwice","spot":"1","number":"9554","bikes":"5","bike_racks":"19","free_racks":"6","terminal_type":"7inch","bike_numbers":"24485,24033,26436,26431,29644","bike_types":{"51":1,"26":1,"4":4},"place_type":"0","rack_locks":"1"},{"uid":"2585771","lat":"52.206153650625","lng":"20.970287919044","name":"Dickensa - Geodet\u00f3w","spot":"1","number":"9555","bikes":"17","bike_racks":"16","free_racks":"5","terminal_type":"7inch","bike_numbers":"24924,24668,27162,27064,27057,26766,26749,26612,26437,26026,25748,25392,25168,25626,96476,96112,29160","bike_types":{"4":17},"place_type":"0","rack_locks":"1"},{"uid":"2585772","lat":"52.205361371875","lng":"20.984664559364","name":"\u017bwirki i Wigury - Ksi\u0119cia Trojdena","spot":"1","number":"9556","bikes":"11","bike_racks":"17","free_racks":"6","terminal_type":"7inch","bike_numbers":"24780,28324,28190,28111,28034,27312,27020,27008,25992,96279,96181","bike_types":{"4":11},"place_type":"0","rack_locks":"1"},{"uid":"2585774","lat":"52.205801893754","lng":"20.998928546906","name":"Rakowiecka - \u015aw. A. Boboli","spot":"1","number":"9557","bikes":"2","bike_racks":"17","free_racks":"15","terminal_type":"7inch","bike_numbers":"24850,25350","bike_types":{"4":2},"place_type":"0","rack_locks":"1"},{"uid":"2585776","lat":"52.209916","lng":"21.0067794","name":"al. Niepodleg\u0142o\u015bci - Batorego","spot":"1","number":"9558","bikes":"4","bike_racks":"26","free_racks":"23","terminal_type":"7inch","bike_numbers":"28115,28038,25878,96243","bike_types":{"4":4},"place_type":"0","rack_locks":"1"},{"uid":"2585779","lat":"52.2132375","lng":"21.0210568","name":"Plac Unii Lubelskiej","spot":"1","number":"9559","bikes":"8","bike_racks":"24","free_racks":"16","terminal_type":"7inch","bike_numbers":"24022,28032,26999,26518,25938,25801,25464,25086","bike_types":{"26":1,"4":7},"place_type":"0","rack_locks":"1"},{"uid":"2585781","lat":"52.2027557","lng":"20.9508951","name":"W\u0142odarzewska - Maszynowa","spot":"1","number":"9560","bikes":"4","bike_racks":"18","free_racks":"14","terminal_type":"7inch","bike_numbers":"28311,27819,25422,96328","bike_types":{"4":4},"place_type":"0","rack_locks":"1"},{"uid":"2585782","lat":"52.2017647","lng":"20.9820897","name":"Sanocka - Pruszkowska","spot":"1","number":"9561","bikes":"19","bike_racks":"15","free_racks":"0","terminal_type":"7inch","bike_numbers":"24797,28652,26995,26975,26895,26894,26793,26561,26544,26204,26150,25806,25419,25118,29134,28830,96370,96208,29207","bike_types":{"4":19},"place_type":"0","rack_locks":"1"},{"uid":"2585785","lat":"52.1981365","lng":"20.9833717","name":"\u017bwirki i Wigury - Rac\u0142awicka","spot":"1","number":"9562","bikes":"8","bike_racks":"18","free_racks":"11","terminal_type":"7inch","bike_numbers":"27594,26696,26498,26284,25663,25439,25323,96468","bike_types":{"4":8},"place_type":"0","rack_locks":"1"},{"uid":"2585787","lat":"52.20177","lng":"20.99969","name":"Wo\u0142oska - Kulskiego","spot":"1","number":"9563","bikes":"3","bike_racks":"15","free_racks":"11","terminal_type":"7inch","bike_numbers":"28378,26720,96164","bike_types":{"4":3},"place_type":"0","rack_locks":"1"},{"uid":"2585788","lat":"52.2042638","lng":"21.014428","name":"Madali\u0144skiego - Kazimierzowska","spot":"1","number":"9564","bikes":"9","bike_racks":"24","free_racks":"15","terminal_type":"7inch","bike_numbers":"24837,28156,27597,27468,27368,26072,25072,28865,96504","bike_types":{"4":7},"place_type":"0","rack_locks":"1"},{"uid":"2585789","lat":"52.2055175","lng":"21.0231033","name":"Pu\u0142awska - Dworkowa","spot":"1","number":"9565","bikes":"18","bike_racks":"19","free_racks":"8","terminal_type":"7inch","bike_numbers":"24526,28521,27926,27410,27362,27132,27088,26982,26218,26171,26077,25837,25720,29081,29552,96523,96246,29204","bike_types":{"4":18},"place_type":"0","rack_locks":"1"},{"uid":"2585790","lat":"52.2071756","lng":"21.0312643","name":"Belwederska - Gagarina","spot":"1","number":"9566","bikes":"32","bike_racks":"30","free_racks":"0","terminal_type":"7inch","bike_numbers":"24911,24601,25001,28903,28728,28546,28469,27641,27414,27398,27382,27288,27000,26571,26409,26216,26069,25990,25898,25760,25664,25573,25516,25331,25315,25258,25250,29065,28924,28916,96033,96387","bike_types":{"4":32},"place_type":"0","rack_locks":"1"},{"uid":"2585791","lat":"52.2074193","lng":"21.0479621","name":"Czerniakowska - Gagarina","spot":"1","number":"9567","bikes":"43","bike_racks":"25","free_racks":"3","terminal_type":"7inch","bike_numbers":"24974,24854,24811,24782,24767,24754,24645,28429,28091,27932,27866,27826,27748,27660,27510,27483,27391,27302,26889,26710,26615,26232,26201,26167,26102,26042,26030,25589,25523,25484,25454,25354,25212,25172,25026,29083,29362,63613,96452,96426,96303,96225,29192","bike_types":{"4":43},"place_type":"0","rack_locks":"1"},{"uid":"2585794","lat":"52.1938131","lng":"20.9914431","name":"Etiudy Rewolucyjnej - Mi\u0105czy\u0144ska","spot":"1","number":"9568","bikes":"20","bike_racks":"18","free_racks":"2","terminal_type":"7inch","bike_numbers":"24775,24726,24031,28707,27957,27750,27536,27471,27125,26382,25828,25660,25418,25308,25194,25178,25059,25011,96254,96576","bike_types":{"4":19,"26":1},"place_type":"0","rack_locks":"1"},{"uid":"2585799","lat":"52.1994156","lng":"21.0121384","name":"Metro Rac\u0142awicka","spot":"1","number":"9570","bikes":"3","bike_racks":"30","free_racks":"25","terminal_type":"7inch","bike_numbers":"26591,25015,28778","bike_types":{"4":3},"place_type":"0","rack_locks":"1"},{"uid":"2585800","lat":"52.199505","lng":"21.0240975","name":"Pu\u0142awska - Dolna","spot":"1","number":"9571","bikes":"18","bike_racks":"18","free_racks":"0","terminal_type":"7inch","bike_numbers":"24627,24625,24599,24590,28752,28582,28123,27772,27718,27309,27225,26378,26271,25749,25737,25408,25375,96472","bike_types":{"4":18},"place_type":"0","rack_locks":"1"},{"uid":"2585802","lat":"52.2014754","lng":"21.0360047","name":"Sobieskiego - Che\u0142mska","spot":"1","number":"9572","bikes":"30","bike_racks":"15","free_racks":"2","terminal_type":"7inch","bike_numbers":"24873,24671,24039,24006,28819,28722,28047,27959,27668,27653,27605,27582,27395,27392,27248,26831,26753,26390,26299,26264,25986,25808,25488,29454,29129,29137,28864,28988,96038,29279","bike_types":{"4":26,"26":2,"0":2},"place_type":"0","rack_locks":"1"},{"uid":"2585804","lat":"52.1998446","lng":"21.05095","name":"Czerniakowska - ZUS","spot":"1","number":"9573","bikes":"9","bike_racks":"15","free_racks":"6","terminal_type":"7inch","bike_numbers":"28068,28030,27496,27039,26479,25061,29036,96457,96276","bike_types":{"4":9},"place_type":"0","rack_locks":"1"},{"uid":"2585807","lat":"52.1916776","lng":"20.8689688","name":"PKP Ursus-Nied\u017awiadek","spot":"1","number":"9574","bikes":"11","bike_racks":"15","free_racks":"1","terminal_type":"7inch","bike_numbers":"24737,28290,28209,28195,28054,27598,26977,26257,28921,28961,96139","bike_types":{"4":11},"place_type":"0","rack_locks":"1"},{"uid":"2585808","lat":"52.1960469","lng":"20.8849347","name":"PKP Ursus","spot":"1","number":"9575","bikes":"5","bike_racks":"16","free_racks":"11","terminal_type":"7inch","bike_numbers":"24016,28122,27569,27485,26805","bike_types":{"26":1,"4":4},"place_type":"0","rack_locks":"1"},{"uid":"2585809","lat":"52.1869936","lng":"20.8906478","name":"Sosnkowskiego - OSiR Ursus","spot":"1","number":"9576","bikes":"11","bike_racks":"15","free_racks":"4","terminal_type":"7inch","bike_numbers":"24932,24576,28704,28336,28037,27247,27217,27139,27118,25786,96135","bike_types":{"4":11},"place_type":"0","rack_locks":"1"},{"uid":"2585811","lat":"52.2005548","lng":"20.8937538","name":"Ursus-Ratusz","spot":"1","number":"9577","bikes":"10","bike_racks":"15","free_racks":"5","terminal_type":"7inch","bike_numbers":"24866,24541,28905,27509,27116,26859,26602,25165,28880,96116","bike_types":{"4":10},"place_type":"0","rack_locks":"1"},{"uid":"2585814","lat":"52.1906376","lng":"20.8999443","name":"Skoroszewska - Prystora","spot":"1","number":"9578","bikes":"14","bike_racks":"17","free_racks":"3","terminal_type":"7inch","bike_numbers":"28422,28387,28258,28211,27963,27825,27539,27348,27046,25794,25189,25040,96403,96309","bike_types":{"4":14},"place_type":"0","rack_locks":"1"},{"uid":"2585817","lat":"52.1882609","lng":"20.9603771","name":"G\u0142adka - OSiR W\u0142ochy","spot":"1","number":"9579","bikes":"3","bike_racks":"16","free_racks":"12","terminal_type":"7inch","bike_numbers":"28110,26618,96280","bike_types":{"4":3},"place_type":"0","rack_locks":"1"},{"uid":"2585820","lat":"52.2056441","lng":"20.9159142","name":"PKP W\u0142ochy","spot":"1","number":"9580","bikes":"12","bike_racks":"17","free_racks":"5","terminal_type":"7inch","bike_numbers":"24935,24724,28591,28491,27377,27092,26715,25974,29067,96422,96247,29173","bike_types":{"4":12},"place_type":"0","rack_locks":"1"},{"uid":"2585821","lat":"52.2012157","lng":"20.9353145","name":"al. Jerozolimskie - Popularna","spot":"1","number":"9581","bikes":"5","bike_racks":"17","free_racks":"12","terminal_type":"7inch","bike_numbers":"28135,28062,27624,25117,28848","bike_types":{"4":5},"place_type":"0","rack_locks":"1"},{"uid":"2585824","lat":"52.1924709","lng":"20.9596664","name":"W\u0142ochy-Ratusz","spot":"1","number":"9582","bikes":"14","bike_racks":"14","free_racks":"1","terminal_type":"7inch","bike_numbers":"24496,28570,28417,28192,27093,26583,26170,26057,25962,25874,28857,96542,96152,29188","bike_types":{"51":1,"4":13},"place_type":"0","rack_locks":"1"},{"uid":"2585825","lat":"52.1946888","lng":"20.9667823","name":"1 Sierpnia - DK W\u0142ochy","spot":"1","number":"9583","bikes":"14","bike_racks":"15","free_racks":"4","terminal_type":"7inch","bike_numbers":"24753,24666,24562,28572,27329,26399,26164,26001,25859,25848,25744,25420,25373,96123","bike_types":{"4":14},"place_type":"0","rack_locks":"1"},{"uid":"2585827","lat":"52.1888962","lng":"21.0175887","name":"Metro Wierzbno","spot":"1","number":"9584","bikes":"13","bike_racks":"20","free_racks":"3","terminal_type":"7inch","bike_numbers":"24844,24744,28817,28033,27644,27595,27593,27353,27128,26333,25844,25692,96405","bike_types":{"4":13},"place_type":"0","rack_locks":"1"},{"uid":"2585830","lat":"52.18648","lng":"21.02538","name":"Pu\u0142awska - Idzikowskiego","spot":"1","number":"9585","bikes":"6","bike_racks":"17","free_racks":"10","terminal_type":"7inch","bike_numbers":"24868,24593,27759,26073,25102,96447","bike_types":{"4":6},"place_type":"0","rack_locks":"1"},{"uid":"2585835","lat":"52.1882861","lng":"21.0498825","name":"Sobieskiego - Mangalia","spot":"1","number":"9586","bikes":"19","bike_racks":"15","free_racks":"0","terminal_type":"7inch","bike_numbers":"28759,28071,27951,27891,27246,27244,27112,26983,26190,26146,25955,25823,25699,25410,25395,25213,28872,28975,96562","bike_types":{"4":19},"place_type":"0","rack_locks":"1"},{"uid":"2585837","lat":"52.178777","lng":"21.0016387","name":"Wo\u0142oska - Marynarska","spot":"1","number":"9588","bikes":"14","bike_racks":"26","free_racks":"12","terminal_type":"7inch","bike_numbers":"24719,28869,27964,27913,27909,27798,27409,26864,26367,25814,25314,25098,28981,28868","bike_types":{"4":14},"place_type":"0","rack_locks":"1"},{"uid":"2585838","lat":"52.1800882","lng":"21.0207403","name":"al. Niepodleg\u0142o\u015bci - al. Wilanowska","spot":"1","number":"9589","bikes":"3","bike_racks":"22","free_racks":"16","terminal_type":"7inch","bike_numbers":"28520,27374,27153","bike_types":{"4":3},"place_type":"0","rack_locks":"1"},{"uid":"2585839","lat":"52.1779163","lng":"21.049562","name":"P\u0119tla Stegny","spot":"1","number":"9590","bikes":"28","bike_racks":"23","free_racks":"0","terminal_type":"7inch","bike_numbers":"24887,24672,24652,28622,28617,28477,28109,27705,27545,27306,26711,26555,26137,25905,25847,25703,25546,25498,25494,25359,25301,25251,29024,28940,28938,96482,96473,96215","bike_types":{"4":28},"place_type":"0","rack_locks":"1"},{"uid":"2585843","lat":"52.1818472","lng":"21.0562822","name":"Sobieskiego - \u015bw. Bonifacego","spot":"1","number":"9591","bikes":"23","bike_racks":"22","free_racks":"1","terminal_type":"7inch","bike_numbers":"24622,28892,28598,28018,27787,27674,26883,26871,26809,26652,26610,26422,26418,26309,25775,25510,25378,25234,25232,25627,28900,96039,96369","bike_types":{"4":23},"place_type":"0","rack_locks":"1"},{"uid":"2585844","lat":"52.1702836","lng":"20.9959132","name":"P\u0119tla Bokserska","spot":"1","number":"9592","bikes":"18","bike_racks":"15","free_racks":"0","terminal_type":"7inch","bike_numbers":"24954,24786,24453,28666,28418,28400,28354,28048,27346,26863,26714,26454,26123,26071,26019,25940,25491,96331","bike_types":{"4":17,"51":1},"place_type":"0","rack_locks":"1"},{"uid":"2585846","lat":"52.1710498","lng":"21.0059144","name":"Gintrowskiego - Gotarda","spot":"1","number":"9593","bikes":"24","bike_racks":"15","free_racks":"3","terminal_type":"7inch","bike_numbers":"24985,24718,24595,28510,28504,28443,28371,28256,27855,27430,27143,26780,26732,26386,26306,26223,26208,26113,26052,26046,25993,25508,28933,96053","bike_types":{"4":24},"place_type":"0","rack_locks":"1"},{"uid":"2585848","lat":"52.174435","lng":"21.0128814","name":"al. Lotnik\u00f3w - Kaczmarskiego","spot":"1","number":"9594","bikes":"14","bike_racks":"30","free_racks":"16","terminal_type":"7inch","bike_numbers":"24920,24472,28621,28412,28076,27880,27656,27621,26507,26112,25833,25584,29084,96383","bike_types":{"4":13,"51":1},"place_type":"0","rack_locks":"1"},{"uid":"2585850","lat":"52.1733132","lng":"21.0257305","name":"Metro S\u0142u\u017cew","spot":"1","number":"9595","bikes":"5","bike_racks":"24","free_racks":"19","terminal_type":"7inch","bike_numbers":"26728,26087,25665,29096,96570","bike_types":{"4":5},"place_type":"0","rack_locks":"1"},{"uid":"2585853","lat":"52.17343","lng":"21.03179","name":"Wa\u0142brzyska - Wr\u00f3bla","spot":"1","number":"9596","bikes":"22","bike_racks":"30","free_racks":"7","terminal_type":"7inch","bike_numbers":"24851,24546,24515,28634,28580,28261,28088,27706,27555,26914,26904,26448,26280,25849,25758,25576,25482,25199,29021,28847,28906,96455","bike_types":{"4":22},"place_type":"0","rack_locks":"1"},{"uid":"2585856","lat":"52.170135","lng":"21.0685748","name":"Jana III Sobieskiego - al. Wilanowska","spot":"1","number":"9597","bikes":"1","bike_racks":"15","free_racks":"14","terminal_type":"7inch","bike_numbers":"29170","bike_types":{"4":1},"place_type":"0","rack_locks":"1"},{"uid":"2585860","lat":"52.1655879","lng":"21.0839331","name":"al. Wilanowska - Przycz\u00f3\u0142kowa","spot":"1","number":"9598","bikes":"5","bike_racks":"16","free_racks":"11","terminal_type":"7inch","bike_numbers":"24778,27407,27197,26687,25628","bike_types":{"4":5},"place_type":"0","rack_locks":"1"},{"uid":"2585863","lat":"52.16479","lng":"21.10925","name":"Vogla - Syta","spot":"1","number":"9599","bikes":"9","bike_racks":"16","free_racks":"7","terminal_type":"7inch","bike_numbers":"24791,28497,27227,26389,26034,25913,25137,28810,28881","bike_types":{"4":9},"place_type":"0","rack_locks":"1"},{"uid":"2585868","lat":"52.1606257","lng":"21.0723245","name":"al. Rzeczypospolitej - Klimczaka","spot":"1","number":"9600","bikes":"27","bike_racks":"16","free_racks":"2","terminal_type":"7inch","bike_numbers":"24792,28901,28349,28159,27988,27923,27676,27402,27389,27095,26899,26857,26833,26748,26708,26646,26324,26230,25839,25528,25291,25024,25629,28827,96388,96175,96136","bike_types":{"4":27},"place_type":"0","rack_locks":"1"},{"uid":"2585871","lat":"52.1569168","lng":"21.0760903","name":"al. Rzeczypospolitej - Branickiego","spot":"1","number":"9601","bikes":"14","bike_racks":"16","free_racks":"3","terminal_type":"7inch","bike_numbers":"24970,24915,28574,27945,27625,27618,26901,25675,25225,29060,29460,29131,28889,96049","bike_types":{"4":13,"0":1},"place_type":"0","rack_locks":"1"},{"uid":"2585872","lat":"52.1593735","lng":"21.086449","name":"Przycz\u00f3\u0142kowa - Branickiego","spot":"1","number":"9602","bikes":"1","bike_racks":"16","free_racks":"15","terminal_type":"7inch","bike_numbers":"27241","bike_types":{"4":1},"place_type":"0","rack_locks":"1"},{"uid":"2585873","lat":"52.1618136","lng":"21.0277355","name":"Metro Ursyn\u00f3w II","spot":"1","number":"9603","bikes":"28","bike_racks":"30","free_racks":"2","terminal_type":"7inch","bike_numbers":"24697,24605,28803,28489,28433,28338,28051,28010,27919,27364,26873,26609,26557,26532,26499,26403,26376,26304,26258,26180,26108,25556,25550,25489,29035,28939,96251,96157","bike_types":{"4":28},"place_type":"0","rack_locks":"1"},{"uid":"2585875","lat":"52.1622579","lng":"21.0280761","name":"Metro Ursyn\u00f3w I","spot":"1","number":"9604","bikes":"24","bike_racks":"30","free_racks":"11","terminal_type":"7inch","bike_numbers":"24709,28668,28389,28376,27741,27276,27223,27192,27174,27104,27027,26760,26707,25718,25649,25230,25111,29346,29359,96004,96526,96282,96261,29184","bike_types":{"4":24},"place_type":"0","rack_locks":"1"},{"uid":"2585876","lat":"52.162401","lng":"21.0383811","name":"Jastrz\u0119bowskiego - SGGW","spot":"1","number":"9605","bikes":"16","bike_racks":"28","free_racks":"12","terminal_type":"7inch","bike_numbers":"24748,28663,28505,28361,28359,27927,27851,27648,27352,26935,26845,26713,26364,25796,25326,25027","bike_types":{"4":16},"place_type":"0","rack_locks":"1"},{"uid":"2585880","lat":"52.1557534","lng":"21.0232776","name":"Romera - Pieciolinii","spot":"1","number":"9606","bikes":"8","bike_racks":"16","free_racks":"8","terminal_type":"7inch","bike_numbers":"28214,27987,27961,27806,27583,27055,29053,28968","bike_types":{"4":8},"place_type":"0","rack_locks":"1"},{"uid":"2585883","lat":"52.1568674","lng":"21.0338401","name":"Metro Stok\u0142osy","spot":"1","number":"9607","bikes":"28","bike_racks":"27","free_racks":"2","terminal_type":"7inch","bike_numbers":"24981,24892,24702,24554,24540,28818,28749,28613,28468,28416,28377,28345,28144,28081,27761,27243,27234,26176,25850,25789,25610,25582,25272,25235,25185,29064,96010,96338","bike_types":{"4":28},"place_type":"0","rack_locks":"1"},{"uid":"2585885","lat":"52.1572887","lng":"21.0440084","name":"Roso\u0142a - Ciszewskiego - SGGW","spot":"1","number":"9608","bikes":"8","bike_racks":"30","free_racks":"21","terminal_type":"7inch","bike_numbers":"24708,24517,28696,28375,28092,27739,26781,26004","bike_types":{"4":8},"place_type":"0","rack_locks":"1"},{"uid":"2585888","lat":"52.1521429","lng":"21.0181224","name":"Pu\u0142awska - Pileckiego","spot":"1","number":"9609","bikes":"28","bike_racks":"22","free_racks":"0","terminal_type":"7inch","bike_numbers":"24690,24624,24613,24519,28445,28413,28340,28216,28001,27896,27639,27635,27283,26664,26637,26053,25867,25817,25495,25174,25171,25107,29114,29078,28807,28994,96244,96106","bike_types":{"4":28},"place_type":"0","rack_locks":"1"},{"uid":"2585893","lat":"52.1495064","lng":"21.0332527","name":"Ciszewskiego - Pileckiego","spot":"1","number":"9610","bikes":"5","bike_racks":"22","free_racks":"16","terminal_type":"7inch","bike_numbers":"28298,27831,27373,27068,25065","bike_types":{"4":5},"place_type":"0","rack_locks":"1"},{"uid":"2585894","lat":"52.1549453","lng":"21.0492977","name":"Roso\u0142a - Gandhi","spot":"1","number":"9611","bikes":"12","bike_racks":"22","free_racks":"10","terminal_type":"7inch","bike_numbers":"24895,28466,28385,27694,27640,27599,27111,26285,28811,96435,96399,96231","bike_types":{"4":11},"place_type":"0","rack_locks":"1"},{"uid":"2585897","lat":"52.1493105","lng":"21.0453361","name":"Metro Imielin","spot":"1","number":"9612","bikes":"11","bike_racks":"22","free_racks":"11","terminal_type":"7inch","bike_numbers":"27053,27043,27025,26945,26502,25885,25561,25502,25345,25285,96312","bike_types":{"4":11},"place_type":"0","rack_locks":"1"},{"uid":"2585899","lat":"52.1522333","lng":"21.0563922","name":"Roso\u0142a - Weso\u0142a","spot":"1","number":"9613","bikes":"8","bike_racks":"23","free_racks":"14","terminal_type":"7inch","bike_numbers":"24637,24544,28604,27882,25010,28983,96356,96326","bike_types":{"4":8},"place_type":"0","rack_locks":"1"},{"uid":"2585901","lat":"52.1427201","lng":"21.0383624","name":"Pileckiego - Alternatywy","spot":"1","number":"9614","bikes":"22","bike_racks":"30","free_racks":"8","terminal_type":"7inch","bike_numbers":"24886,28683,28131,27992,27823,27758,27698,27692,27211,27154,26819,26494,26361,26345,26126,26094,26070,25701,25426,25068,29095,96226","bike_types":{"4":22},"place_type":"0","rack_locks":"1"},{"uid":"2585902","lat":"52.142735","lng":"21.0448131","name":"Dereniowa - P\u0142askowickiej","spot":"1","number":"9615","bikes":"18","bike_racks":"22","free_racks":"3","terminal_type":"7inch","bike_numbers":"24803,28503,28366,28015,28013,28002,27719,27591,27588,26341,26186,26114,25818,25557,25447,25274,28982,96340","bike_types":{"4":19},"place_type":"0","rack_locks":"1"},{"uid":"2585904","lat":"52.1376039","lng":"21.0505531","name":"Stryje\u0144skich - Belgradzka","spot":"1","number":"9616","bikes":"9","bike_racks":"15","free_racks":"6","terminal_type":"7inch","bike_numbers":"24984,24860,28898,28592,28107,27781,27537,25901,63628","bike_types":{"4":9},"place_type":"0","rack_locks":"1"},{"uid":"2585905","lat":"52.1403909","lng":"21.0568187","name":"Metro Natolin","spot":"1","number":"9617","bikes":"21","bike_racks":"30","free_racks":"6","terminal_type":"7inch","bike_numbers":"24715,28327,28326,28251,27770,27529,27344,27032,26996,26993,26589,26492,26344,25682,25153,28919,28835,28870,28893,96119,29275","bike_types":{"4":21},"place_type":"0","rack_locks":"1"},{"uid":"2585906","lat":"52.1420749","lng":"21.0659905","name":"Belgradzka - Roso\u0142a","spot":"1","number":"9618","bikes":"11","bike_racks":"23","free_racks":"11","terminal_type":"7inch","bike_numbers":"24669,28706,27925,27897,27894,27375,27304,26669,26421,26051,60867","bike_types":{"4":11},"place_type":"0","rack_locks":"1"},{"uid":"2585908","lat":"52.1314333","lng":"21.0561562","name":"Stryje\u0144skich - W\u0105wozowa","spot":"1","number":"9619","bikes":"28","bike_racks":"23","free_racks":"4","terminal_type":"7inch","bike_numbers":"24691,24565,28483,28372,28221,28140,27981,27585,27060,26818,26427,26212,26074,25964,25954,25735,25636,25535,25514,25424,25266,25246,25236,25224,25045,29427,29141,96040","bike_types":{"4":27,"0":1},"place_type":"0","rack_locks":"1"},{"uid":"2585911","lat":"52.3326052","lng":"20.9418404","name":"Ordon\u00f3wny - \u015awiatowida","spot":"1","number":"9620","bikes":"1","bike_racks":"22","free_racks":"21","terminal_type":"7inch","bike_numbers":"24743","bike_types":{"4":1},"place_type":"0","rack_locks":"1"},{"uid":"2585913","lat":"52.1310925","lng":"21.0654795","name":"Metro Kabaty","spot":"1","number":"9621","bikes":"3","bike_racks":"22","free_racks":"19","terminal_type":"7inch","bike_numbers":"28436,27681,25829","bike_types":{"4":4},"place_type":"0","rack_locks":"1"},{"uid":"2585916","lat":"52.1332642","lng":"21.0747962","name":"W\u0105wozowa - Roso\u0142a","spot":"1","number":"9622","bikes":"9","bike_racks":"18","free_racks":"7","terminal_type":"7inch","bike_numbers":"24703,24484,27507,26504,26282,25981,25058,96234,96195","bike_types":{"4":8,"51":1},"place_type":"0","rack_locks":"1"},{"uid":"2585917","lat":"52.324116","lng":"21.05663","name":"Skarbka z G\u00f3r - Berensona","spot":"1","number":"9623","bikes":"14","bike_racks":"26","free_racks":"12","terminal_type":"7inch","bike_numbers":"28657,28587,28440,28350,28277,28090,28067,27821,27680,26881,26817,25587,25146,29246","bike_types":{"4":14},"place_type":"0","rack_locks":"1"},{"uid":"2585919","lat":"52.3485329","lng":"20.9418336","name":"Aluzyjna - Tr\u0105by","spot":"1","number":"9624","bikes":"5","bike_racks":"16","free_racks":"9","terminal_type":"7inch","bike_numbers":"24833,28653,27167,26847,25305","bike_types":{"4":5},"place_type":"0","rack_locks":"1"},{"uid":"2585920","lat":"52.3226982","lng":"20.9448107","name":"\u015awiatowida - Mehoffera","spot":"1","number":"9625","bikes":"6","bike_racks":"16","free_racks":"7","terminal_type":"7inch","bike_numbers":"28431,28314,27587,27415,25646,25506","bike_types":{"4":7},"place_type":"0","rack_locks":"1"},{"uid":"2585921","lat":"52.3212548","lng":"20.9477347","name":"Bia\u0142o\u0142\u0119cki O\u015brodek Sportu","spot":"1","number":"9626","bikes":"16","bike_racks":"30","free_racks":"15","terminal_type":"7inch","bike_numbers":"24993,24597,28606,28426,27895,27721,27519,27412,27152,26551,26489,26461,29555,29139,96522,96480","bike_types":{"4":15,"0":1},"place_type":"0","rack_locks":"1"},{"uid":"2585922","lat":"52.3211272","lng":"20.9712964","name":"Bia\u0142o\u0142\u0119ka-Ratusz","spot":"1","number":"9627","bikes":"15","bike_racks":"19","free_racks":"7","terminal_type":"7inch","bike_numbers":"24950,24900,28771,27986,27970,27908,27359,27357,27168,26835,26759,96257,96249,96138,29181","bike_types":{"4":15},"place_type":"0","rack_locks":"1"},{"uid":"2585924","lat":"52.3132981","lng":"20.9655324","name":"My\u015bliborska - al. Kukli\u0144skiego","spot":"1","number":"9628","bikes":"23","bike_racks":"22","free_racks":"0","terminal_type":"7inch","bike_numbers":"24814,28562,28308,27902,27784,27732,27632,27518,27481,27465,27464,26967,26614,26515,26287,26130,25577,25526,29025,28850,96372,96199,29270","bike_types":{"4":23},"place_type":"0","rack_locks":"1"},{"uid":"2585925","lat":"52.3031984","lng":"20.9891666","name":"Modli\u0144ska - \u017bera\u0144ska","spot":"1","number":"9629","bikes":"15","bike_racks":"30","free_racks":"15","terminal_type":"7inch","bike_numbers":"24849,28651,28533,27854,27704,27259,26968,26941,26678,26188,25092,25076,29125,96129,29254","bike_types":{"4":14,"0":1},"place_type":"0","rack_locks":"1"},{"uid":"2585926","lat":"52.3150181","lng":"21.0610807","name":"Skarbka z G\u00f3r - Magiczna","spot":"1","number":"9630","bikes":"18","bike_racks":"30","free_racks":"12","terminal_type":"7inch","bike_numbers":"24573,28699,28619,28583,28526,28373,27990,27538,27360,27279,27166,27115,27089,26827,26768,26163,25376,29130","bike_types":{"4":17,"0":1},"place_type":"0","rack_locks":"1"},{"uid":"2585928","lat":"52.3000268","lng":"21.0425266","name":"P\u0119tla Br\u00f3dno - Podgrodzie","spot":"1","number":"9631","bikes":"12","bike_racks":"16","free_racks":"5","terminal_type":"7inch","bike_numbers":"24979,28484,27954,27914,26824,26396,25821,29273,29243,29233,29230,29228","bike_types":{"4":12},"place_type":"0","rack_locks":"1"},{"uid":"2585929","lat":"52.2939957","lng":"21.0272258","name":"Rembieli\u0144ska - Kondratowicza","spot":"1","number":"9632","bikes":"23","bike_racks":"23","free_racks":"5","terminal_type":"7inch","bike_numbers":"24794,25002,28691,28629,28395,28268,28066,27742,27687,27654,27546,27454,27294,26362,26027,25807,29144,96461,96124,96103,29179,29209,29235","bike_types":{"4":21,"0":1},"place_type":"0","rack_locks":"1"},{"uid":"2585931","lat":"52.2917236","lng":"21.0481189","name":"Targ\u00f3wek-Ratusz","spot":"1","number":"9633","bikes":"4","bike_racks":"22","free_racks":"18","terminal_type":"7inch","bike_numbers":"27260,27086,25552,96577","bike_types":{"4":4},"place_type":"0","rack_locks":"1"},{"uid":"2585932","lat":"52.292208","lng":"21.0419554","name":"Kondratowicza - Chodecka","spot":"1","number":"9634","bikes":"16","bike_racks":"23","free_racks":"6","terminal_type":"7inch","bike_numbers":"24714,24662,28151,27872,27650,27487,27439,27249,26459,26404,26221,25609,29046,96218,29178,29241","bike_types":{"4":16},"place_type":"0","rack_locks":"1"},{"uid":"2585934","lat":"52.2925145","lng":"21.0573949","name":"Kondratowicza - Przy Grodzisku","spot":"1","number":"9635","bikes":"15","bike_racks":"18","free_racks":"3","terminal_type":"7inch","bike_numbers":"28737,28402,28278,28264,27717,27575,27341,27206,26943,26430,26368,25815,25590,25567,28990","bike_types":{"4":15},"place_type":"0","rack_locks":"1"},{"uid":"2585936","lat":"52.2878069","lng":"21.0213829","name":"Wysockiego - Poborza\u0144ska","spot":"1","number":"9636","bikes":"26","bike_racks":"23","free_racks":"0","terminal_type":"7inch","bike_numbers":"24692,24676,24600,28758,28095,28064,28016,27978,27574,27455,27300,27127,27122,26879,26758,26305,25928,25738,25601,25551,29112,29044,29043,29132,28987,29281","bike_types":{"4":25,"0":1},"place_type":"0","rack_locks":"1"},{"uid":"2585937","lat":"52.2885915","lng":"21.0310087","name":"Rembieli\u0144ska - Wyszogrodzka","spot":"1","number":"9637","bikes":"17","bike_racks":"30","free_racks":"9","terminal_type":"7inch","bike_numbers":"24977,24552,28461,28072,27929,27835,27814,27576,27498,27342,26122,25553,29108,96536,96396,29280,29253","bike_types":{"4":17},"place_type":"0","rack_locks":"1"},{"uid":"2585938","lat":"52.2864841","lng":"21.0401998","name":"Chodecka - \u017buromi\u0144ska","spot":"1","number":"9638","bikes":"12","bike_racks":"15","free_racks":"1","terminal_type":"7inch","bike_numbers":"24606,28075,27800,27530,27290,26854,26485,26275,29019,29003,96539,96430","bike_types":{"4":12},"place_type":"0","rack_locks":"1"},{"uid":"2585939","lat":"52.281231017533","lng":"21.025852560997","name":"Wysockiego - Matki Teresy z Kalkuty","spot":"1","number":"9639","bikes":"12","bike_racks":"17","free_racks":"6","terminal_type":"7inch","bike_numbers":"24787,24761,28529,28352,27805,27511,26940,26567,26173,25997,24498,96294","bike_types":{"4":11,"51":1},"place_type":"0","rack_locks":"1"},{"uid":"2585941","lat":"52.2835693","lng":"21.0720858","name":"Blokowa - DK Zacisze","spot":"1","number":"9640","bikes":"10","bike_racks":"18","free_racks":"8","terminal_type":"7inch","bike_numbers":"24516,28543,27862,27443,27024,26973,26956,26484,25269,96132","bike_types":{"4":10},"place_type":"0","rack_locks":"1"},{"uid":"2585942","lat":"52.276259","lng":"21.0530748","name":"P\u0119tla Targ\u00f3wek","spot":"1","number":"9641","bikes":"15","bike_racks":"22","free_racks":"9","terminal_type":"7inch","bike_numbers":"24632,28801,28716,28474,28425,28267,28000,27709,27493,26616,26352,26181,25968,25404,29107","bike_types":{"4":15},"place_type":"0","rack_locks":"1"},{"uid":"2585943","lat":"52.27139","lng":"21.01566","name":"Jagiello\u0144ska - ALK","spot":"1","number":"9642","bikes":"11","bike_racks":"16","free_racks":"5","terminal_type":"7inch","bike_numbers":"24523,28584,28569,28218,28118,27018,26143,25700,25333,96516,29180","bike_types":{"4":11},"place_type":"0","rack_locks":"1"},{"uid":"2585947","lat":"52.2694683","lng":"21.0499817","name":"Ossowskiego","spot":"1","number":"9644","bikes":"12","bike_racks":"17","free_racks":"6","terminal_type":"7inch","bike_numbers":"24845,24695,27956,27367,26801,26530,26152,25096,29030,96302,96203,96578","bike_types":{"4":12},"place_type":"0","rack_locks":"1"},{"uid":"2585951","lat":"52.272602123161","lng":"21.063210368156","name":"Radzymi\u0144ska -Trocka","spot":"1","number":"9645","bikes":"15","bike_racks":"20","free_racks":"4","terminal_type":"7inch","bike_numbers":"24030,28321,28138,27556,27187,26936,26237,26032,25513,25507,29434,29120,96453,96329,29274","bike_types":{"26":1,"4":13,"0":1},"place_type":"0","rack_locks":"1"},{"uid":"2585953","lat":"52.27347","lng":"21.07698","name":"Bukowiecka - Zamkowa","spot":"1","number":"9646","bikes":"6","bike_racks":"15","free_racks":"8","terminal_type":"7inch","bike_numbers":"24487,28585,26808,25985,25527,25154","bike_types":{"51":1,"4":5},"place_type":"0","rack_locks":"1"},{"uid":"2585954","lat":"52.2668885","lng":"21.0585675","name":"Radzymi\u0144ska - Piotra Skargi","spot":"1","number":"9647","bikes":"13","bike_racks":"20","free_racks":"7","terminal_type":"7inch","bike_numbers":"24842,24490,24483,28886,28318,28116,27962,27550,27284,27119,26853,26649,26139","bike_types":{"4":11,"51":2},"place_type":"0","rack_locks":"1"},{"uid":"2585955","lat":"52.2614369","lng":"21.0155744","name":"Wybrze\u017ce Helskie - ZOO","spot":"1","number":"9648","bikes":"11","bike_racks":"22","free_racks":"11","terminal_type":"7inch","bike_numbers":"24855,24729,28731,28297,27590,26862,26767,25351,28952,29136,96291","bike_types":{"4":10,"0":1},"place_type":"0","rack_locks":"1"},{"uid":"2585956","lat":"52.2632492","lng":"21.0212231","name":"Rondo Starzy\u0144skiego","spot":"1","number":"9649","bikes":"20","bike_racks":"24","free_racks":"4","terminal_type":"7inch","bike_numbers":"24856,24769,28558,28305,28145,27470,27381,27333,27033,27015,26660,26588,26480,26469,26420,25825,25238,29087,96029,96298","bike_types":{"4":20},"place_type":"0","rack_locks":"1"},{"uid":"2585958","lat":"52.26421","lng":"21.02618","name":"Darwina - Nusbauma-Hilarowicza","spot":"1","number":"9650","bikes":"13","bike_racks":"21","free_racks":"8","terminal_type":"7inch","bike_numbers":"24938,26816,26777,26751,26706,26584,26500,25471,25466,25402,25362,25099,96564","bike_types":{"4":13},"place_type":"0","rack_locks":"1"},{"uid":"2585960","lat":"52.26554","lng":"21.03122","name":"Namys\u0142owska - Darwina","spot":"1","number":"9651","bikes":"4","bike_racks":"15","free_racks":"11","terminal_type":"7inch","bike_numbers":"28423,26958,26151,26055","bike_types":{"4":4},"place_type":"0","rack_locks":"1"},{"uid":"2585961","lat":"52.2690405","lng":"21.0379493","name":"Rondo \u017baba","spot":"1","number":"9652","bikes":"11","bike_racks":"22","free_racks":"11","terminal_type":"7inch","bike_numbers":"28729,28531,28302,27520,27462,26440,25368,28836,29276,29238,96583","bike_types":{"4":11},"place_type":"0","rack_locks":"1"},{"uid":"2585963","lat":"52.2591682","lng":"21.0262224","name":"Jagiello\u0144ska - Plac Hallera","spot":"1","number":"9653","bikes":"13","bike_racks":"20","free_racks":"7","terminal_type":"7inch","bike_numbers":"24901,24681,28026,27833,27363,27330,27050,25674,29031,28954,29365,96401,29282","bike_types":{"4":13},"place_type":"0","rack_locks":"1"},{"uid":"2585964","lat":"52.2613811","lng":"21.0305437","name":"Plac Hallera - Sawinkowa","spot":"1","number":"9654","bikes":"8","bike_racks":"28","free_racks":"18","terminal_type":"7inch","bike_numbers":"24505,28647,28370,26478,26327,29343,29258,24048","bike_types":{"4":8,"26":1},"place_type":"0","rack_locks":"1"},{"uid":"2585967","lat":"52.263","lng":"21.03418","name":"Namys\u0142owska - Szymanowskiego","spot":"1","number":"9655","bikes":"12","bike_racks":"16","free_racks":"7","terminal_type":"7inch","bike_numbers":"24871,28432,28028,28024,27331,26771,26617,26302,26061,25370,25352,29146","bike_types":{"4":11,"0":1},"place_type":"0","rack_locks":"1"},{"uid":"2585968","lat":"52.2538188","lng":"21.0231542","name":"Ratuszowa - ZOO","spot":"1","number":"9656","bikes":"22","bike_racks":"23","free_racks":"0","terminal_type":"7inch","bike_numbers":"28556,28552,28358,28270,28085,27983,27723,27523,27267,26981,26927,26694,26686,26505,26375,26110,25727,25357,25169,25120,28969,29247","bike_types":{"4":22},"place_type":"0","rack_locks":"1"},{"uid":"2585971","lat":"52.256355","lng":"21.029538","name":"Jagiello\u0144ska - Ratuszowa","spot":"1","number":"9657","bikes":"13","bike_racks":"16","free_racks":"1","terminal_type":"7inch","bike_numbers":"24570,25009,28462,28262,27763,27678,27584,26765,25485,25311,25197,28861,29260","bike_types":{"4":13},"place_type":"0","rack_locks":"1"},{"uid":"2585972","lat":"52.261449","lng":"21.037614","name":"11 Listopada - Ratuszowa","spot":"1","number":"9658","bikes":"13","bike_racks":"30","free_racks":"17","terminal_type":"7inch","bike_numbers":"24558,28553,28329,27753,26949,26556,26043,25810,25652,25596,25150,29374,96584","bike_types":{"4":13},"place_type":"0","rack_locks":"1"},{"uid":"2585974","lat":"52.263109","lng":"21.0381895","name":"11 listopada - \u015arodkowa","spot":"1","number":"9659","bikes":"9","bike_racks":"18","free_racks":"9","terminal_type":"7inch","bike_numbers":"28114,28087,28009,27920,27840,26005,25371,29097,29264","bike_types":{"4":9,"16":1},"place_type":"0","rack_locks":"1"},{"uid":"2585975","lat":"52.25839","lng":"21.03537","name":"Stalowa - 11 Listopada","spot":"1","number":"9660","bikes":"21","bike_racks":"24","free_racks":"2","terminal_type":"7inch","bike_numbers":"24644,28427,28271,27936,27892,27601,27560,27175,27049,26590,26342,26242,26206,28871,96213,96146,29194,29208,29278,29249,29234","bike_types":{"4":21},"place_type":"0","rack_locks":"1"},{"uid":"2585978","lat":"52.234791","lng":"21.07905","name":"al. Stan\u00f3w Zjednoczonych - Ostrobramska","spot":"1","number":"9661","bikes":"5","bike_racks":"20","free_racks":"13","terminal_type":"7inch","bike_numbers":"28741,28471,27828,26355,29082","bike_types":{"4":5},"place_type":"0","rack_locks":"1"},{"uid":"2585981","lat":"52.2524758","lng":"21.0303479","name":"Floria\u0144ska - Park Praski","spot":"1","number":"9662","bikes":"16","bike_racks":"23","free_racks":"7","terminal_type":"7inch","bike_numbers":"25008,27856,27651,27533,27482,26601,25952,25747,25430,25363,28956,29122,28812,28844,96239,96161","bike_types":{"4":15,"0":1},"place_type":"0","rack_locks":"1"},{"uid":"2585982","lat":"52.2549757","lng":"21.0339005","name":"Plac Wile\u0144ski","spot":"1","number":"9663","bikes":"34","bike_racks":"30","free_racks":"0","terminal_type":"7inch","bike_numbers":"24998,24514,28511,28488,28447,28362,28012,27630,27503,27338,27337,26897,26738,26682,26463,26360,26354,26331,26315,26220,25780,25050,29090,29012,29461,28964,28962,96501,96395,96286,96264,29183,29219,24053","bike_types":{"4":34,"26":1},"place_type":"0","rack_locks":"1"},{"uid":"2585983","lat":"52.2579576","lng":"21.0399804","name":"Wile\u0144ska - Rzeszotarskiej","spot":"1","number":"9664","bikes":"17","bike_racks":"16","free_racks":"0","terminal_type":"7inch","bike_numbers":"24636,28127,27667,27109,26987,26840,26789,26654,26472,26295,26229,26016,25942,25570,25095,25053,96587","bike_types":{"4":17},"place_type":"0","rack_locks":"1"},{"uid":"2585984","lat":"52.2475848","lng":"20.9568001","name":"al. Prymasa Tysi\u0105clecia - Obozowa","spot":"1","number":"9665","bikes":"3","bike_racks":"13","free_racks":"4","terminal_type":"7inch","bike_numbers":"27948,26401,26064","bike_types":{"4":7},"place_type":"0","rack_locks":"1"},{"uid":"2585985","lat":"52.248607","lng":"21.029647","name":"Okrzei - Panie\u0144ska","spot":"1","number":"9666","bikes":"15","bike_racks":"16","free_racks":"2","terminal_type":"7inch","bike_numbers":"24968,24481,28498,28435,27180,26634,26627,26540,25835,25565,25089,29023,28991,96274,24055","bike_types":{"4":12,"51":1,"26":1},"place_type":"0","rack_locks":"1"},{"uid":"2585987","lat":"52.2506334","lng":"21.0311174","name":"Sierakowskiego - K\u0142opotowskiego","spot":"1","number":"9667","bikes":"15","bike_racks":"25","free_racks":"12","terminal_type":"7inch","bike_numbers":"24701,28313,28301,27977,27690,27629,26529,26392,25918,25881,25787,25661,25470,25130,24049","bike_types":{"4":14,"26":1},"place_type":"0","rack_locks":"1"},{"uid":"2585990","lat":"52.2520876","lng":"21.0381368","name":"Targowa - Z\u0105bkowska","spot":"1","number":"9668","bikes":"15","bike_racks":"18","free_racks":"3","terminal_type":"7inch","bike_numbers":"24725,28299,27253,26953,26848,26572,26536,26486,26456,25926,25813,25431,25337,29368,96292","bike_types":{"4":15},"place_type":"0","rack_locks":"1"},{"uid":"2585992","lat":"52.2544855","lng":"21.0433458","name":"Fabryka W\u00f3dek Koneser","spot":"1","number":"9669","bikes":"17","bike_racks":"25","free_racks":"6","terminal_type":"7inch","bike_numbers":"24964,24947,24881,24551,28627,28295,28084,27712,27298,27261,27014,26907,25709,29004,96052,96322,29283","bike_types":{"4":17},"place_type":"0","rack_locks":"1"},{"uid":"2585994","lat":"52.2559027","lng":"21.0495613","name":"Radzymi\u0144ska - Wiosenna","spot":"1","number":"9670","bikes":"21","bike_racks":"26","free_racks":"6","terminal_type":"7inch","bike_numbers":"24738,24657,28522,28348,27703,27372,27212,26823,26719,25888,25876,25473,25284,25100,29116,29115,28799,96011,96561,96397,29269","bike_types":{"4":21},"place_type":"0","rack_locks":"1"},{"uid":"2585995","lat":"52.25965","lng":"21.0529","name":"Radzymi\u0144ska - \u0141om\u017cy\u0144ska","spot":"1","number":"9671","bikes":"19","bike_racks":"24","free_racks":"8","terminal_type":"7inch","bike_numbers":"28567,28353,28280,28003,27303,27194,27190,26985,26672,26426,26013,25666,25593,25122,25121,29056,28858,29261,24046","bike_types":{"4":18,"26":1},"place_type":"0","rack_locks":"1"},{"uid":"2585996","lat":"52.2583512","lng":"21.0585337","name":"P\u0119tla Kaw\u0119czy\u0144ska-Bazylika","spot":"1","number":"9672","bikes":"16","bike_racks":"26","free_racks":"10","terminal_type":"7inch","bike_numbers":"24507,27725,27301,26966,26944,26455,26276,26037,25811,25751,25182,25142,96051,96510,96078,24051","bike_types":{"4":15,"26":1},"place_type":"0","rack_locks":"1"},{"uid":"2585997","lat":"52.249864871462","lng":"21.042911410332","name":"Targowa - Kijowska","spot":"1","number":"9673","bikes":"16","bike_racks":"18","free_racks":"2","terminal_type":"7inch","bike_numbers":"24647,24642,24585,24486,28724,28158,27419,27385,27029,26336,26142,25321,25125,29357,28996,29215","bike_types":{"4":15,"51":1},"place_type":"0","rack_locks":"1"},{"uid":"2586000","lat":"52.252745","lng":"21.0510331","name":"Dworzec Wschodni - Kijowska","spot":"1","number":"9674","bikes":"17","bike_racks":"27","free_racks":"7","terminal_type":"7inch","bike_numbers":"24712,24575,28011,27551,27428,27316,27215,26528,26259,25836,25803,25739,25642,25423,29352,29433,29271","bike_types":{"4":17},"place_type":"0","rack_locks":"1"},{"uid":"2586001","lat":"52.247314","lng":"21.042731","name":"Metro Stadion Narodowy","spot":"1","number":"9675","bikes":"17","bike_racks":"15","free_racks":"0","terminal_type":"7inch","bike_numbers":"24830,27611,27291,27045,26998,26764,26265,26214,25865,25339,25290,25043,28853,96055,96464,96165,96154","bike_types":{"4":17},"place_type":"0","rack_locks":"1"},{"uid":"2586003","lat":"52.2472308","lng":"21.0476456","name":"al. Zieleniecka - Teatr Powszechny","spot":"1","number":"9676","bikes":"5","bike_racks":"14","free_racks":"9","terminal_type":"7inch","bike_numbers":"24822,28061,27169,25255,25631","bike_types":{"4":5},"place_type":"0","rack_locks":"1"},{"uid":"2586005","lat":"52.247346","lng":"21.055947","name":"Grochowska - Mi\u0144ska","spot":"1","number":"9677","bikes":"20","bike_racks":"22","free_racks":"2","terminal_type":"7inch","bike_numbers":"24909,24793,24688,24687,28515,28294,28274,28130,27817,27433,27388,27054,26785,26542,25653,25325,25217,96018,96163,29201","bike_types":{"4":20},"place_type":"0","rack_locks":"1"},{"uid":"2586009","lat":"52.2464","lng":"21.06868","name":"Praga-Po\u0142udnie-Ratusz","spot":"1","number":"9678","bikes":"14","bike_racks":"15","free_racks":"2","terminal_type":"7inch","bike_numbers":"24952,24467,28611,28134,27886,27691,26972,26263,26138,26029,25846,25270,25198,96122","bike_types":{"4":13,"51":1},"place_type":"0","rack_locks":"1"},{"uid":"2586011","lat":"52.2501129","lng":"21.0772011","name":"Dwernickiego - Siennicka","spot":"1","number":"9679","bikes":"18","bike_racks":"25","free_racks":"6","terminal_type":"7inch","bike_numbers":"24617,24456,28597,28509,28272,27730,27101,27031,26677,26629,25996,25957,25941,25716,25453,28910,96509,96346","bike_types":{"4":17,"51":1},"place_type":"0","rack_locks":"1"},{"uid":"2586012","lat":"52.260428882956","lng":"21.041538119316","name":"Stalowa - Czynszowa","spot":"1","number":"9680","bikes":"13","bike_racks":"15","free_racks":"8","terminal_type":"7inch","bike_numbers":"28745,28439,28045,27865,27622,26921,26157,26147,25910,25756,25530,96433,29155","bike_types":{"4":13},"place_type":"0","rack_locks":"1"},{"uid":"2586014","lat":"52.2372419","lng":"21.0437644","name":"Wybrze\u017ce Szczeci\u0144skie - Stadion Narodowy","spot":"1","number":"9681","bikes":"32","bike_racks":"23","free_racks":"4","terminal_type":"7inch","bike_numbers":"24958,24848,24589,24024,28887,28705,28632,28452,28342,28136,28077,27971,27716,27696,27684,27466,27387,27178,26691,26635,26457,25853,25529,25332,25294,25195,29005,28823,96550,96500,96424,96277","bike_types":{"4":31,"26":1},"place_type":"0","rack_locks":"1"},{"uid":"2586018","lat":"52.2387103","lng":"21.0507515","name":"Rondo Waszyngtona - Stadion Narodowy","spot":"1","number":"9682","bikes":"14","bike_racks":"27","free_racks":"13","terminal_type":"7inch","bike_numbers":"24770,24607,28438,27755,27235,26942,26570,26323,25784,25779,25374,29041,28834,96151","bike_types":{"4":13},"place_type":"0","rack_locks":"1"},{"uid":"2586019","lat":"52.242281006874","lng":"21.071160435677","name":"Waszyngtona - Kinowa","spot":"1","number":"9683","bikes":"16","bike_racks":"15","free_racks":"2","terminal_type":"7inch","bike_numbers":"24969,24847,28727,27659,27256,27096,26473,26293,26132,25360,25223,25127,25958,28837,96341,29272","bike_types":{"4":17},"place_type":"0","rack_locks":"1"},{"uid":"2586021","lat":"52.2445639","lng":"21.0838057","name":"Rondo Wiatraczna","spot":"1","number":"9684","bikes":"21","bike_racks":"30","free_racks":"11","terminal_type":"7inch","bike_numbers":"24820,24457,28761,28577,28516,28128,27875,27874,27652,27554,27476,27210,26359,26063,25916,25548,25158,25049,96210,96155,29152","bike_types":{"4":20,"51":1},"place_type":"0","rack_locks":"1"},{"uid":"2586022","lat":"52.2347451","lng":"21.053651","name":"Francuska - Walecznych","spot":"1","number":"9685","bikes":"12","bike_racks":"15","free_racks":"3","terminal_type":"7inch","bike_numbers":"28765,28573,27998,27350,27173,27110,26795,26047,25209,28934,29124,96278","bike_types":{"4":11,"0":1},"place_type":"0","rack_locks":"1"},{"uid":"2586024","lat":"52.236598","lng":"21.064774","name":"Mi\u0119dzynarodowa - Walecznych","spot":"1","number":"9686","bikes":"20","bike_racks":"15","free_racks":"5","terminal_type":"7inch","bike_numbers":"28672,28479,27727,27608,27135,27030,26880,26744,25899,25397,25379,25056,29077,29051,29459,28809,96548,96391,96330,29182","bike_types":{"4":20},"place_type":"0","rack_locks":"1"},{"uid":"2586026","lat":"52.243020071904","lng":"21.102375984192","name":"Plac Szembeka","spot":"1","number":"9687","bikes":"14","bike_racks":"15","free_racks":"4","terminal_type":"7inch","bike_numbers":"24779,28614,27686,27542,27403,27172,26929,26582,26415,26406,26383,26301,26283,25608","bike_types":{"4":14},"place_type":"0","rack_locks":"1"},{"uid":"2586028","lat":"52.237559","lng":"21.120087","name":"P\u0119tla Goc\u0142awek","spot":"1","number":"9688","bikes":"8","bike_racks":"16","free_racks":"5","terminal_type":"7inch","bike_numbers":"24465,28367,27953,27140,25907,25538,25389,28860","bike_types":{"51":1,"4":8},"place_type":"0","rack_locks":"1"},{"uid":"2586030","lat":"52.2258359","lng":"21.0600907","name":"Brukselska - PROM","spot":"1","number":"9689","bikes":"10","bike_racks":"15","free_racks":"8","terminal_type":"7inch","bike_numbers":"24699,28773,27747,26726,26116,25936,25586,29436,96019,96441","bike_types":{"4":10},"place_type":"0","rack_locks":"1"},{"uid":"2586031","lat":"52.260205610017","lng":"21.046854257584","name":"al. Solidarno\u015bci - Szwedzka","spot":"1","number":"9690","bikes":"8","bike_racks":"18","free_racks":"10","terminal_type":"7inch","bike_numbers":"28760,28058,27275,26348,26194,25902,25245,29266","bike_types":{"4":8},"place_type":"0","rack_locks":"1"},{"uid":"2586032","lat":"52.230088","lng":"21.067948","name":"al. Stan\u00f3w Zjednoczonych - Mi\u0119dzynarodowa","spot":"1","number":"9691","bikes":"7","bike_racks":"26","free_racks":"19","terminal_type":"7inch","bike_numbers":"27612,26267,25855,25445,25175,25139,25028","bike_types":{"4":7},"place_type":"0","rack_locks":"1"},{"uid":"2586034","lat":"52.23483","lng":"21.09975","name":"Ostrobramska - Zamieniecka","spot":"1","number":"9692","bikes":"19","bike_racks":"23","free_racks":"5","terminal_type":"7inch","bike_numbers":"24939,24631,28496,28411,28215,27108,26918,26750,26547,25943,25785,25214,25149,25110,25060,28828,96050,29151,29214","bike_types":{"4":19},"place_type":"0","rack_locks":"1"},{"uid":"2586037","lat":"52.2251969","lng":"21.0712892","name":"Afryka\u0144ska - Egipska","spot":"1","number":"9693","bikes":"7","bike_racks":"16","free_racks":"9","terminal_type":"7inch","bike_numbers":"28309,27527,26059,25421,25411,25364,96149","bike_types":{"4":7},"place_type":"0","rack_locks":"1"},{"uid":"2586039","lat":"52.22837","lng":"21.08581","name":"Abrahama - Kapelan\u00f3w AK","spot":"1","number":"9694","bikes":"13","bike_racks":"15","free_racks":"1","terminal_type":"7inch","bike_numbers":"24656,24586,28755,28019,27233,26009,25947,25611,25380,25144,28851,96150,29187","bike_types":{"4":13},"place_type":"0","rack_locks":"1"},{"uid":"2586042","lat":"52.2296088","lng":"21.0945572","name":"Fieldorfa - Bukowskiego","spot":"1","number":"9695","bikes":"9","bike_racks":"20","free_racks":"11","terminal_type":"7inch","bike_numbers":"24800,24610,28017,27193,26597,26400,26241,26031,25816","bike_types":{"4":9},"place_type":"0","rack_locks":"1"},{"uid":"2586044","lat":"52.22974","lng":"21.10624","name":"Rechniewskiego - Nowaka-Jeziora\u0144skiego","spot":"1","number":"9696","bikes":"24","bike_racks":"30","free_racks":"5","terminal_type":"7inch","bike_numbers":"24893,24796,24495,24008,28753,28686,28682,28626,28623,27974,27780,27697,27526,27411,27270,27268,26822,26657,26641,26605,26425,28884,96093,29259","bike_types":{"4":22,"51":1,"26":1},"place_type":"0","rack_locks":"1"},{"uid":"2586045","lat":"52.2223071","lng":"21.0907259","name":"Meissnera - Fieldorfa","spot":"1","number":"9697","bikes":"11","bike_racks":"15","free_racks":"4","terminal_type":"7inch","bike_numbers":"28736,28475,28363,28069,27361,26010,25944,25923,25341,25062,96089","bike_types":{"4":11},"place_type":"0","rack_locks":"1"},{"uid":"2586268","lat":"52.23938046828","lng":"21.016716957092","name":"Krakowskie Przedmie\u015bcie - Traugutta 2","spot":"1","number":"94931","bikes":"17","bike_racks":"24","free_racks":"5","terminal_type":"7inch","bike_numbers":"24755,24732,24611,28673,28220,27240,27063,26939,26397,26105,26020,25655,25504,25416,96529,96260,29202","bike_types":{"4":17},"place_type":"0","rack_locks":"1"},{"uid":"2586270","lat":"52.2417899","lng":"21.0241698","name":"Lipowa - Dobra 2","spot":"1","number":"94961","bikes":"22","bike_racks":"19","free_racks":"0","terminal_type":"7inch","bike_numbers":"24635,24616,28756,28662,28319,28079,27905,27743,27321,27220,27158,26902,26865,26470,26366,26117,25977,25824,25790,96284,96137,96110","bike_types":{"4":22},"place_type":"0","rack_locks":"1"},{"uid":"2586272","lat":"52.219916006513","lng":"21.011733412743","name":"Plac Politechniki 2","spot":"1","number":"95381","bikes":"7","bike_racks":"27","free_racks":"19","terminal_type":"7inch","bike_numbers":"27645,26882,26598,26093,25886,25317,25038","bike_types":{"4":7},"place_type":"0","rack_locks":"1"},{"uid":"2675985","lat":"52.21759","lng":"21.0096855","name":"Kaczy\u0144skiego - Rektorska","spot":"1","number":"9587","bikes":"6","bike_racks":"17","free_racks":"11","terminal_type":"7inch","bike_numbers":"24774,26905,25921,25452,25022,96565","bike_types":{"4":6},"place_type":"0","rack_locks":"1"},{"uid":"2676298","lat":"52.255871","lng":"21.010043","name":"Veturilko - Sanguszki - Wybrze\u017ce Gda\u0144skie","spot":"1","number":"9716","bikes":"7","bike_racks":"14","free_racks":"6","terminal_type":"7inch","bike_numbers":"24372,24351,24395,24299,24294,24292,24282","bike_types":{"35":4,"34":5},"place_type":"11","rack_locks":"1"},{"uid":"2685255","lat":"52.278754","lng":"20.991692","name":"Veturilko - K\u0119pa Potocka","spot":"1","number":"9711","bikes":"9","bike_racks":"14","free_racks":"4","terminal_type":"7inch","bike_numbers":"24377,24354,24280,24277,24269,24253,24398,24392,24301","bike_types":{"35":4,"34":5},"place_type":"11","rack_locks":"1"},