[{"region_info":{"lat":"52.2345","lng":"21.0024","zoom":"11","name":"VETURILO Poland","hotline":"+4819115","domain":"vp","country":"PL","country_name":"Poland","terms":"http:\/\/www.veturilo.waw.pl\/terms\/?v=201701","policy":"","website":"http:\/\/www.veturilo.waw.pl\/","show_free_racks":"1","booked_bikes":"0","set_point_bikes":"5281","available_bikes":"5051"},"places_summary":{"lngMin":20.8689688,"lngMax":21.120087,"latMin":52.117285,"latMax":52.3485329,"lngAvg":21.007811803367,"latAvg":52.230676667704},"places":[{"uid":"2585259","lat":"52.296298","lng":"20.9583575","name":"Dewajtis - UKSW","spot":"1","number":"9402","bikes":"23","bike_racks":"30","free_racks":"7","terminal_type":"7inch","bike_numbers":"24731,24673,24612,28627,28535,28434,28094,26860,26774,26632,26330,25956,25927,25691,25358,25248,25049,29428,28913,96490,96475,96372,29167","bike_types":{"4":23},"place_type":"0","rack_locks":"1"},{"uid":"2585263","lat":"52.2909738","lng":"20.9295559","name":"Metro M\u0142ociny","spot":"1","number":"9403","bikes":"18","bike_racks":"30","free_racks":"12","terminal_type":"7inch","bike_numbers":"24614,26915,26036,25506,96527,96522,96518,96497,96481,96429,96280,96265,96199,96192,96184,96146,96143,96129","bike_types":{"4":18},"place_type":"0","rack_locks":"1"},{"uid":"2585265","lat":"52.2901732","lng":"20.9503698","name":"Marymoncka - Dewajtis","spot":"1","number":"9404","bikes":"19","bike_racks":"30","free_racks":"11","terminal_type":"7inch","bike_numbers":"28442,27989,26558,26546,26250,26217,26020,25407,28858,28831,96536,96523,96515,96502,96483,96451,96257,96196,96142","bike_types":{"4":19},"place_type":"0","rack_locks":"1"},{"uid":"2585267","lat":"52.285914","lng":"20.940561","name":"Metro Wawrzyszew","spot":"1","number":"9405","bikes":"13","bike_racks":"20","free_racks":"8","terminal_type":"7inch","bike_numbers":"24520,28905,27335,26288,26209,26076,25807,25734,25677,25257,25080,25075,28973","bike_types":{"4":13},"place_type":"0","rack_locks":"1"},{"uid":"2585269","lat":"52.2336142","lng":"21.0146353","name":"G\u00f3rskiego - Szpitalna","spot":"1","number":"9406","bikes":"11","bike_racks":"16","free_racks":"5","terminal_type":"7inch","bike_numbers":"24930,24014,27125,27023,26695,25989,25317,25262,25249,29460,29279","bike_types":{"4":10,"26":1},"place_type":"0","rack_locks":"1"},{"uid":"2585271","lat":"52.2816265","lng":"20.9498871","name":"Metro Stare Bielany","spot":"1","number":"9407","bikes":"23","bike_racks":"30","free_racks":"7","terminal_type":"7inch","bike_numbers":"24993,24943,28260,27973,27950,27683,27098,26663,26575,26284,25930,25913,25714,25704,25522,25499,25295,25077,28776,28986,96574,96479,96147","bike_types":{"4":23},"place_type":"0","rack_locks":"1"},{"uid":"2585272","lat":"52.2361217","lng":"21.0219096","name":"Ordynacka - Uniwersytet Muzyczny","spot":"1","number":"9408","bikes":"16","bike_racks":"20","free_racks":"4","terminal_type":"7inch","bike_numbers":"24996,28142,27854,27828,27702,27468,27429,26934,26841,26688,26469,25355,29648,96334,29198,29197","bike_types":{"4":16},"place_type":"0","rack_locks":"1"},{"uid":"2585273","lat":"52.2768774","lng":"20.9481302","name":"Bielany-Ratusz","spot":"1","number":"9409","bikes":"15","bike_racks":"28","free_racks":"14","terminal_type":"7inch","bike_numbers":"26633,26006,25925,25740,25633,96575,96573,96371,96359,96352,96270,96266,96259,96246,96238","bike_types":{"4":15},"place_type":"0","rack_locks":"1"},{"uid":"2585275","lat":"52.2761569","lng":"20.9616673","name":"Metro S\u0142odowiec","spot":"1","number":"9410","bikes":"21","bike_racks":"30","free_racks":"9","terminal_type":"7inch","bike_numbers":"24884,24713,24009,28334,28217,27691,26735,26432,26402,26018,25997,25970,25555,25433,29419,28884,96358,96320,96263,96247,96122","bike_types":{"4":20,"26":1},"place_type":"0","rack_locks":"1"},{"uid":"2585278","lat":"52.2777751","lng":"20.9856999","name":"Potocka - OSiR \u017boliborz","spot":"1","number":"9411","bikes":"12","bike_racks":"15","free_racks":"3","terminal_type":"7inch","bike_numbers":"24966,24921,24868,24616,28155,28146,26965,26680,26462,25596,25461,25353","bike_types":{"4":12},"place_type":"0","rack_locks":"1"},{"uid":"2585280","lat":"52.273527782989","lng":"20.994186401367","name":"Gwia\u017adzista - Promyka","spot":"1","number":"9412","bikes":"8","bike_racks":"16","free_racks":"8","terminal_type":"7inch","bike_numbers":"24818,24596,27861,27584,26668,26371,96032,96311","bike_types":{"4":8},"place_type":"0","rack_locks":"1"},{"uid":"2585281","lat":"52.270941","lng":"20.9326269","name":"al. Reymonta - Conrada","spot":"1","number":"9413","bikes":"26","bike_racks":"30","free_racks":"4","terminal_type":"7inch","bike_numbers":"24934,24931,24855,24846,24661,24574,24557,28822,28029,27997,27881,27726,27581,27376,26692,26286,26101,26090,26081,26017,25776,25474,25260,25197,25115,25072","bike_types":{"4":26},"place_type":"0","rack_locks":"1"},{"uid":"2585283","lat":"52.2706441","lng":"20.9504181","name":"Broniewskiego - Perzy\u0144skiego","spot":"1","number":"9414","bikes":"6","bike_racks":"16","free_racks":"9","terminal_type":"7inch","bike_numbers":"27263,27124,26925,25400,96357,29183","bike_types":{"4":6},"place_type":"0","rack_locks":"1"},{"uid":"2585284","lat":"52.2714203","lng":"20.9727099","name":"Metro Marymont","spot":"1","number":"9415","bikes":"17","bike_racks":"30","free_racks":"13","terminal_type":"7inch","bike_numbers":"24560,28717,28671,28619,28212,28036,27696,27161,26926,26905,26599,26381,26049,25548,25399,25351,25341","bike_types":{"4":17},"place_type":"0","rack_locks":"1"},{"uid":"2585285","lat":"52.2694081","lng":"20.9833664","name":"Metro Plac Wilsona","spot":"1","number":"9416","bikes":"13","bike_racks":"21","free_racks":"7","terminal_type":"7inch","bike_numbers":"24798,24745,24513,28599,28056,27116,26319,25518,25383,25114,29047,29142,96124","bike_types":{"4":12,"0":1},"place_type":"0","rack_locks":"1"},{"uid":"2585286","lat":"52.2668623","lng":"20.9637032","name":"Broniewskiego - W\u0142o\u015bcia\u0144ska","spot":"1","number":"9417","bikes":"16","bike_racks":"19","free_racks":"3","terminal_type":"7inch","bike_numbers":"24967,28141,27996,27871,27802,27786,27446,27328,27164,26770,25695,25674,25599,25520,25457,28918","bike_types":{"4":16},"place_type":"0","rack_locks":"1"},{"uid":"2585288","lat":"52.2643984","lng":"20.9723179","name":"Broniewskiego - Krasi\u0144skiego","spot":"1","number":"9418","bikes":"15","bike_racks":"16","free_racks":"1","maintenance":"1","terminal_type":"7inch","bike_numbers":"24960,24870,24702,28775,28499,28398,28383,26756,26293,26102,26042,26005,25083,29139,96494","bike_types":{"4":14,"0":1},"place_type":"0","rack_locks":"1"},{"uid":"2585289","lat":"52.267875","lng":"21.0020667","name":"Wybrze\u017ce Gdy\u0144skie - KS Sp\u00f3jnia","spot":"1","number":"9419","bikes":"12","bike_racks":"15","free_racks":"3","terminal_type":"7inch","bike_numbers":"24529,25004,28904,28560,28414,27952,27768,27756,26238,25793,28962,96076","bike_types":{"4":12},"place_type":"0","rack_locks":"1"},{"uid":"2585291","lat":"52.2624054","lng":"20.9802551","name":"Plac Grunwaldzki","spot":"1","number":"9420","bikes":"21","bike_racks":"30","free_racks":"9","terminal_type":"7inch","bike_numbers":"24864,24746,24700,24696,24032,28504,28256,28022,27438,27084,26946,26624,26620,26519,25999,25984,25931,25819,25605,25519,96452","bike_types":{"4":20,"26":1},"place_type":"0","rack_locks":"1"},{"uid":"2585296","lat":"52.2612575","lng":"20.9863191","name":"Zaj\u0105czka - Bitwy Pod Rokitn\u0105","spot":"1","number":"9421","bikes":"9","bike_racks":"15","free_racks":"7","terminal_type":"7inch","bike_numbers":"24964,28281,27995,26544,25618,25588,29038,28842,96123","bike_types":{"4":9},"place_type":"0","rack_locks":"1"},{"uid":"2585297","lat":"52.2645018","lng":"20.9895998","name":"Plac Inwalid\u00f3w","spot":"1","number":"9422","bikes":"10","bike_racks":"15","free_racks":"5","terminal_type":"7inch","bike_numbers":"24467,28111,27785,27308,26335,25842,25712,25133,25132,96041","bike_types":{"51":1,"4":9},"place_type":"0","rack_locks":"1"},{"uid":"2585299","lat":"52.258245356688","lng":"20.898613929749","name":"P\u0119tla Stare Bemowo","spot":"1","number":"9423","bikes":"18","bike_racks":"21","free_racks":"3","terminal_type":"7inch","bike_numbers":"24866,24567,28514,27934,27299,27151,27028,26449,26279,26213,25889,25706,25301,25216,25160,25073,28992,96035","bike_types":{"4":18},"place_type":"0","rack_locks":"1"},{"uid":"2585301","lat":"52.260895125763","lng":"20.923923254013","name":"P\u0119tla Nowe Bemowo","spot":"1","number":"9424","bikes":"24","bike_racks":"25","free_racks":"1","terminal_type":"7inch","bike_numbers":"27919,28941,96418,96416,96377,96376,96375,96374,96335,96321,96319,96314,96301,96300,96297,96295,96254,96233,96232,96228,96227,96206,96203,96111","bike_types":{"4":24},"place_type":"0","rack_locks":"1"},{"uid":"2585304","lat":"52.2575903","lng":"20.9323374","name":"Obro\u0144c\u00f3w Tobruku - Pieni\u0105\u017cka","spot":"1","number":"9425","bikes":"9","bike_racks":"12","free_racks":"3","terminal_type":"7inch","bike_numbers":"24728,28392,27072,26261,26032,25293,28960,96305,96273","bike_types":{"4":9},"place_type":"0","rack_locks":"1"},{"uid":"2585305","lat":"52.2593225","lng":"20.9605511","name":"Pow\u0105zkowska - Krasi\u0144skiego","spot":"1","number":"9426","bikes":"20","bike_racks":"23","free_racks":"3","terminal_type":"7inch","bike_numbers":"24844,27887,27657,27617,27459,26919,26536,26367,26216,26098,25783,25589,25306,25019,96521,96487,96240,96212,96161,96151","bike_types":{"4":20},"place_type":"0","rack_locks":"1"},{"uid":"2585306","lat":"52.2563145","lng":"20.9682307","name":"Pow\u0105zkowska - Plac Niemena","spot":"1","number":"9427","bikes":"7","bike_racks":"16","free_racks":"9","terminal_type":"7inch","bike_numbers":"24885,24489,27806,26526,25041,96482,96330","bike_types":{"4":6,"51":1},"place_type":"0","rack_locks":"1"},{"uid":"2585307","lat":"52.258524460024","lng":"20.970931649208","name":"Przasnyska - Rydygiera","spot":"1","number":"9428","bikes":"11","bike_racks":"15","free_racks":"4","terminal_type":"7inch","bike_numbers":"24604,24471,28578,27847,27195,26592,25384,29213,29108,96366,96316","bike_types":{"4":10,"51":1},"place_type":"0","rack_locks":"1"},{"uid":"2585308","lat":"52.253594","lng":"20.9798744","name":"Pow\u0105zkowska - Burakowska","spot":"1","number":"9429","bikes":"18","bike_racks":"20","free_racks":"2","terminal_type":"7inch","bike_numbers":"24834,24646,24526,27911,27239,26938,26816,26110,25771,25183,25025,28852,96545,96530,96492,96485,96294,96140","bike_types":{"4":18},"place_type":"0","rack_locks":"1"},{"uid":"2585311","lat":"52.2576018","lng":"20.9944975","name":"Metro Dworzec Gda\u0144ski","spot":"1","number":"9430","bikes":"17","bike_racks":"30","free_racks":"12","terminal_type":"7inch","bike_numbers":"24894,24628,28708,28362,28012,27910,27414,27290,27165,26998,26765,26168,25857,25825,25638,96382,96264","bike_types":{"4":17},"place_type":"0","rack_locks":"1"},{"uid":"2585315","lat":"52.2465952","lng":"20.9429216","name":"Obozowa - Cio\u0142ka","spot":"1","number":"9432","bikes":"6","bike_racks":"13","free_racks":"7","terminal_type":"7inch","bike_numbers":"27076,26815,29026,96174,96110,96086","bike_types":{"4":6},"place_type":"0","rack_locks":"1"},{"uid":"2585317","lat":"52.227621983552","lng":"20.956758856773","name":"al. Prymasa Tysi\u0105clecia - Kasprzaka","spot":"1","number":"9433","bikes":"14","bike_racks":"23","free_racks":"8","terminal_type":"7inch","bike_numbers":"24978,24023,24019,28712,28428,27938,27707,27534,26360,25826,25742,25323,25320,29109","bike_types":{"4":12,"26":2},"place_type":"0","rack_locks":"1"},{"uid":"2585319","lat":"52.246037","lng":"20.962463","name":"Obozowa - Radziwie","spot":"1","number":"9434","bikes":"6","bike_racks":"13","free_racks":"7","terminal_type":"7inch","bike_numbers":"24548,28296,27604,26206,96478,96115","bike_types":{"4":6},"place_type":"0","rack_locks":"1"},{"uid":"2585321","lat":"52.2514708","lng":"20.9857053","name":"al. Jana Paw\u0142a II - Stawki","spot":"1","number":"9435","bikes":"9","bike_racks":"23","free_racks":"13","terminal_type":"7inch","bike_numbers":"24918,24665,27899,26893,26523,25560,25074,25039,96459","bike_types":{"4":9},"place_type":"0","rack_locks":"1"},{"uid":"2585323","lat":"52.2535305","lng":"20.9924922","name":"Stawki - Dubois","spot":"1","number":"9436","bikes":"11","bike_racks":"13","free_racks":"1","terminal_type":"7inch","bike_numbers":"24826,24044,28755,28576,27673,27317,27158,27046,27008,26184,96436","bike_types":{"4":10,"26":1},"place_type":"0","rack_locks":"1"},{"uid":"2585326","lat":"52.2541702","lng":"20.9980649","name":"Andersa - Muranowska","spot":"1","number":"9437","bikes":"22","bike_racks":"30","free_racks":"7","terminal_type":"7inch","bike_numbers":"24573,28693,28537,28522,28441,28213,28016,26887,26491,26133,26047,25932,25701,25579,25525,25394,25364,25091,29012,96058,96037,96582","bike_types":{"4":22},"place_type":"0","rack_locks":"1"},{"uid":"2585327","lat":"52.255877","lng":"21.0099819","name":"Sanguszki - Wybrze\u017ce Gda\u0144skie","spot":"1","number":"9438","bikes":"25","bike_racks":"28","free_racks":"3","terminal_type":"7inch","bike_numbers":"24804,24663,28542,28494,28268,28093,28087,28078,27965,27924,27480,27398,27234,27097,27083,26771,26762,26378,25256,25238,25223,25186,25043,28855,28917","bike_types":{"4":25},"place_type":"0","rack_locks":"1"},{"uid":"2585328","lat":"52.252175","lng":"20.923692","name":"Wroc\u0142awska \u2013 Bailly","spot":"1","number":"9439","bikes":"21","bike_racks":"27","free_racks":"6","terminal_type":"7inch","bike_numbers":"96007,96519,96488,96384,96351,96343,96332,96290,96285,96256,96245,96242,96237,96217,96216,96200,96194,96188,96168,96153,96125","bike_types":{"4":21},"place_type":"0","rack_locks":"1"},{"uid":"2585330","lat":"52.24418","lng":"20.97794","name":"Okopowa - Anielewicza","spot":"1","number":"9440","bikes":"15","bike_racks":"20","free_racks":"5","terminal_type":"7inch","bike_numbers":"27633,27254,26962,26800,26674,26553,26368,26154,26028,25972,25804,25324,96558,96544,96415","bike_types":{"4":15},"place_type":"0","rack_locks":"1"},{"uid":"2585333","lat":"52.2486","lng":"20.98352","name":"Smocza - Mi\u0142a","spot":"1","number":"9441","bikes":"7","bike_racks":"15","free_racks":"8","terminal_type":"7inch","bike_numbers":"24835,24664,28624,27218,27004,96571,29165","bike_types":{"4":7},"place_type":"0","rack_locks":"1"},{"uid":"2585334","lat":"52.24616","lng":"20.98538","name":"Smocza - Anielewicza","spot":"1","number":"9442","bikes":"6","bike_racks":"17","free_racks":"11","terminal_type":"7inch","bike_numbers":"24862,24636,28333,27867,27093,26747","bike_types":{"4":6},"place_type":"0","rack_locks":"1"},{"uid":"2585335","lat":"52.247226","lng":"20.9893155","name":"al. Jana Paw\u0142a II - Anielewicza","spot":"1","number":"9443","bikes":"19","bike_racks":"22","free_racks":"3","terminal_type":"7inch","bike_numbers":"28821,28801,28724,28673,28664,28046,27769,27735,27422,27250,26837,26836,26471,26439,25973,25218,25052,96104,29272","bike_types":{"4":19},"place_type":"0","rack_locks":"1"},{"uid":"2585337","lat":"52.249052","lng":"20.9948923","name":"Anielewicza - Zamenhofa","spot":"1","number":"9444","bikes":"13","bike_racks":"15","free_racks":"2","terminal_type":"7inch","bike_numbers":"24851,24750,28085,27664,27186,26442,26012,26007,25786,25102,96029,96543,96324","bike_types":{"4":13},"place_type":"0","rack_locks":"1"},{"uid":"2585338","lat":"52.2492196","lng":"20.9971878","name":"Anielewicza - Andersa","spot":"1","number":"9445","bikes":"12","bike_racks":"18","free_racks":"6","terminal_type":"7inch","bike_numbers":"24595,28119,28035,27837,27309,26787,26786,26231,29073,29011,29121,96474","bike_types":{"4":11,"0":1},"place_type":"0","rack_locks":"1"},{"uid":"2585340","lat":"52.251549","lng":"21.002749","name":"Bonifraterska - Franciszka\u0144ska","spot":"1","number":"9446","bikes":"10","bike_racks":"16","free_racks":"3","terminal_type":"7inch","bike_numbers":"24976,24948,27844,27841,26830,26172,25795,25308,25089,29644","bike_types":{"4":10},"place_type":"0","rack_locks":"1"},{"uid":"2585342","lat":"52.2541119","lng":"21.0093342","name":"Ko\u015bcielna - Piesza","spot":"1","number":"9448","bikes":"25","bike_racks":"26","free_racks":"1","terminal_type":"7inch","bike_numbers":"24723,24623,24010,28638,28548,28488,28424,27994,27993,27949,27491,27399,27293,27135,27090,27066,26746,26684,26257,26256,26252,26147,25573,25333,96591","bike_types":{"4":24,"26":1},"place_type":"0","rack_locks":"1"},{"uid":"2585344","lat":"52.2392622","lng":"20.8987641","name":"P\u0119tla Os. G\u00f3rczewska","spot":"1","number":"9449","bikes":"12","bike_racks":"15","free_racks":"3","terminal_type":"7inch","bike_numbers":"27070,26602,25801,96031,96516,96512,96477,96422,96411,96253,96164,96094","bike_types":{"4":12},"place_type":"0","rack_locks":"1"},{"uid":"2585345","lat":"52.2389287","lng":"20.9139535","name":"Bemowo-Ratusz","spot":"1","number":"9450","bikes":"16","bike_racks":"20","free_racks":"4","terminal_type":"7inch","bike_numbers":"24975,24774,24602,28710,26955,26508,26185,25512,25480,25451,25097,28778,96044,96126,96116,96089","bike_types":{"4":16},"place_type":"0","rack_locks":"1"},{"uid":"2585346","lat":"52.2387861","lng":"20.9424946","name":"Okocimska - Olbrachta","spot":"1","number":"9451","bikes":"15","bike_racks":"18","free_racks":"3","terminal_type":"7inch","bike_numbers":"24822,28721,27095,26705,26671,96003,96440,96423,96337,96310,96304,96296,96221,96132,96131","bike_types":{"4":15},"place_type":"0","rack_locks":"1"},{"uid":"2585349","lat":"52.2506241","lng":"21.0533611","name":"Dworzec Wschodni - Lubelska","spot":"1","number":"9452","bikes":"12","bike_racks":"15","free_racks":"3","terminal_type":"7inch","bike_numbers":"28694,28439,28027,27652,27536,27499,27425,27172,26615,26194,25431,25429","bike_types":{"4":12},"place_type":"0","rack_locks":"1"},{"uid":"2585351","lat":"52.2369249","lng":"20.9723559","name":"Leszno - M\u0142ynarska","spot":"1","number":"9453","bikes":"7","bike_racks":"30","free_racks":"22","terminal_type":"7inch","bike_numbers":"24891,24456,27146,27063,26701,26136,25395","bike_types":{"4":6,"51":1},"place_type":"0","rack_locks":"1"},{"uid":"2585352","lat":"52.2430451","lng":"20.9803864","name":"Dzielna - Bellottiego","spot":"1","number":"9454","bikes":"6","bike_racks":"13","free_racks":"7","terminal_type":"7inch","bike_numbers":"28773,28453,26744,26542,25547,96419","bike_types":{"4":6},"place_type":"0","rack_locks":"1"},{"uid":"2585353","lat":"52.24108","lng":"20.98316","name":"Wolno\u015b\u0107 - Bellottiego","spot":"1","number":"9455","bikes":"9","bike_racks":"16","free_racks":"7","terminal_type":"7inch","bike_numbers":"24642,24551,28569,27720,27026,26658,26292,29654,96127","bike_types":{"4":9},"place_type":"0","rack_locks":"1"},{"uid":"2585354","lat":"52.2435448","lng":"20.9873507","name":"Smocza - Nowolipki","spot":"1","number":"9456","bikes":"8","bike_racks":"16","free_racks":"8","terminal_type":"7inch","bike_numbers":"24656,24528,27421,26322,26062,29014,29134,96121","bike_types":{"4":8},"place_type":"0","rack_locks":"1"},{"uid":"2585356","lat":"52.2445767","lng":"20.99177","name":"al. Jana Paw\u0142a II - Nowolipki","spot":"1","number":"9457","bikes":"10","bike_racks":"16","free_racks":"6","terminal_type":"7inch","bike_numbers":"24974,28278,28191,27170,26610,26473,26159,25968,25032,96087","bike_types":{"4":10},"place_type":"0","rack_locks":"1"},{"uid":"2585358","lat":"52.22868","lng":"20.91509","name":"Powsta\u0144c\u00f3w \u015al\u0105skich - Cz\u0142uchowska","spot":"1","number":"9458","bikes":"14","bike_racks":"16","free_racks":"3","terminal_type":"7inch","bike_numbers":"27963,27912,27900,27894,27888,27738,26564,26248,25788,25682,25446,25184,29119,96099","bike_types":{"4":14},"place_type":"0","rack_locks":"1"},{"uid":"2585360","lat":"52.2342032","lng":"20.934689","name":"Jana Olbrachta - Antka Rozpylacza","spot":"1","number":"9459","bikes":"10","bike_racks":"13","free_racks":"3","terminal_type":"7inch","bike_numbers":"27224,26724,25720,29451,96051,96550,96444,96425,96112,96077","bike_types":{"4":10},"place_type":"0","rack_locks":"1"},{"uid":"2585364","lat":"52.2401623","lng":"20.9877277","name":"Wola-Ratusz","spot":"1","number":"9460","bikes":"13","bike_racks":"15","free_racks":"2","terminal_type":"7inch","bike_numbers":"28554,28305,28049,27921,27836,27701,26875,26192,25755,25732,25527,25203,29022","bike_types":{"4":13},"place_type":"0","rack_locks":"1"},{"uid":"2585368","lat":"52.2445326","lng":"20.99998","name":"Plac Bankowy - Kino Muran\u00f3w","spot":"1","number":"9462","bikes":"9","bike_racks":"17","free_racks":"8","terminal_type":"7inch","bike_numbers":"24015,28702,28338,27795,27431,27035,26162,25603,28909","bike_types":{"26":1,"4":8},"place_type":"0","rack_locks":"1"},{"uid":"2585369","lat":"52.2449465","lng":"21.0012943","name":"Andersa - D\u0142uga","spot":"1","number":"9463","bikes":"15","bike_racks":"30","free_racks":"16","terminal_type":"7inch","bike_numbers":"24813,24473,24028,28728,28422,27932,26842,26379,26372,26246,26211,26135,25624,96030,96165","bike_types":{"4":13,"51":1,"26":1},"place_type":"0","rack_locks":"1"},{"uid":"2585370","lat":"52.2442666","lng":"21.0015893","name":"Marsza\u0142kowska - al. Solidarno\u015bci","spot":"1","number":"9464","bikes":"18","bike_racks":"30","free_racks":"12","terminal_type":"7inch","bike_numbers":"24522,24022,24012,28747,28417,28410,27901,27586,27540,27506,27306,26793,26465,25896,25655,25410,29652,96166","bike_types":{"4":16,"26":2},"place_type":"0","rack_locks":"1"},{"uid":"2585371","lat":"52.2431975","lng":"21.0016603","name":"Plac Bankowy - Ratusz","spot":"1","number":"9465","bikes":"29","bike_racks":"30","free_racks":"3","terminal_type":"7inch","bike_numbers":"24850,24730,24591,28543,28136,27939,27926,27820,27729,27559,27381,27370,26759,26583,26224,26079,26077,26014,25963,25570,25401,25385,25283,25212,25020,96059,96450,96410,96363","bike_types":{"4":29},"place_type":"0","rack_locks":"1"},{"uid":"2585373","lat":"52.2435719","lng":"21.0066801","name":"Senatorska - Biela\u0144ska","spot":"1","number":"9466","bikes":"16","bike_racks":"17","free_racks":"1","terminal_type":"7inch","bike_numbers":"24971,24668,24001,27772,27710,27219,26002,25934,25933,25438,25105,25064,29345,29104,29051,29007","bike_types":{"4":15,"26":1},"place_type":"0","rack_locks":"1"},{"uid":"2585377","lat":"52.246314509834","lng":"21.0113042593","name":"Miodowa","spot":"1","number":"9467","bikes":"20","bike_racks":"24","free_racks":"4","terminal_type":"7inch","bike_numbers":"24972,24856,24809,24036,28134,27610,27107,26296,25824,25606,25516,25113,29342,29339,29080,29063,29036,29023,29656,96048","bike_types":{"4":19,"54":1},"place_type":"0","rack_locks":"1"},{"uid":"2585378","lat":"52.2435965","lng":"21.0140803","name":"Krakowskie Przedmie\u015bcie - Tr\u0119backa","spot":"1","number":"9468","bikes":"15","bike_racks":"14","free_racks":"0","terminal_type":"7inch","bike_numbers":"28628,28616,27824,27592,27045,26361,26339,26277,25920,25916,25739,25297,29646,96528,96333","bike_types":{"4":15},"place_type":"0","rack_locks":"1"},{"uid":"2585379","lat":"52.2465625","lng":"21.0174345","name":"Mariensztat","spot":"1","number":"9469","bikes":"14","bike_racks":"15","free_racks":"1","terminal_type":"7inch","bike_numbers":"24734,28681,28646,27803,27544,27129,26918,26008,25862,25724,25110,29344,29091,29163","bike_types":{"4":14},"place_type":"0","rack_locks":"1"},{"uid":"2585381","lat":"52.224934","lng":"20.945489","name":"Jana Kazimierza - Giz\u00f3w","spot":"1","number":"9471","bikes":"10","bike_racks":"13","free_racks":"3","terminal_type":"7inch","bike_numbers":"24508,28707,27593,27449,26451,26040,25653,25640,29444,96022","bike_types":{"4":10},"place_type":"0","rack_locks":"1"},{"uid":"2585385","lat":"52.2299137","lng":"20.9508179","name":"Wolska - Elekcyjna","spot":"1","number":"9472","bikes":"14","bike_racks":"20","free_racks":"6","terminal_type":"7inch","bike_numbers":"27133,27042,26912,26598,26483,26436,26390,25485,25079,25626,28808,96547,96407,96222","bike_types":{"4":14},"place_type":"0","rack_locks":"1"},{"uid":"2585387","lat":"52.237662392829","lng":"20.955492854118","name":"al. Prymasa Tysi\u0105clecia - G\u00f3rczewska","spot":"1","number":"9473","bikes":"16","bike_racks":"20","free_racks":"5","terminal_type":"7inch","bike_numbers":"24536,28687,28320,27089,26001,25873,25479,25279,25137,96562,96546,96531,96514,96170,96120,96108","bike_types":{"4":16},"place_type":"0","rack_locks":"1"},{"uid":"2585389","lat":"52.2333374","lng":"20.9652776","name":"Wolska - P\u0142ocka","spot":"1","number":"9474","bikes":"8","bike_racks":"15","free_racks":"7","terminal_type":"7inch","bike_numbers":"28017,29020,96438,96381,96370,96355,96244,96172","bike_types":{"4":8},"place_type":"0","rack_locks":"1"},{"uid":"2585391","lat":"52.228522296173","lng":"20.969638824463","name":"Kasprzaka - Skierniewicka","spot":"1","number":"9475","bikes":"13","bike_racks":"21","free_racks":"8","terminal_type":"7inch","bike_numbers":"24776,27062,26069,25863,29065,28854,96057,96038,96489,96454,96276,96154,96139","bike_types":{"4":13},"place_type":"0","rack_locks":"1"},{"uid":"2585394","lat":"52.22898","lng":"20.97843","name":"Kasprzaka - Karolkowa","spot":"1","number":"9476","bikes":"11","bike_racks":"15","free_racks":"4","terminal_type":"7inch","bike_numbers":"24618,25145,29126,96495,96369,96317,96279,96235,96208,96191,96150","bike_types":{"4":10,"0":1},"place_type":"0","rack_locks":"1"},{"uid":"2585396","lat":"52.2328752","lng":"20.9805411","name":"Muzeum Powstania Warszawskiego","spot":"1","number":"9477","bikes":"8","bike_racks":"10","free_racks":"2","terminal_type":"7inch","bike_numbers":"24455,24029,26171,25363,29102,96473,96431,96298","bike_types":{"51":1,"26":1,"4":6},"place_type":"0","rack_locks":"1"},{"uid":"2585398","lat":"52.22983","lng":"20.983123","name":"Metro Rondo Daszy\u0144skiego","spot":"1","number":"9478","bikes":"13","bike_racks":"26","free_racks":"13","terminal_type":"7inch","bike_numbers":"28459,28107,26810,26772,26712,26522,25398,25090,29454,29422,96461,96210,96177","bike_types":{"4":13},"place_type":"0","rack_locks":"1"},{"uid":"2585400","lat":"52.23145","lng":"20.98869","name":"Prosta - Wronia","spot":"1","number":"9479","bikes":"10","bike_racks":"15","free_racks":"4","terminal_type":"7inch","bike_numbers":"27447,25884,25371,29039,29031,96398,96397,96390,96346,96327","bike_types":{"4":10},"place_type":"0","rack_locks":"1"},{"uid":"2585401","lat":"52.2373141","lng":"20.9888488","name":"\u017belazna - Ch\u0142odna","spot":"1","number":"9480","bikes":"12","bike_racks":"15","free_racks":"3","terminal_type":"7inch","bike_numbers":"24694,28288,27670,26975,26951,26833,26247,26230,25586,29077,96500,96456","bike_types":{"4":12},"place_type":"0","rack_locks":"1"},{"uid":"2585402","lat":"52.2344946","lng":"20.9905117","name":"\u017belazna - Grzybowska","spot":"1","number":"9481","bikes":"9","bike_racks":"20","free_racks":"11","terminal_type":"7inch","bike_numbers":"24569,24040,28547,26611,26092,25330,96469,96453,96176","bike_types":{"4":8,"26":1},"place_type":"0","rack_locks":"1"},{"uid":"2585405","lat":"52.238666","lng":"20.9957314","name":"al. Jana Paw\u0142a II - Plac Mirowski","spot":"1","number":"9482","bikes":"14","bike_racks":"16","free_racks":"2","terminal_type":"7inch","bike_numbers":"28772,27905,27511,27286,26966,26853,26144,26143,25500,25374,25245,29386,29426,96540","bike_types":{"4":14},"place_type":"0","rack_locks":"1"},{"uid":"2585406","lat":"52.2357151","lng":"20.9966071","name":"al. Jana Paw\u0142a II - Grzybowska","spot":"1","number":"9483","bikes":"22","bike_racks":"23","free_racks":"1","terminal_type":"7inch","bike_numbers":"24944,28718,28630,28116,27744,27674,27395,27333,27007,26797,26718,26612,26571,26507,26480,25812,25268,25177,29002,29455,28890,96572","bike_types":{"4":22},"place_type":"0","rack_locks":"1"},{"uid":"2585410","lat":"52.23958","lng":"21.00027","name":"Ptasia - Zimna","spot":"1","number":"9485","bikes":"10","bike_racks":"16","free_racks":"6","terminal_type":"7inch","bike_numbers":"24847,26834,26742,26636,26445,26033,25390,29365,28826,96213","bike_types":{"4":10},"place_type":"0","rack_locks":"1"},{"uid":"2585412","lat":"52.2336314","lng":"21.0028795","name":"Emilii Plater - \u015awi\u0119tokrzyska","spot":"1","number":"9486","bikes":"20","bike_racks":"26","free_racks":"6","terminal_type":"7inch","bike_numbers":"24831,24577,28391,27846,27705,27504,27266,27071,26666,26545,26309,26124,25452,25411,25303,25250,25062,96387,96361,96299","bike_types":{"4":20},"place_type":"0","rack_locks":"1"},{"uid":"2585413","lat":"52.2358704","lng":"21.0037806","name":"Plac Grzybowski","spot":"1","number":"9487","bikes":"17","bike_racks":"26","free_racks":"7","terminal_type":"7inch","bike_numbers":"24907,24583,24026,24021,28393,28071,26982,25969,25935,25539,25426,25241,25176,25044,96050,96465,96313","bike_types":{"4":15,"26":2},"place_type":"0","rack_locks":"1"},{"uid":"2585416","lat":"52.2384853","lng":"21.0067552","name":"Marsza\u0142kowska - Kr\u00f3lewska","spot":"1","number":"9488","bikes":"14","bike_racks":"19","free_racks":"6","terminal_type":"7inch","bike_numbers":"24857,24682,24530,28021,27860,27703,27196,26690,26537,26528,26509,26468,26204,28840","bike_types":{"4":14},"place_type":"0","rack_locks":"1"},{"uid":"2585417","lat":"52.2364206","lng":"21.0072407","name":"Marsza\u0142kowska - Zielna","spot":"1","number":"9489","bikes":"21","bike_racks":"30","free_racks":"9","terminal_type":"7inch","bike_numbers":"24783,24701,24695,24020,28739,28511,28045,27832,27778,27512,27226,27032,26867,26865,26711,26294,25707,29459,25629,28911,96277","bike_types":{"4":20,"26":1},"place_type":"0","rack_locks":"1"},{"uid":"2585420","lat":"52.2397008","lng":"21.0119292","name":"Plac Ma\u0142achowskiego","spot":"1","number":"9491","bikes":"16","bike_racks":"16","free_racks":"0","terminal_type":"7inch","bike_numbers":"24927,28715,28603,28573,27216,26673,26396,26128,25681,25402,25227,29054,29364,96386,96128,29223","bike_types":{"4":16},"place_type":"0","rack_locks":"1"},{"uid":"2585422","lat":"52.2359114","lng":"21.0135654","name":"Plac Powsta\u0144c\u00f3w Warszawy","spot":"1","number":"9492","bikes":"15","bike_racks":"20","free_racks":"4","terminal_type":"7inch","bike_numbers":"24751,24005,28303,27496,27457,26596,26574,26240,25510,25315,25255,25188,29349,29387,96043","bike_types":{"4":14,"26":1},"place_type":"0","rack_locks":"1"},{"uid":"2585423","lat":"52.2393559","lng":"21.016603","name":"Krakowskie Przedmie\u015bcie - Traugutta","spot":"1","number":"9493","bikes":"23","bike_racks":"24","free_racks":"1","terminal_type":"7inch","bike_numbers":"24956,24890,24824,24030,28294,28263,28138,27948,27804,27725,27698,27119,27091,26942,26933,26859,26783,26648,26026,25929,25888,25441,96275","bike_types":{"4":22,"26":1},"place_type":"0","rack_locks":"1"},{"uid":"2585429","lat":"52.238298","lng":"21.0184014","name":"Obo\u017ana - Kopernika","spot":"1","number":"9495","bikes":"16","bike_racks":"22","free_racks":"7","terminal_type":"7inch","bike_numbers":"24823,28505,28501,27981,27869,27834,26328,25851,25745,25614,25440,25252,29446,29441,29647,96286","bike_types":{"4":16},"place_type":"0","rack_locks":"1"},{"uid":"2585430","lat":"52.2418852","lng":"21.0241279","name":"Lipowa - Dobra","spot":"1","number":"9496","bikes":"19","bike_racks":"19","free_racks":"1","terminal_type":"7inch","bike_numbers":"24986,24744,28275,28218,27902,27808,27716,27684,26789,25641,25432,29034,29027,29357,96243,29193,29149,29207,29216","bike_types":{"4":19},"place_type":"0","rack_locks":"1"},{"uid":"2585431","lat":"52.2413087","lng":"21.0281727","name":"Centrum Nauki Kopernik","spot":"1","number":"9497","bikes":"18","bike_racks":"30","free_racks":"10","terminal_type":"7inch","bike_numbers":"28897,28265,27827,26876,26753,26543,25643,25459,25445,29657,96428,29191,29174,29171,29162,29161,29159,29157","bike_types":{"4":18},"place_type":"0","rack_locks":"1"},{"uid":"2585432","lat":"52.2264464","lng":"20.9837164","name":"Kolejowa","spot":"1","number":"9498","bikes":"8","bike_racks":"16","free_racks":"8","terminal_type":"7inch","bike_numbers":"24033,24011,27734,26187,25408,96476,96348,96215","bike_types":{"26":2,"4":6},"place_type":"0","rack_locks":"1"},{"uid":"2585433","lat":"52.22983","lng":"20.993996","name":"\u017belazna - Sienna","spot":"1","number":"9499","bikes":"13","bike_racks":"24","free_racks":"11","terminal_type":"7inch","bike_numbers":"24685,28575,27909,27829,27573,27355,25147,29106,29082,29141,96339,96133,24053","bike_types":{"4":11,"0":1,"26":1},"place_type":"0","rack_locks":"1"},{"uid":"2585435","lat":"52.230201297582","lng":"20.999550819397","name":"al. Jana Paw\u0142a II - Z\u0142ota","spot":"1","number":"9500","bikes":"9","bike_racks":"16","free_racks":"7","terminal_type":"7inch","bike_numbers":"28636,27678,26320,26191,26170,25094,29200,96524,96190","bike_types":{"4":9},"place_type":"0","rack_locks":"1"},{"uid":"2585438","lat":"52.2309778","lng":"21.0036755","name":"Emilii Plater - Z\u0142ota","spot":"1","number":"9501","bikes":"25","bike_racks":"30","free_racks":"6","terminal_type":"7inch","bike_numbers":"24507,28902,28469,28309,28130,28072,28025,28006,27718,27453,27391,27359,26957,26950,26709,26627,26249,26122,25837,29421,28823,96491,96379,96329,96220","bike_types":{"4":25},"place_type":"0","rack_locks":"1"},{"uid":"2585440","lat":"52.232816601853","lng":"21.006980538368","name":"Pa\u0142ac Kultury i Nauki","spot":"1","number":"9502","bikes":"13","bike_racks":"17","free_racks":"4","terminal_type":"7inch","bike_numbers":"24538,24031,28615,28602,27815,27779,26738,26115,25757,25687,96433,96267,96241","bike_types":{"4":12,"26":1},"place_type":"0","rack_locks":"1"},{"uid":"2585442","lat":"52.232934","lng":"21.0101791","name":"Marsza\u0142kowska - Z\u0142ota","spot":"1","number":"9503","bikes":"19","bike_racks":"22","free_racks":"3","terminal_type":"7inch","bike_numbers":"24874,24707,24607,28449,28317,28315,28047,26997,26971,26313,26181,26086,25635,25504,25493,25258,25028,96564,29170","bike_types":{"4":19},"place_type":"0","rack_locks":"1"},{"uid":"2585445","lat":"52.231987","lng":"21.016092","name":"Bracka - Krucza","spot":"1","number":"9504","bikes":"16","bike_racks":"20","free_racks":"5","terminal_type":"7inch","bike_numbers":"24630,25006,28804,28481,27982,27848,27469,26922,26720,26278,25736,25676,25620,96045,96042,96340","bike_types":{"4":16},"place_type":"0","rack_locks":"1"},{"uid":"2585446","lat":"52.2355713","lng":"21.0179642","name":"Nowy \u015awiat - Warecka","spot":"1","number":"9505","bikes":"12","bike_racks":"24","free_racks":"12","terminal_type":"7inch","bike_numbers":"24619,28457,27404,27060,26640,25949,25540,25367,25310,29445,29124,29122","bike_types":{"4":10,"0":2},"place_type":"0","rack_locks":"1"},{"uid":"2585447","lat":"52.2337571","lng":"21.0202789","name":"Ga\u0142czy\u0144skiego - Foksal","spot":"1","number":"9506","bikes":"17","bike_racks":"24","free_racks":"7","terminal_type":"7inch","bike_numbers":"24780,28534,28015,27545,26717,26485,26420,25860,25465,96551,29196,29195,29173,29148,29202,29227,29218","bike_types":{"4":17},"place_type":"0","rack_locks":"1"},{"uid":"2585450","lat":"52.2375934","lng":"21.0256487","name":"Topiel - Tamka","spot":"1","number":"9507","bikes":"22","bike_racks":"20","free_racks":"0","terminal_type":"7inch","bike_numbers":"24497,28719,27788,27781,27631,27551,27501,27162,26861,26818,26764,26205,25840,25828,29024,29443,29435,29146,28969,96565,96391,29208","bike_types":{"51":1,"4":20,"0":1},"place_type":"0","rack_locks":"1"},{"uid":"2585452","lat":"52.2358752","lng":"21.0317323","name":"Solec - Jaracza","spot":"1","number":"9508","bikes":"12","bike_racks":"15","free_racks":"3","terminal_type":"7inch","bike_numbers":"24932,24762,24615,27883,27295,26446,26357,26117,25571,29360,96250,29217","bike_types":{"4":12},"place_type":"0","rack_locks":"1"},{"uid":"2585453","lat":"52.2218874","lng":"20.9795301","name":"al. Jerozolimskie - Niemcewicza","spot":"1","number":"9509","bikes":"25","bike_racks":"19","free_racks":"0","terminal_type":"7inch","bike_numbers":"24610,28564,28083,27474,27044,26889,26618,26591,26401,26023,25487,25463,25444,28878,28888,28893,96549,96493,96350,96229,96202,96169,96149,96137,96106","bike_types":{"4":25},"place_type":"0","rack_locks":"1"},{"uid":"2585455","lat":"52.2222155","lng":"20.9866293","name":"Ochota-Ratusz","spot":"1","number":"9510","bikes":"17","bike_racks":"23","free_racks":"6","terminal_type":"7inch","bike_numbers":"24887,28612,28034,27884,27797,27529,27384,26923,26406,26091,29105,25622,28865,96509,96457,96443,96084","bike_types":{"4":17},"place_type":"0","rack_locks":"1"},{"uid":"2585457","lat":"52.2249718","lng":"20.9897661","name":"Plac Zawiszy","spot":"1","number":"9511","bikes":"19","bike_racks":"24","free_racks":"2","terminal_type":"7inch","bike_numbers":"24787,28764,28521,27810,26722,26157,25792,25723,25595,25434,25016,28912,29361,28841,96009,96404,96269,96148,29225","bike_types":{"4":19},"place_type":"0","rack_locks":"1"},{"uid":"2585460","lat":"52.22626","lng":"20.9961309","name":"al. Jerozolimskie - Lindleya","spot":"1","number":"9512","bikes":"10","bike_racks":"15","free_racks":"5","terminal_type":"7inch","bike_numbers":"24797,24758,28004,27282,26197,25454,25219,28829,96001,96353","bike_types":{"4":10},"place_type":"0","rack_locks":"1"},{"uid":"2585462","lat":"52.2241455","lng":"20.9975244","name":"Lindleya - szpital","spot":"1","number":"9513","bikes":"28","bike_racks":"28","free_racks":"5","terminal_type":"7inch","bike_numbers":"24897,24643,24024,25002,28060,27878,27606,27577,27477,27392,26916,26630,26527,26356,26030,25978,25953,25800,25778,25436,29456,29128,28894,28989,96053,96432,96218,29205","bike_types":{"4":26,"26":1,"0":1},"place_type":"0","rack_locks":"1"},{"uid":"2585464","lat":"52.227861","lng":"21.0008509","name":"Warszawa \u015ar\u00f3dmie\u015bcie WKD","spot":"1","number":"9514","bikes":"1","bike_racks":"18","free_racks":"16","terminal_type":"7inch","bike_numbers":"29113","bike_types":{"4":1},"place_type":"0","rack_locks":"1"},{"uid":"2585466","lat":"52.2249555","lng":"21.0031664","name":"Oczki - WUM","spot":"1","number":"9515","bikes":"9","bike_racks":"19","free_racks":"10","terminal_type":"7inch","bike_numbers":"24806,24743,28517,28411,26725,26594,26070,25844,96395","bike_types":{"4":9},"place_type":"0","rack_locks":"1"},{"uid":"2585469","lat":"52.2290464","lng":"21.0054544","name":"Emilii Plater - Al. Jerozolimskie","spot":"1","number":"9517","bikes":"14","bike_racks":"30","free_racks":"16","terminal_type":"7inch","bike_numbers":"24017,27774,27767,27622,27433,27054,26105,25847,25705,25437,25379,25106,29461,28805","bike_types":{"26":1,"4":13},"place_type":"0","rack_locks":"1"},{"uid":"2585470","lat":"52.2259343","lng":"21.0067537","name":"Emilii Plater - Wsp\u00f3lna","spot":"1","number":"9518","bikes":"13","bike_racks":"15","free_racks":"2","terminal_type":"7inch","bike_numbers":"24658,24648,27915,27759,26208,25387,25067,29553,96537,96486,96394,96182,29206","bike_types":{"4":13},"place_type":"0","rack_locks":"1"},{"uid":"2585472","lat":"52.23001","lng":"21.01088","name":"Metro Centrum","spot":"1","number":"9519","bikes":"22","bike_racks":"30","free_racks":"8","terminal_type":"7inch","bike_numbers":"28765,28660,28635,27843,27557,27385,27245,27131,26960,26880,26152,26051,25904,25207,25204,29050,29033,28908,25627,28875,29211,29203","bike_types":{"4":22},"place_type":"0","rack_locks":"1"},{"uid":"2585473","lat":"52.229347019086","lng":"21.011314988136","name":"Marsza\u0142kowska - Al. Jerozolimskie","spot":"1","number":"9520","bikes":"8","bike_racks":"20","free_racks":"13","terminal_type":"7inch","bike_numbers":"24995,24937,24771,24732,24525,26407,26198,25866","bike_types":{"4":8},"place_type":"0","rack_locks":"1"},{"uid":"2585476","lat":"52.230418150276","lng":"21.013610959053","name":"al. Jerozolimskie - rejon Rotundy","spot":"1","number":"9521","bikes":"20","bike_racks":"24","free_racks":"4","terminal_type":"7inch","bike_numbers":"24933,24853,24765,24651,24622,28734,28429,28287,27668,27031,26704,26665,26514,26116,25708,29072,29659,29144,96408,96401","bike_types":{"4":19,"0":1},"place_type":"0","rack_locks":"1"},{"uid":"2585477","lat":"52.2262882","lng":"21.0135705","name":"Marsza\u0142kowska - Ho\u017ca","spot":"1","number":"9522","bikes":"18","bike_racks":"15","free_racks":"0","terminal_type":"7inch","bike_numbers":"24647,24593,28572,28307,27382,27102,26850,26554,25874,25870,25751,25191,29368,28870,28964,96362,96183,29181","bike_types":{"4":18},"place_type":"0","rack_locks":"1"},{"uid":"2585492","lat":"52.2282923","lng":"21.0178542","name":"Krucza - Wsp\u00f3lna","spot":"1","number":"9523","bikes":"24","bike_racks":"28","free_racks":"4","terminal_type":"7inch","bike_numbers":"24980,24476,28293,28269,26796,26794,26597,26560,26431,26264,25985,25563,25532,25481,25449,25337,25015,25961,28867,28859,96034,96498,96403,96214","bike_types":{"4":23,"51":1},"place_type":"0","rack_locks":"1"},{"uid":"2585684","lat":"52.23144","lng":"21.0213036","name":"Rondo de Gaulle'a","spot":"1","number":"9524","bikes":"11","bike_racks":"22","free_racks":"11","terminal_type":"7inch","bike_numbers":"27613,26821,26662,25668,25578,29373,29367,29452,28856,96033,29224","bike_types":{"4":11},"place_type":"0","rack_locks":"1"},{"uid":"2585694","lat":"52.2278487","lng":"21.0235084","name":"Plac Trzech Krzy\u017cy","spot":"1","number":"9525","bikes":"22","bike_racks":"23","free_racks":"2","maintenance":"1","terminal_type":"7inch","bike_numbers":"24740,24675,28648,28464,28404,28318,28145,27073,26415,26186,26041,25818,25469,25423,25151,29067,28965,28988,96005,96354,96152,29153","bike_types":{"4":22},"place_type":"0","rack_locks":"1"},{"uid":"2585695","lat":"52.23324","lng":"21.0261179","name":"Smolna - PKP Powi\u015ble","spot":"1","number":"9526","bikes":"12","bike_racks":"18","free_racks":"6","terminal_type":"7inch","bike_numbers":"24981,28899,28158,27942,27489,27160,25887,25805,25593,25280,28954,28910","bike_types":{"4":12},"place_type":"0","rack_locks":"1"},{"uid":"2585699","lat":"52.2340191","lng":"21.0300328","name":"Herberta - PKP Powi\u015ble","spot":"1","number":"9527","bikes":"10","bike_racks":"26","free_racks":"17","terminal_type":"7inch","bike_numbers":"24973,28139,27749,27390,27362,27209,26363,26219,25299,25210","bike_types":{"4":10},"place_type":"0","rack_locks":"1"},{"uid":"2585704","lat":"52.2347879","lng":"21.0340991","name":"Solec - al. 3 Maja","spot":"1","number":"9528","bikes":"23","bike_racks":"24","free_racks":"1","terminal_type":"7inch","bike_numbers":"24987,24912,28697,28253,28143,28140,26226,26221,25897,25784,25741,25658,25621,25453,25359,25346,25322,25304,29110,29042,28838,29184,24055","bike_types":{"4":22,"26":1},"place_type":"0","rack_locks":"1"},{"uid":"2585708","lat":"52.2301405","lng":"21.0303694","name":"Ksi\u0105\u017c\u0119ca - Rozbrat","spot":"1","number":"9529","bikes":"19","bike_racks":"15","free_racks":"0","terminal_type":"7inch","bike_numbers":"24895,24720,24640,28617,28590,28408,28018,27615,27569,27201,26179,25976,25820,25342,28806,28839,28900,96157,24048","bike_types":{"4":18,"26":1},"place_type":"0","rack_locks":"1"},{"uid":"2585711","lat":"52.2172177","lng":"20.9713608","name":"Szcz\u0119\u015bliwicka - APS","spot":"1","number":"9530","bikes":"12","bike_racks":"22","free_racks":"9","terminal_type":"7inch","bike_numbers":"24953,24920,28620,28131,27526,26457,26016,25566,25036,96287,96178,96081","bike_types":{"4":12},"place_type":"0","rack_locks":"1"},{"uid":"2585712","lat":"52.2179474","lng":"20.9775567","name":"Kopi\u0144ska - Bia\u0142obrzeska","spot":"1","number":"9531","bikes":"8","bike_racks":"15","free_racks":"7","terminal_type":"7inch","bike_numbers":"24916,28157,26353,26009,25717,25239,28798,96004","bike_types":{"4":8},"place_type":"0","rack_locks":"1"},{"uid":"2585714","lat":"52.2178554","lng":"20.9828138","name":"Plac Narutowicza","spot":"1","number":"9532","bikes":"21","bike_racks":"30","free_racks":"9","terminal_type":"7inch","bike_numbers":"24913,24737,24004,28062,27566,27497,26882,26715,26586,29447,96462,96365,96360,96309,96289,96272,96262,96252,96236,96197,29147","bike_types":{"4":20,"26":1},"place_type":"0","rack_locks":"1"},{"uid":"2585716","lat":"52.216641","lng":"20.9879476","name":"Raszy\u0144ska - Wawelska","spot":"1","number":"9533","bikes":"3","bike_racks":"12","free_racks":"8","terminal_type":"7inch","bike_numbers":"24559,26239,25380","bike_types":{"4":3},"place_type":"0","rack_locks":"1"},{"uid":"2585717","lat":"52.2191029","lng":"20.9890149","name":"Raszy\u0144ska - Filtrowa","spot":"1","number":"9534","bikes":"13","bike_racks":"18","free_racks":"5","terminal_type":"7inch","bike_numbers":"24908,24739,27866,27411,26980,26714,26397,26237,25843,25543,96463,96437,96368","bike_types":{"4":13},"place_type":"0","rack_locks":"1"},{"uid":"2585720","lat":"52.220676","lng":"21.0045554","name":"al. Niepodleg\u0142o\u015bci - Nowowiejska","spot":"1","number":"9535","bikes":"25","bike_racks":"30","free_racks":"5","terminal_type":"7inch","bike_numbers":"24998,24991,24854,24781,24724,24546,24514,28735,28154,28098,27605,27582,27374,26890,26559,26511,26506,26161,25971,25886,25684,25679,25466,25082,25069","bike_types":{"4":25},"place_type":"0","rack_locks":"1"},{"uid":"2585721","lat":"52.2174693","lng":"21.0056537","name":"Kaczy\u0144skiego - al. Niepodleg\u0142o\u015bci","spot":"1","number":"9536","bikes":"13","bike_racks":"16","free_racks":"3","terminal_type":"7inch","bike_numbers":"24721,24564,27983,27838,27609,27554,27408,27022,26773,26083,26058,25112,28950","bike_types":{"4":13},"place_type":"0","rack_locks":"1"},{"uid":"2585722","lat":"52.2226831","lng":"21.0081097","name":"Noakowskiego - Koszykowa","spot":"1","number":"9537","bikes":"25","bike_racks":"24","free_racks":"0","terminal_type":"7inch","bike_numbers":"24951,24865,24794,24712,24613,24496,28377,28100,27967,27877,27740,27660,27012,26685,26657,26393,26119,25993,25565,25484,25419,25339,29359,96383,96356","bike_types":{"4":24,"51":1},"place_type":"0","rack_locks":"1"},{"uid":"2585724","lat":"52.219916","lng":"21.0116824","name":"Plac Politechniki","spot":"1","number":"9538","bikes":"26","bike_racks":"27","free_racks":"1","terminal_type":"7inch","bike_numbers":"24982,24867,28352,27969,27450,27424,27367,27213,27205,27110,26607,26412,26052,25911,25905,25615,25611,25476,25425,25391,25373,25034,29101,96542,96224,96205","bike_types":{"4":26},"place_type":"0","rack_locks":"1"},{"uid":"2585727","lat":"52.223503","lng":"21.0128519","name":"Pozna\u0144ska - Zesp\u00f3\u0142 Szk\u00f3\u0142 Gastronomicznych","spot":"1","number":"9539","bikes":"19","bike_racks":"18","free_racks":"0","terminal_type":"7inch","bike_numbers":"24924,24802,24779,24549,24531,28444,28331,27944,27891,27568,27561,27533,27482,26389,25987,25713,25287,28915,96349","bike_types":{"4":19},"place_type":"0","rack_locks":"1"},{"uid":"2585728","lat":"52.2174857","lng":"21.0142949","name":"Rondo Jazdy Polskiej","spot":"1","number":"9540","bikes":"7","bike_racks":"24","free_racks":"17","terminal_type":"7inch","bike_numbers":"24039,28513,28128,27138,25733,25316,96511","bike_types":{"26":1,"4":6},"place_type":"0","rack_locks":"1"},{"uid":"2585729","lat":"52.2197435","lng":"21.0157353","name":"Metro Politechnika - Nowowiejska","spot":"1","number":"9541","bikes":"4","bike_racks":"18","free_racks":"14","terminal_type":"7inch","bike_numbers":"24002,27777,26388,25572","bike_types":{"26":1,"4":3},"place_type":"0","rack_locks":"1"},{"uid":"2585731","lat":"52.2197681","lng":"21.0172775","name":"Plac Zbawiciela","spot":"1","number":"9542","bikes":"11","bike_racks":"12","free_racks":"1","terminal_type":"7inch","bike_numbers":"24466,24461,28763,27801,26780,26479,25948,29103,29049,96393,29175","bike_types":{"51":2,"4":9},"place_type":"0","rack_locks":"1"},{"uid":"2585735","lat":"52.2229427","lng":"21.0158211","name":"Plac Konstytucji","spot":"1","number":"9543","bikes":"15","bike_racks":"30","free_racks":"15","terminal_type":"7inch","bike_numbers":"28068,26395,26145,26104,25900,25810,25762,25475,25462,25345,25336,25060,29015,96388,24049","bike_types":{"4":14,"26":1},"place_type":"0","rack_locks":"1"},{"uid":"2585737","lat":"52.2238152","lng":"21.0207859","name":"Mokotowska - Pi\u0119kna","spot":"1","number":"9544","bikes":"18","bike_racks":"20","free_racks":"2","terminal_type":"7inch","bike_numbers":"24795,28639,28357,28353,28024,27842,27764,27745,27630,27396,27368,26099,26053,25409,25278,25121,96529,29178","bike_types":{"4":18},"place_type":"0","rack_locks":"1"},{"uid":"2585738","lat":"52.2200212","lng":"21.0256299","name":"Plac na Rozdro\u017cu","spot":"1","number":"9545","bikes":"9","bike_racks":"26","free_racks":"17","terminal_type":"7inch","bike_numbers":"24882,24805,24609,24590,28448,27298,26562,25412,25095","bike_types":{"4":9},"place_type":"0","rack_locks":"1"},{"uid":"2585742","lat":"52.2249504","lng":"21.0268155","name":"Matejki - Wiejska","spot":"1","number":"9546","bikes":"26","bike_racks":"20","free_racks":"0","terminal_type":"7inch","bike_numbers":"24911,24909,24766,24706,28538,28493,27179,26910,26563,26498,26289,25414,25175,25127,29352,96467,96158,29190,29189,29186,29176,29164,29204,29221,29220,29215","bike_types":{"4":26},"place_type":"0","rack_locks":"1"},{"uid":"2585747","lat":"52.2221129","lng":"21.0343873","name":"My\u015bliwiecka - Rozbrat","spot":"1","number":"9547","bikes":"23","bike_racks":"21","free_racks":"0","terminal_type":"7inch","bike_numbers":"24983,24617,24521,24517,27992,27641,27513,27103,26959,26743,26266,26153,25875,25864,25636,29035,96308,29177,29166,29160,29222,24052,24050","bike_types":{"4":21,"26":2},"place_type":"0","rack_locks":"1"},{"uid":"2585748","lat":"52.2277124","lng":"21.0442955","name":"Port Czerniakowski","spot":"1","number":"9548","bikes":"19","bike_racks":"30","free_racks":"11","terminal_type":"7inch","bike_numbers":"24627,28637,27946,27653,27515,27466,27270,26858,26755,26730,26573,26323,26273,26055,25939,25859,25235,25051,29436","bike_types":{"4":19},"place_type":"0","rack_locks":"1"},{"uid":"2585749","lat":"52.2109711","lng":"20.9759125","name":"Gr\u00f3jecka - Bitwy Warszawskiej 1920 roku","spot":"1","number":"9549","bikes":"11","bike_racks":"20","free_racks":"8","terminal_type":"7inch","bike_numbers":"24949,28757,28089,27346,27148,27081,26902,26721,25386,25023,96207","bike_types":{"4":11},"place_type":"0","rack_locks":"1"},{"uid":"2585750","lat":"52.2130296","lng":"20.9819985","name":"Pasteura - Winnicka - UW","spot":"1","number":"9550","bikes":"26","bike_racks":"24","free_racks":"0","terminal_type":"7inch","bike_numbers":"24736,24681,24655,28529,28347,27951,27796,27731,27637,27619,27505,27444,27176,27142,27113,25376,25369,25109,25035,25012,29086,28891,28963,96484,96331,29168","bike_types":{"4":26},"place_type":"0","rack_locks":"1"},{"uid":"2585762","lat":"52.2107722","lng":"20.9847557","name":"Stefana Banacha - UW","spot":"1","number":"9551","bikes":"24","bike_racks":"29","free_racks":"4","terminal_type":"7inch","bike_numbers":"28405,28123,28108,27278,27050,26991,26776,26425,26414,26262,26132,26118,26046,25612,25554,25415,25263,25231,25116,25010,29660,28847,28914,96201","bike_types":{"4":24},"place_type":"0","rack_locks":"1"},{"uid":"2585764","lat":"52.212671","lng":"21.003437","name":"Biblioteka Narodowa","spot":"1","number":"9552","bikes":"12","bike_racks":"24","free_racks":"12","terminal_type":"7inch","bike_numbers":"24842,24474,28761,28473,28454,25392,29092,96023,96006,96505,96458,96389","bike_types":{"4":11,"51":1},"place_type":"0","rack_locks":"1"},{"uid":"2585766","lat":"52.21691","lng":"21.01997","name":"Marsza\u0142kowska - Litewska","spot":"1","number":"9553","bikes":"10","bike_racks":"15","free_racks":"5","terminal_type":"7inch","bike_numbers":"24717,24620,24470,28820,28435,28033,27813,26493,25046,96130","bike_types":{"4":9,"51":1},"place_type":"0","rack_locks":"1"},{"uid":"2585770","lat":"52.2083858","lng":"20.9631103","name":"P\u0119tla Szcz\u0119\u015bliwice","spot":"1","number":"9554","bikes":"11","bike_racks":"19","free_racks":"9","terminal_type":"7inch","bike_numbers":"28726,28425,27809,27553,26930,26146,25698,25645,29010,28835,28824","bike_types":{"4":11},"place_type":"0","rack_locks":"1"},{"uid":"2585771","lat":"52.206153650625","lng":"20.970287919044","name":"Dickensa - Geodet\u00f3w","spot":"1","number":"9555","bikes":"8","bike_racks":"16","free_racks":"8","terminal_type":"7inch","bike_numbers":"24768,27918,27244,27190,26638,25848,28879,28987","bike_types":{"4":8},"place_type":"0","rack_locks":"1"},{"uid":"2585772","lat":"52.205361371875","lng":"20.984664559364","name":"\u017bwirki i Wigury - Ksi\u0119cia Trojdena","spot":"1","number":"9556","bikes":"20","bike_racks":"17","free_racks":"0","terminal_type":"7inch","bike_numbers":"24801,24773,28713,28483,28117,27436,27432,26855,26691,26495,26003,25937,25544,25173,25018,96060,96364,29192,29169,29226","bike_types":{"4":20},"place_type":"0","rack_locks":"1"},{"uid":"2585774","lat":"52.205801893754","lng":"20.998928546906","name":"Rakowiecka - \u015aw. A. Boboli","spot":"1","number":"9557","bikes":"15","bike_racks":"17","free_racks":"2","terminal_type":"7inch","bike_numbers":"27889,27000,26961,26590,26549,26073,25890,25748,25517,25430,25202,29129,28813,28871,96211","bike_types":{"4":14,"0":1},"place_type":"0","rack_locks":"1"},{"uid":"2585776","lat":"52.209916","lng":"21.0067794","name":"al. Niepodleg\u0142o\u015bci - Batorego","spot":"1","number":"9558","bikes":"5","bike_racks":"26","free_racks":"20","terminal_type":"7inch","bike_numbers":"28610,27870,25585,29199,29156","bike_types":{"4":5},"place_type":"0","rack_locks":"1"},{"uid":"2585779","lat":"52.2132375","lng":"21.0210568","name":"Plac Unii Lubelskiej","spot":"1","number":"9559","bikes":"23","bike_racks":"24","free_racks":"1","terminal_type":"7inch","bike_numbers":"24693,24649,28882,28570,28561,27819,27253,27242,27057,26996,26660,26369,26324,26195,26013,25966,25855,25822,25659,25472,25413,28945,28800","bike_types":{"4":23},"place_type":"0","rack_locks":"1"},{"uid":"2585781","lat":"52.2027557","lng":"20.9508951","name":"W\u0142odarzewska - Maszynowa","spot":"1","number":"9560","bikes":"6","bike_racks":"18","free_racks":"12","terminal_type":"7inch","bike_numbers":"24524,27603,27345,27134,96056,96013","bike_types":{"4":6},"place_type":"0","rack_locks":"1"},{"uid":"2585782","lat":"52.2017647","lng":"20.9820897","name":"Sanocka - Pruszkowska","spot":"1","number":"9561","bikes":"3","bike_racks":"15","free_racks":"11","terminal_type":"7inch","bike_numbers":"25277,25144,29068","bike_types":{"4":3},"place_type":"0","rack_locks":"1"},{"uid":"2585785","lat":"52.1981365","lng":"20.9833717","name":"\u017bwirki i Wigury - Rac\u0142awicka","spot":"1","number":"9562","bikes":"13","bike_racks":"18","free_racks":"5","terminal_type":"7inch","bike_numbers":"24888,28633,28586,28194,27757,27737,27723,27199,26826,26653,26178,25567,96138","bike_types":{"4":13},"place_type":"0","rack_locks":"1"},{"uid":"2585787","lat":"52.20177","lng":"20.99969","name":"Wo\u0142oska - Kulskiego","spot":"1","number":"9563","bikes":"9","bike_racks":"15","free_racks":"6","terminal_type":"7inch","bike_numbers":"24837,28819,28769,28727,28563,27661,27016,26908,25983","bike_types":{"4":9},"place_type":"0","rack_locks":"1"},{"uid":"2585788","lat":"52.2042638","lng":"21.014428","name":"Madali\u0144skiego - Kazimierzowska","spot":"1","number":"9564","bikes":"12","bike_racks":"24","free_racks":"12","terminal_type":"7inch","bike_numbers":"24654,24621,28147,26864,26839,26547,26270,25467,25416,25354,29449,29188","bike_types":{"4":12},"place_type":"0","rack_locks":"1"},{"uid":"2585789","lat":"52.2055175","lng":"21.0231033","name":"Pu\u0142awska - Dworkowa","spot":"1","number":"9565","bikes":"19","bike_racks":"19","free_racks":"0","terminal_type":"7inch","bike_numbers":"24832,24638,28207,27669,26814,26785,26750,26306,26253,25957,25766,25731,25498,25349,29078,29070,29064,28872,96159","bike_types":{"4":19},"place_type":"0","rack_locks":"1"},{"uid":"2585790","lat":"52.2071756","lng":"21.0312643","name":"Belwederska - Gagarina","spot":"1","number":"9566","bikes":"23","bike_racks":"30","free_racks":"7","terminal_type":"7inch","bike_numbers":"24969,24600,24472,28675,28546,28498,28485,27315,27229,27167,27065,26394,26350,26331,26190,25990,25986,25744,25185,25047,28916,28967,96181","bike_types":{"4":22,"51":1},"place_type":"0","rack_locks":"1"},{"uid":"2585791","lat":"52.2074193","lng":"21.0479621","name":"Czerniakowska - Gagarina","spot":"1","number":"9567","bikes":"19","bike_racks":"25","free_racks":"6","terminal_type":"7inch","bike_numbers":"24729,24542,28886,28532,28396,28210,28114,27893,27739,27585,27483,27437,27197,26434,26405,26039,25773,25361,24054","bike_types":{"4":18,"26":1},"place_type":"0","rack_locks":"1"},{"uid":"2585794","lat":"52.1938131","lng":"20.9914431","name":"Etiudy Rewolucyjnej - Mi\u0105czy\u0144ska","spot":"1","number":"9568","bikes":"9","bike_racks":"18","free_racks":"9","terminal_type":"7inch","bike_numbers":"24753,27794,27765,27182,26166,25456,25026,28883,96559","bike_types":{"4":9},"place_type":"0","rack_locks":"1"},{"uid":"2585799","lat":"52.1994156","lng":"21.0121384","name":"Metro Rac\u0142awicka","spot":"1","number":"9570","bikes":"17","bike_racks":"30","free_racks":"13","terminal_type":"7inch","bike_numbers":"24859,28903,28677,28650,27957,27627,27327,27243,27058,27027,26304,25917,25758,25648,25138,25098,96026","bike_types":{"4":17},"place_type":"0","rack_locks":"1"},{"uid":"2585800","lat":"52.199505","lng":"21.0240975","name":"Pu\u0142awska - Dolna","spot":"1","number":"9571","bikes":"11","bike_racks":"18","free_racks":"7","terminal_type":"7inch","bike_numbers":"24006,28364,28342,28052,28050,27857,27181,25919,25703,29083,29028","bike_types":{"26":1,"4":10},"place_type":"0","rack_locks":"1"},{"uid":"2585802","lat":"52.2014754","lng":"21.0360047","name":"Sobieskiego - Che\u0142mska","spot":"1","number":"9572","bikes":"13","bike_racks":"15","free_racks":"1","terminal_type":"7inch","bike_numbers":"28700,28626,28290,27406,26311,26212,26004,25580,25529,25471,29041,96424,96271","bike_types":{"4":13},"place_type":"0","rack_locks":"1"},{"uid":"2585804","lat":"52.1998446","lng":"21.05095","name":"Czerniakowska - ZUS","spot":"1","number":"9573","bikes":"9","bike_racks":"15","free_racks":"5","terminal_type":"7inch","bike_numbers":"28340,27856,27849,27608,25678,25675,25591,25509,25211","bike_types":{"4":9,"16":1},"place_type":"0","rack_locks":"1"},{"uid":"2585807","lat":"52.1916776","lng":"20.8689688","name":"PKP Ursus-Nied\u017awiadek","spot":"1","number":"9574","bikes":"12","bike_racks":"15","free_racks":"3","terminal_type":"7inch","bike_numbers":"28195,28054,28005,27598,27189,27154,27139,26805,26290,25692,25157,28921","bike_types":{"4":12},"place_type":"0","rack_locks":"1"},{"uid":"2585808","lat":"52.1960469","lng":"20.8849347","name":"PKP Ursus","spot":"1","number":"9575","bikes":"8","bike_racks":"16","free_racks":"8","terminal_type":"7inch","bike_numbers":"24839,28122,27485,27005,26977,26464,25958,28880","bike_types":{"4":8},"place_type":"0","rack_locks":"1"},{"uid":"2585809","lat":"52.1869936","lng":"20.8906478","name":"Sosnkowskiego - OSiR Ursus","spot":"1","number":"9576","bikes":"11","bike_racks":"15","free_racks":"4","terminal_type":"7inch","bike_numbers":"24576,28729,28704,28336,28037,27247,25924,25189,24555,28833,28895","bike_types":{"4":11},"place_type":"0","rack_locks":"1"},{"uid":"2585811","lat":"52.2005548","lng":"20.8937538","name":"Ursus-Ratusz","spot":"1","number":"9577","bikes":"10","bike_racks":"15","free_racks":"5","terminal_type":"7inch","bike_numbers":"24928,24541,28209,27825,27232,26989,26089,25634,25229,25165","bike_types":{"4":10},"place_type":"0","rack_locks":"1"},{"uid":"2585814","lat":"52.1906376","lng":"20.8999443","name":"Skoroszewska - Prystora","spot":"1","number":"9578","bikes":"13","bike_racks":"17","free_racks":"3","terminal_type":"7inch","bike_numbers":"24677,28387,28258,28211,27539,27393,27237,27118,26561,26447,26088,26057,25040","bike_types":{"4":13},"place_type":"0","rack_locks":"1"},{"uid":"2585817","lat":"52.1882609","lng":"20.9603771","name":"G\u0142adka - OSiR W\u0142ochy","spot":"1","number":"9579","bikes":"11","bike_racks":"16","free_racks":"5","terminal_type":"7inch","bike_numbers":"24926,24586,24501,27807,26790,26529,26336,26111,25542,25251,28936","bike_types":{"4":11},"place_type":"0","rack_locks":"1"},{"uid":"2585820","lat":"52.2056441","lng":"20.9159142","name":"PKP W\u0142ochy","spot":"1","number":"9580","bikes":"14","bike_racks":"17","free_racks":"3","terminal_type":"7inch","bike_numbers":"24935,28652,28601,28591,28491,28254,27700,27377,27217,27092,26811,25770,28933,96083","bike_types":{"4":14},"place_type":"0","rack_locks":"1"},{"uid":"2585821","lat":"52.2012157","lng":"20.9353145","name":"al. Jerozolimskie - Popularna","spot":"1","number":"9581","bikes":"14","bike_racks":"17","free_racks":"3","terminal_type":"7inch","bike_numbers":"24838,24719,28559,28406,28133,27033,26613,25730,25201,28952,96261,96135,96109,96082","bike_types":{"4":14},"place_type":"0","rack_locks":"1"},{"uid":"2585824","lat":"52.1924709","lng":"20.9596664","name":"W\u0142ochy-Ratusz","spot":"1","number":"9582","bikes":"14","bike_racks":"14","free_racks":"0","terminal_type":"7inch","bike_numbers":"24848,24830,28596,28040,27509,27255,27059,26749,26317,26010,25974,25885,96448,96439","bike_types":{"4":14},"place_type":"0","rack_locks":"1"},{"uid":"2585825","lat":"52.1946888","lng":"20.9667823","name":"1 Sierpnia - DK W\u0142ochy","spot":"1","number":"9583","bikes":"11","bike_racks":"15","free_racks":"4","terminal_type":"7inch","bike_numbers":"24726,24666,28110,27169,26947,26399,26318,26093,26025,25534,25103","bike_types":{"4":11},"place_type":"0","rack_locks":"1"},{"uid":"2585827","lat":"52.1888962","lng":"21.0175887","name":"Metro Wierzbno","spot":"1","number":"9584","bikes":"5","bike_racks":"20","free_racks":"14","terminal_type":"7inch","bike_numbers":"24708,26307,25639,25237,28814","bike_types":{"4":5},"place_type":"0","rack_locks":"1"},{"uid":"2585830","lat":"52.18648","lng":"21.02538","name":"Pu\u0142awska - Idzikowskiego","spot":"1","number":"9585","bikes":"10","bike_racks":"17","free_racks":"7","terminal_type":"7inch","bike_numbers":"24605,28159,28023,27724,27486,26710,26621,26386,25651,25439","bike_types":{"4":10},"place_type":"0","rack_locks":"1"},{"uid":"2585835","lat":"52.1882861","lng":"21.0498825","name":"Sobieskiego - Mangalia","spot":"1","number":"9586","bikes":"13","bike_racks":"15","free_racks":"2","terminal_type":"7inch","bike_numbers":"24516,28659,28539,28445,28196,28032,27896,26983,26164,25598,25284,25086,96052","bike_types":{"4":13},"place_type":"0","rack_locks":"1"},{"uid":"2585837","lat":"52.178777","lng":"21.0016387","name":"Wo\u0142oska - Marynarska","spot":"1","number":"9588","bikes":"21","bike_racks":"26","free_racks":"5","terminal_type":"7inch","bike_numbers":"24698,28354,28102,27987,27600,27594,27479,27402,27289,27053,26707,26475,26474,25663,25403,25381,25242,25070,25038,28985,96292","bike_types":{"4":21},"place_type":"0","rack_locks":"1"},{"uid":"2585838","lat":"52.1800882","lng":"21.0207403","name":"al. Niepodleg\u0142o\u015bci - al. Wilanowska","spot":"1","number":"9589","bikes":"14","bike_racks":"22","free_racks":"8","terminal_type":"7inch","bike_numbers":"24725,28774,27927,27776,27549,27430,26531,26486,25491,25200,25148,25081,29055,28935","bike_types":{"4":14},"place_type":"0","rack_locks":"1"},{"uid":"2585839","lat":"52.1779163","lng":"21.049562","name":"P\u0119tla Stegny","spot":"1","number":"9590","bikes":"14","bike_racks":"23","free_racks":"9","terminal_type":"7inch","bike_numbers":"24650,24509,28722,28716,28510,27625,27521,27356,27159,27039,26948,26581,25761,25594","bike_types":{"4":14},"place_type":"0","rack_locks":"1"},{"uid":"2585843","lat":"52.1818472","lng":"21.0562822","name":"Sobieskiego - \u015bw. Bonifacego","spot":"1","number":"9591","bikes":"18","bike_racks":"22","free_racks":"4","terminal_type":"7inch","bike_numbers":"24722,28876,28008,27890,27853,27434,27410,27112,27096,26984,26341,25756,25754,25699,25418,28975,28961,28995","bike_types":{"4":18},"place_type":"0","rack_locks":"1"},{"uid":"2585844","lat":"52.1702836","lng":"20.9959132","name":"P\u0119tla Bokserska","spot":"1","number":"9592","bikes":"8","bike_racks":"15","free_racks":"7","terminal_type":"7inch","bike_numbers":"28818,28121,27799,26766,26736,26280,25274,28845","bike_types":{"4":8},"place_type":"0","rack_locks":"1"},{"uid":"2585846","lat":"52.1710498","lng":"21.0059144","name":"Gintrowskiego - Gotarda","spot":"1","number":"9593","bikes":"14","bike_racks":"15","free_racks":"6","terminal_type":"7inch","bike_numbers":"24985,28466,28443,28400,28385,28190,27826,27143,27123,26999,26454,25814,25199,28938","bike_types":{"4":14},"place_type":"0","rack_locks":"1"},{"uid":"2585848","lat":"52.174435","lng":"21.0128814","name":"al. Lotnik\u00f3w - Kaczmarskiego","spot":"1","number":"9594","bikes":"22","bike_racks":"30","free_racks":"8","terminal_type":"7inch","bike_numbers":"28341,28002,27964,27880,27656,27635,27305,26167,26075,25833,25671,25011,96563,96472,96455,96420,96413,96406,96399,96341,96302,96284","bike_types":{"4":22},"place_type":"0","rack_locks":"1"},{"uid":"2585850","lat":"52.1733132","lng":"21.0257305","name":"Metro S\u0142u\u017cew","spot":"1","number":"9595","bikes":"20","bike_racks":"24","free_racks":"4","terminal_type":"7inch","bike_numbers":"24883,24634,24512,25003,28644,28153,28152,27676,27626,27461,27365,27192,26831,26281,26203,25988,25718,25693,25286,96312","bike_types":{"4":20},"place_type":"0","rack_locks":"1"},{"uid":"2585853","lat":"52.17343","lng":"21.03179","name":"Wa\u0142brzyska - Wr\u00f3bla","spot":"1","number":"9596","bikes":"25","bike_racks":"30","free_racks":"5","terminal_type":"7inch","bike_numbers":"24958,28760,28759,28634,28580,27760,27752,27706,27618,27348,27231,26990,26904,26646,26490,26448,26358,25849,25737,25576,25460,25233,28906,96046,96025","bike_types":{"4":25},"place_type":"0","rack_locks":"1"},{"uid":"2585856","lat":"52.170135","lng":"21.0685748","name":"Jana III Sobieskiego - al. Wilanowska","spot":"1","number":"9597","bikes":"13","bike_racks":"15","free_racks":"2","terminal_type":"7inch","bike_numbers":"24892,24817,24544,28817,28409,27758,26883,26031,25841,25665,25259,28970,96011","bike_types":{"4":13},"place_type":"0","rack_locks":"1"},{"uid":"2585860","lat":"52.1655879","lng":"21.0839331","name":"al. Wilanowska - Przycz\u00f3\u0142kowa","spot":"1","number":"9598","bikes":"13","bike_racks":"16","free_racks":"3","terminal_type":"7inch","bike_numbers":"24990,24965,28582,28550,27679,27441,27104,26819,26784,26333,25135,25628,96095","bike_types":{"4":13},"place_type":"0","rack_locks":"1"},{"uid":"2585863","lat":"52.16479","lng":"21.10925","name":"Vogla - Syta","spot":"1","number":"9599","bikes":"10","bike_racks":"16","free_racks":"7","terminal_type":"7inch","bike_numbers":"24791,28366,28065,27227,26914,26418,26236,26034,25839,28881","bike_types":{"4":10},"place_type":"0","rack_locks":"1"},{"uid":"2585868","lat":"52.1606257","lng":"21.0723245","name":"al. Rzeczypospolitej - Klimczaka","spot":"1","number":"9600","bikes":"8","bike_racks":"16","free_racks":"8","terminal_type":"7inch","bike_numbers":"28661,28655,28059,27685,26177,25584,96517,96136","bike_types":{"4":8},"place_type":"0","rack_locks":"1"},{"uid":"2585871","lat":"52.1569168","lng":"21.0760903","name":"al. Rzeczypospolitej - Branickiego","spot":"1","number":"9601","bikes":"11","bike_racks":"16","free_racks":"5","terminal_type":"7inch","bike_numbers":"24876,24671,24523,28640,26898,26297,26218,26199,25521,29060,28983","bike_types":{"4":11},"place_type":"0","rack_locks":"1"},{"uid":"2585872","lat":"52.1593735","lng":"21.086449","name":"Przycz\u00f3\u0142kowa - Branickiego","spot":"1","number":"9602","bikes":"11","bike_racks":"16","free_racks":"5","terminal_type":"7inch","bike_numbers":"24811,28345,28150,28031,27882,27241,26424,26214,25494,28857,96538","bike_types":{"4":11},"place_type":"0","rack_locks":"1"},{"uid":"2585873","lat":"52.1618136","lng":"21.0277355","name":"Metro Ursyn\u00f3w II","spot":"1","number":"9603","bikes":"18","bike_racks":"30","free_racks":"12","terminal_type":"7inch","bike_numbers":"28892,28803,28343,27988,27916,27223,26873,26609,26510,26258,26108,25794,25556,25331,25174,25065,29021,28998","bike_types":{"4":18},"place_type":"0","rack_locks":"1"},{"uid":"2585875","lat":"52.1622579","lng":"21.0280761","name":"Metro Ursyn\u00f3w I","spot":"1","number":"9604","bikes":"16","bike_racks":"30","free_racks":"14","terminal_type":"7inch","bike_numbers":"24984,24803,28645,28468,28099,27344,26245,25965,25901,25898,25657,25230,25111,28994,96049,96282","bike_types":{"4":16},"place_type":"0","rack_locks":"1"},{"uid":"2585876","lat":"52.162401","lng":"21.0383811","name":"Jastrz\u0119bowskiego - SGGW","spot":"1","number":"9605","bikes":"22","bike_racks":"30","free_racks":"8","terminal_type":"7inch","bike_numbers":"24786,24748,24709,24626,28403,28361,28359,27851,27648,27352,27174,27128,26935,26845,26713,26652,26364,26112,25796,25561,25326,29346","bike_types":{"4":22},"place_type":"0","rack_locks":"1"},{"uid":"2585880","lat":"52.1557534","lng":"21.0232776","name":"Romera - Pieciolinii","spot":"1","number":"9606","bikes":"9","bike_racks":"16","free_racks":"8","terminal_type":"7inch","bike_numbers":"24735,28530,27583,27055,26687,26532,26413,28940,28968","bike_types":{"4":9},"place_type":"0","rack_locks":"1"},{"uid":"2585883","lat":"52.1568674","lng":"21.0338401","name":"Metro Stok\u0142osy","spot":"1","number":"9607","bikes":"19","bike_racks":"27","free_racks":"8","terminal_type":"7inch","bike_numbers":"24777,24582,24539,28588,28327,28144,27428,27407,26761,26745,26557,26078,25954,25850,25823,25582,25309,25224,28896","bike_types":{"4":19},"place_type":"0","rack_locks":"1"},{"uid":"2585885","lat":"52.1572887","lng":"21.0440084","name":"Roso\u0142a - Ciszewskiego - SGGW","spot":"1","number":"9608","bikes":"22","bike_racks":"30","free_racks":"8","terminal_type":"7inch","bike_numbers":"24598,28696,28631,28092,28081,28013,28011,28010,27741,27208,26781,26728,26580,26492,26466,26180,25649,25489,25319,29450,28815,96526","bike_types":{"4":22},"place_type":"0","rack_locks":"1"},{"uid":"2585888","lat":"52.1521429","lng":"21.0181224","name":"Pu\u0142awska - Pileckiego","spot":"1","number":"9609","bikes":"18","bike_racks":"22","free_racks":"4","terminal_type":"7inch","bike_numbers":"24624,28388,28323,28216,28214,28041,28001,27925,27913,26422,25817,25789,25546,25502,25107,29427,28976,96193","bike_types":{"4":18},"place_type":"0","rack_locks":"1"},{"uid":"2585893","lat":"52.1495064","lng":"21.0332527","name":"Ciszewskiego - Pileckiego","spot":"1","number":"9610","bikes":"19","bike_racks":"22","free_racks":"3","terminal_type":"7inch","bike_numbers":"24792,24769,28698,28598,28298,28055,27389,27269,26502,26038,25996,25867,25806,25490,25272,25171,28939,28889,96344","bike_types":{"4":19},"place_type":"0","rack_locks":"1"},{"uid":"2585894","lat":"52.1549453","lng":"21.0492977","name":"Roso\u0142a - Gandhi","spot":"1","number":"9611","bikes":"13","bike_racks":"22","free_racks":"9","terminal_type":"7inch","bike_numbers":"24715,28668,28604,27353,26760,26669,26499,26285,26160,26126,25482,25225,25194","bike_types":{"4":13},"place_type":"0","rack_locks":"1"},{"uid":"2585897","lat":"52.1493105","lng":"21.0453361","name":"Metro Imielin","spot":"1","number":"9612","bikes":"24","bike_racks":"22","free_racks":"1","terminal_type":"7inch","bike_numbers":"24690,28503,28412,27681,27597,27524,27522,27137,26708,26639,26555,26494,26282,26244,26176,25936,25922,25877,25685,25667,25206,28849,28846,28832","bike_types":{"4":24},"place_type":"0","rack_locks":"1"},{"uid":"2585899","lat":"52.1522333","lng":"21.0563922","name":"Roso\u0142a - Weso\u0142a","spot":"1","number":"9613","bikes":"14","bike_racks":"23","free_racks":"9","terminal_type":"7inch","bike_numbers":"24915,24703,24645,28622,28520,28423,27831,27578,27418,27351,27156,26829,25366,29138","bike_types":{"4":13,"0":1},"place_type":"0","rack_locks":"1"},{"uid":"2585901","lat":"52.1427201","lng":"21.0383624","name":"Pileckiego - Alternatywy","spot":"1","number":"9614","bikes":"15","bike_racks":"30","free_racks":"15","terminal_type":"7inch","bike_numbers":"24992,24886,24565,28706,27972,27761,27692,27507,27211,27075,26945,26087,25557,28810,28828","bike_types":{"4":15},"place_type":"0","rack_locks":"1"},{"uid":"2585902","lat":"52.142735","lng":"21.0448131","name":"Dereniowa - P\u0142askowickiej","spot":"1","number":"9615","bikes":"12","bike_racks":"22","free_racks":"10","terminal_type":"7inch","bike_numbers":"24637,28683,28592,27373,27117,27068,26345,26094,25334,25232,96535,96251","bike_types":{"4":12},"place_type":"0","rack_locks":"1"},{"uid":"2585904","lat":"52.1376039","lng":"21.0505531","name":"Stryje\u0144skich - Belgradzka","spot":"1","number":"9616","bikes":"8","bike_racks":"15","free_racks":"7","terminal_type":"7inch","bike_numbers":"24860,28135,28038,27599,27375,26589,96054,96326","bike_types":{"4":8},"place_type":"0","rack_locks":"1"},{"uid":"2585905","lat":"52.1403909","lng":"21.0568187","name":"Metro Natolin","spot":"1","number":"9617","bikes":"26","bike_racks":"30","free_racks":"5","terminal_type":"7inch","bike_numbers":"24625,24554,24515,28621,28613,27923,27591,27198,27111,26993,26901,26857,26504,26072,25981,25964,25790,25343,25228,25059,29095,28919,29131,28877,28982,96119","bike_types":{"4":25,"0":1},"place_type":"0","rack_locks":"1"},{"uid":"2585906","lat":"52.1420749","lng":"21.0659905","name":"Belgradzka - Roso\u0142a","spot":"1","number":"9618","bikes":"19","bike_racks":"23","free_racks":"4","terminal_type":"7inch","bike_numbers":"24843,24778,24741,24691,28416,28349,27417,26899,26778,26476,26421,26074,25610,25535,25508,25236,96039,96570,96260","bike_types":{"4":19},"place_type":"0","rack_locks":"1"},{"uid":"2585908","lat":"52.1314333","lng":"21.0561562","name":"Stryje\u0144skich - W\u0105wozowa","spot":"1","number":"9619","bikes":"14","bike_racks":"23","free_racks":"9","terminal_type":"7inch","bike_numbers":"28674,28375,28372,28221,27770,27531,26427,25424,25266,25246,25058,96541,96409,96162","bike_types":{"4":14},"place_type":"0","rack_locks":"1"},{"uid":"2585911","lat":"52.3326052","lng":"20.9418404","name":"Ordon\u00f3wny - \u015awiatowida","spot":"1","number":"9620","bikes":"16","bike_racks":"22","free_racks":"6","terminal_type":"7inch","bike_numbers":"24950,28678,28653,28595,28593,27784,27387,27319,27271,27056,26988,26954,26844,26802,29045,28944","bike_types":{"4":16},"place_type":"0","rack_locks":"1"},{"uid":"2585913","lat":"52.1310925","lng":"21.0654795","name":"Metro Kabaty","spot":"1","number":"9621","bikes":"22","bike_racks":"22","free_racks":"1","terminal_type":"7inch","bike_numbers":"24669,24540,28436,27640,27445,25940,25893,25514,29081,28958,28864,28974,28999,63608,60867,96566,96226,96225,96223,96198,96079,96078","bike_types":{"4":22},"place_type":"0","rack_locks":"1"},{"uid":"2585916","lat":"52.1332642","lng":"21.0747962","name":"W\u0105wozowa - Roso\u0142a","spot":"1","number":"9622","bikes":"13","bike_racks":"18","free_racks":"5","terminal_type":"7inch","bike_numbers":"28898,28544,28251,27879,27694,27495,26654,25447,25130,96552,96539,96231,96167","bike_types":{"4":13},"place_type":"0","rack_locks":"1"},{"uid":"2585917","lat":"52.324116","lng":"21.05663","name":"Skarbka z G\u00f3r - Berensona","spot":"1","number":"9623","bikes":"17","bike_racks":"26","free_racks":"8","terminal_type":"7inch","bike_numbers":"24662,28657,28587,28440,28350,28311,28277,28090,28044,27821,27680,27086,26817,25587,25146,29245,29229","bike_types":{"4":17},"place_type":"0","rack_locks":"1"},{"uid":"2585919","lat":"52.3485329","lng":"20.9418336","name":"Aluzyjna - Tr\u0105by","spot":"1","number":"9624","bikes":"10","bike_racks":"16","free_racks":"7","terminal_type":"7inch","bike_numbers":"24896,24833,28738,28523,27908,27322,25967,25722,25526,25305","bike_types":{"4":10},"place_type":"0","rack_locks":"1"},{"uid":"2585920","lat":"52.3226982","lng":"20.9448107","name":"\u015awiatowida - Mehoffera","spot":"1","number":"9625","bikes":"11","bike_racks":"16","free_racks":"5","terminal_type":"7inch","bike_numbers":"28360,28314,27986,27930,27587,26060,25768,25646,29340,29071,29143","bike_types":{"4":10,"0":1},"place_type":"0","rack_locks":"1"},{"uid":"2585921","lat":"52.3212548","lng":"20.9477347","name":"Bia\u0142o\u0142\u0119cki O\u015brodek Sportu","spot":"1","number":"9626","bikes":"19","bike_racks":"30","free_racks":"12","terminal_type":"7inch","bike_numbers":"24827,24814,24597,28606,28478,28426,27895,27721,27634,27519,27481,27464,27415,27152,26928,26752,26461,25738,29555","bike_types":{"4":19},"place_type":"0","rack_locks":"1"},{"uid":"2585922","lat":"52.3211272","lng":"20.9712964","name":"Bia\u0142o\u0142\u0119ka-Ratusz","spot":"1","number":"9627","bikes":"13","bike_racks":"19","free_racks":"6","terminal_type":"7inch","bike_numbers":"24945,24900,24747,24652,27517,27420,27412,27168,27018,26878,26835,28943,96258","bike_types":{"4":13},"place_type":"0","rack_locks":"1"},{"uid":"2585924","lat":"52.3132981","lng":"20.9655324","name":"My\u015bliborska - al. Kukli\u0144skiego","spot":"1","number":"9628","bikes":"15","bike_racks":"22","free_racks":"7","terminal_type":"7inch","bike_numbers":"24770,28562,28527,28497,27732,27357,26551,26515,26489,26287,25577,25092,28850,96480,96249","bike_types":{"4":15},"place_type":"0","rack_locks":"1"},{"uid":"2585925","lat":"52.3031984","lng":"20.9891666","name":"Modli\u0144ska - \u017bera\u0144ska","spot":"1","number":"9629","bikes":"21","bike_racks":"30","free_racks":"9","terminal_type":"7inch","bike_numbers":"24849,28651,28555,28533,28137,27753,27704,27632,27273,27259,27043,26769,26763,26679,26678,26614,26188,25496,25076,29125,29254","bike_types":{"4":20,"0":1},"place_type":"0","rack_locks":"1"},{"uid":"2585926","lat":"52.3150181","lng":"21.0610807","name":"Skarbka z G\u00f3r - Magiczna","spot":"1","number":"9630","bikes":"20","bike_racks":"30","free_racks":"10","terminal_type":"7inch","bike_numbers":"24705,28771,28737,28607,28583,28526,28461,28373,27990,27940,27538,27439,27360,27279,27115,26881,26827,26163,25914,29130","bike_types":{"4":19,"0":1},"place_type":"0","rack_locks":"1"},{"uid":"2585928","lat":"52.3000268","lng":"21.0425266","name":"P\u0119tla Br\u00f3dno - Podgrodzie","spot":"1","number":"9631","bikes":"17","bike_racks":"16","free_racks":"0","terminal_type":"7inch","bike_numbers":"24979,28549,28484,27954,27484,27040,26866,26854,26027,25314,25101,29273,29246,29243,29236,29233,29230","bike_types":{"4":17},"place_type":"0","rack_locks":"1"},{"uid":"2585929","lat":"52.2939957","lng":"21.0272258","name":"Rembieli\u0144ska - Kondratowicza","spot":"1","number":"9632","bikes":"14","bike_racks":"23","free_racks":"9","terminal_type":"7inch","bike_numbers":"24952,28067,27687,27636,27435,27294,26956,26932,26896,26352,26022,25943,25821,25022","bike_types":{"4":14},"place_type":"0","rack_locks":"1"},{"uid":"2585931","lat":"52.2917236","lng":"21.0481189","name":"Targ\u00f3wek-Ratusz","spot":"1","number":"9633","bikes":"14","bike_racks":"22","free_racks":"8","terminal_type":"7inch","bike_numbers":"28009,27922,27811,27518,27443,27354,27163,26824,26440,26275,25553,25552,25348,29228","bike_types":{"4":14},"place_type":"0","rack_locks":"1"},{"uid":"2585932","lat":"52.292208","lng":"21.0419554","name":"Kondratowicza - Chodecka","spot":"1","number":"9634","bikes":"15","bike_racks":"23","free_racks":"8","terminal_type":"7inch","bike_numbers":"28766,28699,28629,28474,28418,27498,27487,27448,27184,26862,25727,25660,25590,25030,29075","bike_types":{"4":15},"place_type":"0","rack_locks":"1"},{"uid":"2585934","lat":"52.2925145","lng":"21.0573949","name":"Kondratowicza - Przy Grodzisku","spot":"1","number":"9635","bikes":"12","bike_racks":"18","free_racks":"6","terminal_type":"7inch","bike_numbers":"24532,28688,28685,28402,27717,27654,27575,27341,27206,26616,28990,96268","bike_types":{"4":12},"place_type":"0","rack_locks":"1"},{"uid":"2585936","lat":"52.2878069","lng":"21.0213829","name":"Wysockiego - Poborza\u0144ska","spot":"1","number":"9636","bikes":"19","bike_racks":"23","free_racks":"4","terminal_type":"7inch","bike_numbers":"28758,28066,27978,27970,27574,27455,27300,27122,26758,26623,26430,26404,26305,25928,25551,25056,29112,29046,25625","bike_types":{"4":19},"place_type":"0","rack_locks":"1"},{"uid":"2585937","lat":"52.2885915","lng":"21.0310087","name":"Rembieli\u0144ska - Wyszogrodzka","spot":"1","number":"9637","bikes":"18","bike_racks":"30","free_racks":"11","terminal_type":"7inch","bike_numbers":"24929,27929,27872,27814,27748,27714,27576,27400,27342,26820,26600,26567,26242,25710,96367,29281,29280,29240","bike_types":{"4":18},"place_type":"0","rack_locks":"1"},{"uid":"2585938","lat":"52.2864841","lng":"21.0401998","name":"Chodecka - \u017buromi\u0144ska","spot":"1","number":"9638","bikes":"13","bike_racks":"15","free_racks":"2","terminal_type":"7inch","bike_numbers":"24510,28873,28394,28075,28074,27800,27525,26642,25856,25084,29275,29271,29239","bike_types":{"4":13},"place_type":"0","rack_locks":"1"},{"uid":"2585939","lat":"52.281231017533","lng":"21.025852560997","name":"Wysockiego - Matki Teresy z Kalkuty","spot":"1","number":"9639","bikes":"9","bike_racks":"17","free_racks":"10","terminal_type":"7inch","bike_numbers":"28885,28720,28691,27546,25404,29088,29043,29019,29231","bike_types":{"4":9},"place_type":"0","rack_locks":"1"},{"uid":"2585941","lat":"52.2835693","lng":"21.0720858","name":"Blokowa - DK Zacisze","spot":"1","number":"9640","bikes":"13","bike_racks":"18","free_racks":"5","terminal_type":"7inch","bike_numbers":"28283,28280,27862,27550,27454,27316,27275,27260,27144,27041,26484,25269,28979","bike_types":{"4":13},"place_type":"0","rack_locks":"1"},{"uid":"2585942","lat":"52.276259","lng":"21.0530748","name":"P\u0119tla Targ\u00f3wek","spot":"1","number":"9641","bikes":"14","bike_racks":"22","free_racks":"7","terminal_type":"7inch","bike_numbers":"24925,24543,28471,27941,27329,27074,26895,26871,26382,25549,29274,96581,96580,96577","bike_types":{"4":14},"place_type":"0","rack_locks":"1"},{"uid":"2585943","lat":"52.27139","lng":"21.01566","name":"Jagiello\u0144ska - ALK","spot":"1","number":"9642","bikes":"13","bike_racks":"16","free_racks":"2","terminal_type":"7inch","bike_numbers":"28516,28118,27296,26967,26847,26754,26501,25170,28853,96186,96163,29180,24047","bike_types":{"4":12,"26":1},"place_type":"0","rack_locks":"1"},{"uid":"2585947","lat":"52.2694683","lng":"21.0499817","name":"Ossowskiego","spot":"1","number":"9644","bikes":"14","bike_racks":"17","free_racks":"4","terminal_type":"7inch","bike_numbers":"24545,24463,28475,27975,27465,27262,27236,26801,25836,25099,25096,29079,29253,96585","bike_types":{"4":13,"51":1},"place_type":"0","rack_locks":"1"},{"uid":"2585951","lat":"52.272602123161","lng":"21.063210368156","name":"Radzymi\u0144ska -Trocka","spot":"1","number":"9645","bikes":"14","bike_racks":"20","free_racks":"7","terminal_type":"7inch","bike_numbers":"28370,28322,27621,27394,27187,26588,25992,25513,25294,25264,29003,29434,96579,96578","bike_types":{"4":14},"place_type":"0","rack_locks":"1"},{"uid":"2585953","lat":"52.27347","lng":"21.07698","name":"Bukowiecka - Zamkowa","spot":"1","number":"9646","bikes":"12","bike_racks":"15","free_racks":"3","terminal_type":"7inch","bike_numbers":"28874,28754,28690,28585,27493,27313,27106,27024,26808,26291,25799,28971","bike_types":{"4":12},"place_type":"0","rack_locks":"1"},{"uid":"2585954","lat":"52.2668885","lng":"21.0585675","name":"Radzymi\u0144ska - Piotra Skargi","spot":"1","number":"9647","bikes":"14","bike_racks":"20","free_racks":"6","terminal_type":"7inch","bike_numbers":"24580,27962,27530,27378,26706,26667,26066,25803,29107,28951,29433,29194,96583,96576","bike_types":{"4":14},"place_type":"0","rack_locks":"1"},{"uid":"2585955","lat":"52.2614369","lng":"21.0155744","name":"Wybrze\u017ce Helskie - ZOO","spot":"1","number":"9648","bikes":"15","bike_racks":"22","free_racks":"7","terminal_type":"7inch","bike_numbers":"24585,28567,28479,28460,28079,27979,27590,27363,26981,25780,25214,25104,29136,28863,96291","bike_types":{"4":14,"0":1},"place_type":"0","rack_locks":"1"},{"uid":"2585956","lat":"52.2632492","lng":"21.0212231","name":"Rondo Starzy\u0144skiego","spot":"1","number":"9649","bikes":"10","bike_racks":"24","free_racks":"13","terminal_type":"7inch","bike_numbers":"24485,28490,28149,28095,26777,26767,26265,25505,96016,96447","bike_types":{"51":1,"4":9},"place_type":"0","rack_locks":"1"},{"uid":"2585958","lat":"52.26421","lng":"21.02618","name":"Darwina - Nusbauma-Hilarowicza","spot":"1","number":"9650","bikes":"9","bike_racks":"21","free_racks":"12","terminal_type":"7inch","bike_numbers":"28566,28193,28064,27014,26751,26500,26477,25473,29270","bike_types":{"4":9},"place_type":"0","rack_locks":"1"},{"uid":"2585960","lat":"52.26554","lng":"21.03122","name":"Namys\u0142owska - Darwina","spot":"1","number":"9651","bikes":"14","bike_racks":"15","free_racks":"1","terminal_type":"7inch","bike_numbers":"28743,27462,27127,26879,26698,26459,25523,25300,24498,96318,29282,29264,29257,96584","bike_types":{"4":13,"51":1},"place_type":"0","rack_locks":"1"},{"uid":"2585961","lat":"52.2690405","lng":"21.0379493","name":"Rondo \u017baba","spot":"1","number":"9652","bikes":"16","bike_racks":"22","free_racks":"6","terminal_type":"7inch","bike_numbers":"28641,27971,27956,27742,27709,27659,27543,27503,27249,27002,26958,26106,25673,25368,96014,29276","bike_types":{"4":16},"place_type":"0","rack_locks":"1"},{"uid":"2585963","lat":"52.2591682","lng":"21.0262224","name":"Jagiello\u0144ska - Plac Hallera","spot":"1","number":"9653","bikes":"9","bike_racks":"20","free_racks":"10","terminal_type":"7inch","bike_numbers":"28447,28127,27959,27413,26225,25604,25161,29338,29248","bike_types":{"4":9},"place_type":"0","rack_locks":"1"},{"uid":"2585964","lat":"52.2613811","lng":"21.0305437","name":"Plac Hallera - Sawinkowa","spot":"1","number":"9654","bikes":"18","bike_racks":"28","free_racks":"10","terminal_type":"7inch","bike_numbers":"24631,24537,24475,28647,28553,28369,28326,28321,27914,27601,27520,27304,26478,26455,26348,26327,26096,29258","bike_types":{"4":17,"51":1},"place_type":"0","rack_locks":"1"},{"uid":"2585967","lat":"52.263","lng":"21.03418","name":"Namys\u0142owska - Szymanowskiego","spot":"1","number":"9655","bikes":"13","bike_racks":"16","free_racks":"3","terminal_type":"7inch","bike_numbers":"24871,24483,28420,28220,27868,27288,26985,26453,26302,26037,25220,25050,29348","bike_types":{"4":12,"51":1},"place_type":"0","rack_locks":"1"},{"uid":"2585968","lat":"52.2538188","lng":"21.0231542","name":"Ratuszowa - ZOO","spot":"1","number":"9656","bikes":"16","bike_racks":"23","free_racks":"7","terminal_type":"7inch","bike_numbers":"28568,28556,28552,28358,28270,28126,28096,27523,27419,27267,26927,26702,26694,26686,25357,25120","bike_types":{"4":16},"place_type":"0","rack_locks":"1"},{"uid":"2585971","lat":"52.256355","lng":"21.029538","name":"Jagiello\u0144ska - Ratuszowa","spot":"1","number":"9657","bikes":"9","bike_racks":"16","free_racks":"7","terminal_type":"7inch","bike_numbers":"28325,28312,27672,26463,26375,25829,25609,28816,96499","bike_types":{"4":9},"place_type":"0","rack_locks":"1"},{"uid":"2585972","lat":"52.261449","lng":"21.037614","name":"11 Listopada - Ratuszowa","spot":"1","number":"9658","bikes":"19","bike_racks":"30","free_racks":"11","terminal_type":"7inch","bike_numbers":"24558,28329,27667,27651,27570,27560,27284,27194,27180,26949,26556,25362,25213,25154,29090,29132,28836,28830,96434","bike_types":{"4":18,"0":1},"place_type":"0","rack_locks":"1"},{"uid":"2585974","lat":"52.263109","lng":"21.0381895","name":"11 listopada - \u015arodkowa","spot":"1","number":"9659","bikes":"11","bike_racks":"18","free_racks":"7","terminal_type":"7inch","bike_numbers":"24903,28151,27920,27875,27840,27405,26940,26450,26423,26384,25811","bike_types":{"4":11},"place_type":"0","rack_locks":"1"},{"uid":"2585975","lat":"52.25839","lng":"21.03537","name":"Stalowa - 11 Listopada","spot":"1","number":"9660","bikes":"19","bike_racks":"24","free_racks":"5","terminal_type":"7inch","bike_numbers":"24845,24644,28285,27936,26505,26482,26435,26329,26299,26229,26061,25902,25601,29117,29062,96325,96155,29278,29249","bike_types":{"4":19},"place_type":"0","rack_locks":"1"},{"uid":"2585978","lat":"52.234791","lng":"21.07905","name":"al. Stan\u00f3w Zjednoczonych - Ostrobramska","spot":"1","number":"9661","bikes":"10","bike_racks":"20","free_racks":"10","terminal_type":"7inch","bike_numbers":"28476,27886,27215,27157,26943,25650,25541,25421,25393,25271","bike_types":{"4":10},"place_type":"0","rack_locks":"1"},{"uid":"2585981","lat":"52.2524758","lng":"21.0303479","name":"Floria\u0144ska - Park Praski","spot":"1","number":"9662","bikes":"17","bike_racks":"23","free_racks":"6","terminal_type":"7inch","bike_numbers":"24977,27966,27397,27147,27017,26719,26601,26392,26362,26127,25938,25853,25747,28956,29120,28844,29151","bike_types":{"4":16,"0":1},"place_type":"0","rack_locks":"1"},{"uid":"2585982","lat":"52.2549757","lng":"21.0339005","name":"Plac Wile\u0144ski","spot":"1","number":"9663","bikes":"29","bike_racks":"30","free_racks":"1","terminal_type":"7inch","bike_numbers":"24878,25009,28887,28662,28658,28450,28264,28000,27858,27712,27562,27337,27321,27220,26906,26843,26727,26651,26649,26617,26584,26377,26355,26301,25664,25347,29004,96328,29212","bike_types":{"4":29},"place_type":"0","rack_locks":"1"},{"uid":"2585983","lat":"52.2579576","lng":"21.0399804","name":"Wile\u0144ska - Rzeszotarskiej","spot":"1","number":"9664","bikes":"10","bike_racks":"16","free_racks":"6","terminal_type":"7inch","bike_numbers":"24606,26196,26000,25942,25775,25764,25053,29374,29641,96430","bike_types":{"4":10},"place_type":"0","rack_locks":"1"},{"uid":"2585984","lat":"52.2475848","lng":"20.9568001","name":"al. Prymasa Tysi\u0105clecia - Obozowa","spot":"1","number":"9665","bikes":"10","bike_racks":"13","free_racks":"3","terminal_type":"7inch","bike_numbers":"28656,27379,27214,27080,96018,96520,96513,96471,96092,96091","bike_types":{"4":10},"place_type":"0","rack_locks":"1"},{"uid":"2585985","lat":"52.248607","lng":"21.029647","name":"Okrzei - Panie\u0144ska","spot":"1","number":"9666","bikes":"15","bike_racks":"16","free_racks":"1","terminal_type":"7inch","bike_numbers":"24500,24494,24490,24487,24481,24462,24459,28680,28614,28330,27629,27611,25562,96017,29219","bike_types":{"51":7,"4":8},"place_type":"0","rack_locks":"1"},{"uid":"2585987","lat":"52.2506334","lng":"21.0311174","name":"Sierakowskiego - K\u0142opotowskiego","spot":"1","number":"9667","bikes":"16","bike_racks":"25","free_racks":"9","terminal_type":"7inch","bike_numbers":"28313,28302,28301,28061,27126,27010,26530,26433,26220,25918,25881,96307,29260,29259,29256,29250","bike_types":{"4":16},"place_type":"0","rack_locks":"1"},{"uid":"2585990","lat":"52.2520876","lng":"21.0381368","name":"Targowa - Z\u0105bkowska","spot":"1","number":"9668","bikes":"12","bike_racks":"18","free_racks":"6","terminal_type":"7inch","bike_numbers":"24761,28299,28112,27898,27318,27287,26456,26443,26054,25813,25568,96561","bike_types":{"4":12},"place_type":"0","rack_locks":"1"},{"uid":"2585992","lat":"52.2544855","lng":"21.0433458","name":"Fabryka W\u00f3dek Koneser","spot":"1","number":"9669","bikes":"21","bike_racks":"25","free_racks":"4","terminal_type":"7inch","bike_numbers":"24584,28378,28292,27719,27638,27580,27401,27324,27261,27130,26907,26733,26472,26276,26210,26183,25182,29087,96587,96586,96588","bike_types":{"4":21},"place_type":"0","rack_locks":"1"},{"uid":"2585994","lat":"52.2559027","lng":"21.0495613","name":"Radzymi\u0144ska - Wiosenna","spot":"1","number":"9670","bikes":"18","bike_racks":"26","free_racks":"8","terminal_type":"7inch","bike_numbers":"24738,24608,24575,28901,28427,28014,27212,27015,26886,26672,26572,26426,26385,26259,29116,29115,28799,29283","bike_types":{"4":18},"place_type":"0","rack_locks":"1"},{"uid":"2585995","lat":"52.25965","lng":"21.0529","name":"Radzymi\u0144ska - \u0141om\u017cy\u0144ska","spot":"1","number":"9671","bikes":"18","bike_racks":"24","free_racks":"6","terminal_type":"7inch","bike_numbers":"28643,28308,27980,27595,27502,27350,26987,26921,26343,26043,25960,25926,25781,25550,29056,29267,29262,29261","bike_types":{"4":18},"place_type":"0","rack_locks":"1"},{"uid":"2585996","lat":"52.2583512","lng":"21.0585337","name":"P\u0119tla Kaw\u0119czy\u0144ska-Bazylika","spot":"1","number":"9672","bikes":"18","bike_racks":"26","free_racks":"9","terminal_type":"7inch","bike_numbers":"24676,24657,24632,28084,27805,27695,27225,26953,26408,26243,25872,25865,25728,25688,25666,25642,25524,24046","bike_types":{"4":17,"26":1},"place_type":"0","rack_locks":"1"},{"uid":"2585997","lat":"52.249864871462","lng":"21.042911410332","name":"Targowa - Kijowska","spot":"1","number":"9673","bikes":"11","bike_racks":"18","free_racks":"7","terminal_type":"7inch","bike_numbers":"24486,28332,28132,27029,26976,26682,26315,26271,26267,26068,29097","bike_types":{"51":1,"4":10},"place_type":"0","rack_locks":"1"},{"uid":"2586000","lat":"52.252745","lng":"21.0510331","name":"Dworzec Wschodni - Kijowska","spot":"1","number":"9674","bikes":"19","bike_racks":"27","free_racks":"8","terminal_type":"7inch","bike_numbers":"28632,28462,28348,28295,27960,27476,27440,27427,27366,27248,26897,26823,26308,25977,25921,25088,29343,29388,96510","bike_types":{"4":19},"place_type":"0","rack_locks":"1"},{"uid":"2586001","lat":"52.247314","lng":"21.042731","name":"Metro Stadion Narodowy","spot":"1","number":"9675","bikes":"14","bike_racks":"15","free_racks":"2","terminal_type":"7inch","bike_numbers":"24901,24479,27775,27470,26737,26513,26325,26232,25150,25125,29084,96055,29152,29201","bike_types":{"4":13,"51":1},"place_type":"0","rack_locks":"1"},{"uid":"2586003","lat":"52.2472308","lng":"21.0476456","name":"al. Zieleniecka - Teatr Powszechny","spot":"1","number":"9676","bikes":"11","bike_racks":"14","free_racks":"3","terminal_type":"7inch","bike_numbers":"24592,24518,28531,28057,27556,27272,27036,26428,25455,29154,29237","bike_types":{"4":11},"place_type":"0","rack_locks":"1"},{"uid":"2586005","lat":"52.247346","lng":"21.055947","name":"Grochowska - Mi\u0144ska","spot":"1","number":"9677","bikes":"15","bike_racks":"22","free_racks":"8","terminal_type":"7inch","bike_numbers":"24881,24793,24687,28869,28584,28515,28274,27817,27301,27038,26972,26852,26342,25592,28934","bike_types":{"4":15},"place_type":"0","rack_locks":"1"},{"uid":"2586009","lat":"52.2464","lng":"21.06868","name":"Praga-Po\u0142udnie-Ratusz","spot":"1","number":"9678","bikes":"9","bike_racks":"15","free_racks":"6","terminal_type":"7inch","bike_numbers":"28368,27968,27699,27589,27203,26970,26840,26637,25158","bike_types":{"4":9},"place_type":"0","rack_locks":"1"},{"uid":"2586011","lat":"52.2501129","lng":"21.0772011","name":"Dwernickiego - Siennicka","spot":"1","number":"9679","bikes":"17","bike_racks":"25","free_racks":"9","terminal_type":"7inch","bike_numbers":"28597,28509,28496,28438,28091,27733,27730,27101,27034,27020,26629,26383,26174,25644,25607,25100,96589","bike_types":{"4":17},"place_type":"0","rack_locks":"1"},{"uid":"2586012","lat":"52.260428882956","lng":"21.041538119316","name":"Stalowa - Czynszowa","spot":"1","number":"9680","bikes":"15","bike_racks":"15","free_racks":"0","terminal_type":"7inch","bike_numbers":"24601,24550,28558,28058,27892,27383,26354,26109,25876,25530,25478,25352,25085,28948,29155","bike_types":{"4":15},"place_type":"0","rack_locks":"1"},{"uid":"2586014","lat":"52.2372419","lng":"21.0437644","name":"Wybrze\u017ce Szczeci\u0144skie - Stadion Narodowy","spot":"1","number":"9681","bikes":"21","bike_racks":"23","free_racks":"2","terminal_type":"7inch","bike_numbers":"24469,28744,28705,28581,28524,28452,28367,28086,28077,27947,27727,27297,27291,27256,27178,27061,26929,25846,25700,25195,29005","bike_types":{"51":1,"4":20},"place_type":"0","rack_locks":"1"},{"uid":"2586018","lat":"52.2387103","lng":"21.0507515","name":"Rondo Waszyngtona - Stadion Narodowy","spot":"1","number":"9682","bikes":"8","bike_racks":"27","free_racks":"19","terminal_type":"7inch","bike_numbers":"28472,28324,28262,27755,27675,25217,28812,29255","bike_types":{"4":8},"place_type":"0","rack_locks":"1"},{"uid":"2586019","lat":"52.242281006874","lng":"21.071160435677","name":"Waszyngtona - Kinowa","spot":"1","number":"9683","bikes":"10","bike_racks":"15","free_racks":"5","terminal_type":"7inch","bike_numbers":"24611,28577,28148,28003,27977,27563,25998,25583,25372,25128","bike_types":{"4":10},"place_type":"0","rack_locks":"1"},{"uid":"2586021","lat":"52.2445639","lng":"21.0838057","name":"Rondo Wiatraczna","spot":"1","number":"9684","bikes":"21","bike_racks":"30","free_racks":"9","terminal_type":"7inch","bike_numbers":"24946,24754,24718,24457,24008,27998,27388,27303,27210,27140,27109,27019,26518,26263,26241,26125,26029,25946,25787,25405,28809","bike_types":{"4":19,"51":1,"26":1},"place_type":"0","rack_locks":"1"},{"uid":"2586022","lat":"52.2347451","lng":"21.053651","name":"Francuska - Walecznych","spot":"1","number":"9685","bikes":"11","bike_racks":"15","free_racks":"4","terminal_type":"7inch","bike_numbers":"24940,24465,28267,27548,27173,26995,26123,25661,25159,28997,96096","bike_types":{"4":10,"51":1},"place_type":"0","rack_locks":"1"},{"uid":"2586024","lat":"52.236598","lng":"21.064774","name":"Mi\u0119dzynarodowa - Walecznych","spot":"1","number":"9686","bikes":"14","bike_racks":"15","free_racks":"1","terminal_type":"7inch","bike_numbers":"24495,28672,28019,27782,27099,26944,26103,25952,25944,25923,25360,25126,29061,29172","bike_types":{"51":1,"4":13},"place_type":"0","rack_locks":"1"},{"uid":"2586026","lat":"52.243020071904","lng":"21.102375984192","name":"Plac Szembeka","spot":"1","number":"9687","bikes":"8","bike_racks":"15","free_racks":"8","terminal_type":"7inch","bike_numbers":"24938,28802,28401,27686,26582,25982,25608,29458","bike_types":{"4":8},"place_type":"0","rack_locks":"1"},{"uid":"2586028","lat":"52.237559","lng":"21.120087","name":"P\u0119tla Goc\u0142awek","spot":"1","number":"9688","bikes":"11","bike_racks":"16","free_racks":"5","terminal_type":"7inch","bike_numbers":"24947,28286,28105,27953,27082,26795,26517,25808,25538,25149,25630","bike_types":{"4":11},"place_type":"0","rack_locks":"1"},{"uid":"2586030","lat":"52.2258359","lng":"21.0600907","name":"Brukselska - PROM","spot":"1","number":"9689","bikes":"11","bike_racks":"15","free_racks":"4","terminal_type":"7inch","bike_numbers":"24796,28741,28611,28432,28028,27780,27658,26741,26726,25370,96019","bike_types":{"4":11},"place_type":"0","rack_locks":"1"},{"uid":"2586031","lat":"52.260205610017","lng":"21.046854257584","name":"al. Solidarno\u015bci - Szwedzka","spot":"1","number":"9690","bikes":"9","bike_racks":"18","free_racks":"9","terminal_type":"7inch","bike_numbers":"28745,28026,26326,25243,29268,29266,29265,29263,29252","bike_types":{"4":9},"place_type":"0","rack_locks":"1"},{"uid":"2586032","lat":"52.230088","lng":"21.067948","name":"al. Stan\u00f3w Zjednoczonych - Mi\u0119dzynarodowa","spot":"1","number":"9691","bikes":"16","bike_racks":"26","free_racks":"10","terminal_type":"7inch","bike_numbers":"24875,28756,28753,27030,26321,26283,26200,26141,26100,26085,26082,25907,25753,25389,25327,25129","bike_types":{"4":16},"place_type":"0","rack_locks":"1"},{"uid":"2586034","lat":"52.23483","lng":"21.09975","name":"Ostrobramska - Zamieniecka","spot":"1","number":"9692","bikes":"22","bike_racks":"23","free_racks":"1","terminal_type":"7inch","bike_numbers":"24999,24939,24659,24633,28623,28421,28257,27974,27655,27330,27087,26791,26151,26044,25899,25895,25683,25325,25267,25198,25027,29133","bike_types":{"4":21,"0":1},"place_type":"0","rack_locks":"1"},