[{"region_info":{"lat":"52.2345","lng":"21.0024","zoom":"11","name":"VETURILO Poland","hotline":"+4819115","domain":"vp","country":"PL","country_name":"Poland","terms":"http:\/\/www.veturilo.waw.pl\/terms\/?v=201701","policy":"","website":"http:\/\/www.veturilo.waw.pl\/","show_free_racks":"1","booked_bikes":"0","set_point_bikes":"5284","available_bikes":"4939"},"places_summary":{"lngMin":20.8689688,"lngMax":21.120087,"latMin":52.117285,"latMax":52.3485329,"lngAvg":21.007811803367,"latAvg":52.230676667704},"places":[{"uid":"2585259","lat":"52.296298","lng":"20.9583575","name":"Dewajtis - UKSW","spot":"1","number":"9402","bikes":"33","bike_racks":"30","free_racks":"0","terminal_type":"7inch","bike_numbers":"24731,24673,24612,24520,28627,28434,28094,27989,27165,26860,26774,26632,26330,26209,26020,25956,25927,25734,25714,25691,25407,25358,25257,25049,29428,28858,28831,28913,96515,96475,96257,96196,96184","bike_types":{"4":33},"place_type":"0","rack_locks":"1"},{"uid":"2585263","lat":"52.2909738","lng":"20.9295559","name":"Metro M\u0142ociny","spot":"1","number":"9403","bikes":"17","bike_racks":"30","free_racks":"13","terminal_type":"7inch","bike_numbers":"24614,26915,26076,26036,25506,25215,25114,96522,96518,96429,96379,96265,96199,96192,96186,96146,96143","bike_types":{"4":17},"place_type":"0","rack_locks":"1"},{"uid":"2585265","lat":"52.2901732","lng":"20.9503698","name":"Marymoncka - Dewajtis","spot":"1","number":"9404","bikes":"13","bike_racks":"30","free_racks":"17","terminal_type":"7inch","bike_numbers":"28497,28442,26558,26546,26217,25776,25248,25080,25044,96536,96490,96372,96280","bike_types":{"4":13},"place_type":"0","rack_locks":"1"},{"uid":"2585267","lat":"52.285914","lng":"20.940561","name":"Metro Wawrzyszew","spot":"1","number":"9405","bikes":"6","bike_racks":"20","free_racks":"15","terminal_type":"7inch","bike_numbers":"28676,28383,27335,26288,26250,25677","bike_types":{"4":6},"place_type":"0","rack_locks":"1"},{"uid":"2585269","lat":"52.2336142","lng":"21.0146353","name":"G\u00f3rskiego - Szpitalna","spot":"1","number":"9406","bikes":"9","bike_racks":"16","free_racks":"7","terminal_type":"7inch","bike_numbers":"24014,28677,28454,28127,27125,26695,26262,26052,25317","bike_types":{"26":1,"4":8},"place_type":"0","rack_locks":"1"},{"uid":"2585271","lat":"52.2816265","lng":"20.9498871","name":"Metro Stare Bielany","spot":"1","number":"9407","bikes":"23","bike_racks":"30","free_racks":"7","terminal_type":"7inch","bike_numbers":"24993,28260,27973,27950,27683,27263,27098,26663,26575,26284,26168,25930,25704,25522,25499,25295,25077,29142,28776,28973,28986,96502,96483","bike_types":{"4":22,"0":1},"place_type":"0","rack_locks":"1"},{"uid":"2585272","lat":"52.2361217","lng":"21.0219096","name":"Ordynacka - Uniwersytet Muzyczny","spot":"1","number":"9408","bikes":"13","bike_racks":"20","free_racks":"7","terminal_type":"7inch","bike_numbers":"24996,28734,28534,28142,27854,27828,27429,26934,26841,26469,25355,29648,29124","bike_types":{"4":12,"0":1},"place_type":"0","rack_locks":"1"},{"uid":"2585273","lat":"52.2768774","lng":"20.9481302","name":"Bielany-Ratusz","spot":"1","number":"9409","bikes":"23","bike_racks":"28","free_racks":"4","terminal_type":"7inch","bike_numbers":"24492,28610,28316,28196,27041,26633,26562,26486,26443,26100,26006,25740,25633,25436,25433,25239,29050,96575,96573,96359,96320,96270,96266","bike_types":{"51":1,"4":22},"place_type":"0","rack_locks":"1"},{"uid":"2585275","lat":"52.2761569","lng":"20.9616673","name":"Metro S\u0142odowiec","spot":"1","number":"9410","bikes":"28","bike_racks":"30","free_racks":"2","terminal_type":"7inch","bike_numbers":"24884,24713,24596,24559,24009,28524,28424,28217,27713,27691,26905,26735,26018,25991,25970,25969,25795,25555,29419,29553,96044,96358,96357,96352,96263,96247,96203,96122","bike_types":{"4":27,"26":1},"place_type":"0","rack_locks":"1"},{"uid":"2585278","lat":"52.2777751","lng":"20.9856999","name":"Potocka - OSiR \u017boliborz","spot":"1","number":"9411","bikes":"14","bike_racks":"15","free_racks":"1","terminal_type":"7inch","bike_numbers":"24921,24616,24549,28155,27673,27584,27116,26965,26680,26606,26539,25461,25353,25083","bike_types":{"4":14},"place_type":"0","rack_locks":"1"},{"uid":"2585280","lat":"52.273527782989","lng":"20.994186401367","name":"Gwia\u017adzista - Promyka","spot":"1","number":"9412","bikes":"8","bike_racks":"16","free_racks":"8","terminal_type":"7inch","bike_numbers":"24818,24532,27861,27282,26778,26371,26222,96032","bike_types":{"4":8},"place_type":"0","rack_locks":"1"},{"uid":"2585281","lat":"52.270941","lng":"20.9326269","name":"al. Reymonta - Conrada","spot":"1","number":"9413","bikes":"25","bike_racks":"30","free_racks":"5","terminal_type":"7inch","bike_numbers":"24934,24846,24661,24574,28822,28029,27997,27996,27841,27726,26692,26462,26286,26101,26090,26081,26017,25260,25197,25115,25075,28981,96550,96479,96305","bike_types":{"4":25},"place_type":"0","rack_locks":"1"},{"uid":"2585283","lat":"52.2706441","lng":"20.9504181","name":"Broniewskiego - Perzy\u0144skiego","spot":"1","number":"9414","bikes":"3","bike_racks":"16","free_racks":"13","terminal_type":"7inch","bike_numbers":"28141,26925,25931","bike_types":{"4":3},"place_type":"0","rack_locks":"1"},{"uid":"2585284","lat":"52.2714203","lng":"20.9727099","name":"Metro Marymont","spot":"1","number":"9415","bikes":"15","bike_racks":"30","free_racks":"15","terminal_type":"7inch","bike_numbers":"24750,24491,28775,28212,27696,27624,27328,27161,26599,26381,25400,25399,25351,28960,96024","bike_types":{"4":14,"51":1},"place_type":"0","rack_locks":"1"},{"uid":"2585285","lat":"52.2694081","lng":"20.9833664","name":"Metro Plac Wilsona","spot":"1","number":"9416","bikes":"17","bike_racks":"21","free_racks":"3","terminal_type":"7inch","bike_numbers":"24966,24926,24783,24513,28599,28554,28056,28017,26815,25974,25932,29020,28829,96424,96419,96124,29150","bike_types":{"4":17},"place_type":"0","rack_locks":"1"},{"uid":"2585286","lat":"52.2668623","lng":"20.9637032","name":"Broniewskiego - W\u0142o\u015bcia\u0144ska","spot":"1","number":"9417","bikes":"17","bike_racks":"19","free_racks":"2","terminal_type":"7inch","bike_numbers":"24974,24967,24864,28905,28096,27887,27871,27802,26491,26297,25695,25599,25520,25474,25457,28918,29183","bike_types":{"4":17},"place_type":"0","rack_locks":"1"},{"uid":"2585288","lat":"52.2643984","lng":"20.9723179","name":"Broniewskiego - Krasi\u0144skiego","spot":"1","number":"9418","bikes":"9","bike_racks":"16","free_racks":"7","maintenance":"1","terminal_type":"7inch","bike_numbers":"24960,24870,28398,27786,26770,26042,96548,96495,96076","bike_types":{"4":9},"place_type":"0","rack_locks":"1"},{"uid":"2585289","lat":"52.267875","lng":"21.0020667","name":"Wybrze\u017ce Gdy\u0144skie - KS Sp\u00f3jnia","spot":"1","number":"9419","bikes":"8","bike_racks":"15","free_racks":"7","terminal_type":"7inch","bike_numbers":"25004,28904,28560,28414,27952,27756,26238,25793","bike_types":{"4":8},"place_type":"0","rack_locks":"1"},{"uid":"2585291","lat":"52.2624054","lng":"20.9802551","name":"Plac Grunwaldzki","spot":"1","number":"9420","bikes":"26","bike_racks":"30","free_racks":"4","terminal_type":"7inch","bike_numbers":"24820,24746,24700,24696,24032,28499,28036,28022,27438,27422,27074,27037,26946,26624,26620,26610,26519,26468,26432,25999,25984,25819,25605,96452,29148,96582","bike_types":{"4":25,"26":1},"place_type":"0","rack_locks":"1"},{"uid":"2585296","lat":"52.2612575","lng":"20.9863191","name":"Zaj\u0105czka - Bitwy Pod Rokitn\u0105","spot":"1","number":"9421","bikes":"9","bike_racks":"15","free_racks":"7","terminal_type":"7inch","bike_numbers":"24964,27053,26544,25618,25588,29038,29012,28842,96497","bike_types":{"4":9},"place_type":"0","rack_locks":"1"},{"uid":"2585297","lat":"52.2645018","lng":"20.9895998","name":"Plac Inwalid\u00f3w","spot":"1","number":"9422","bikes":"9","bike_racks":"15","free_racks":"6","terminal_type":"7inch","bike_numbers":"24467,28362,28111,27785,27308,25842,25612,25283,25133","bike_types":{"51":1,"4":8},"place_type":"0","rack_locks":"1"},{"uid":"2585299","lat":"52.258245356688","lng":"20.898613929749","name":"P\u0119tla Stare Bemowo","spot":"1","number":"9423","bikes":"16","bike_racks":"21","free_racks":"4","terminal_type":"7inch","bike_numbers":"24866,24567,28710,28514,27934,27299,27151,27028,26449,26213,25889,25706,25301,25216,25160,25073","bike_types":{"4":16},"place_type":"0","rack_locks":"1"},{"uid":"2585301","lat":"52.260895125763","lng":"20.923923254013","name":"P\u0119tla Nowe Bemowo","spot":"1","number":"9424","bikes":"23","bike_racks":"25","free_racks":"2","terminal_type":"7inch","bike_numbers":"27919,27380,27236,27164,29066,28941,96418,96377,96376,96375,96374,96335,96321,96314,96301,96297,96254,96233,96232,96228,96227,96206,96111","bike_types":{"4":23},"place_type":"0","rack_locks":"1"},{"uid":"2585304","lat":"52.2575903","lng":"20.9323374","name":"Obro\u0144c\u00f3w Tobruku - Pieni\u0105\u017cka","spot":"1","number":"9425","bikes":"5","bike_racks":"12","free_racks":"6","terminal_type":"7inch","bike_numbers":"24728,27581,27072,29111,96273","bike_types":{"4":5},"place_type":"0","rack_locks":"1"},{"uid":"2585305","lat":"52.2593225","lng":"20.9605511","name":"Pow\u0105zkowska - Krasi\u0144skiego","spot":"1","number":"9426","bikes":"23","bike_racks":"23","free_racks":"0","terminal_type":"7inch","bike_numbers":"24844,24665,24646,27657,27617,27459,26938,26536,26525,26480,26216,26098,25840,25674,25306,25019,29654,96521,96487,96240,96212,96151,96127","bike_types":{"4":23},"place_type":"0","rack_locks":"1"},{"uid":"2585306","lat":"52.2563145","lng":"20.9682307","name":"Pow\u0105zkowska - Plac Niemena","spot":"1","number":"9427","bikes":"10","bike_racks":"16","free_racks":"6","terminal_type":"7inch","bike_numbers":"24489,24471,28821,25458,25041,29657,28852,96534,96366,96330","bike_types":{"51":2,"4":8},"place_type":"0","rack_locks":"1"},{"uid":"2585307","lat":"52.258524460024","lng":"20.970931649208","name":"Przasnyska - Rydygiera","spot":"1","number":"9428","bikes":"13","bike_racks":"15","free_racks":"2","terminal_type":"7inch","bike_numbers":"24604,24560,28256,27911,27847,26592,26005,25384,25332,25302,29444,28834,96142","bike_types":{"4":13},"place_type":"0","rack_locks":"1"},{"uid":"2585308","lat":"52.253594","lng":"20.9798744","name":"Pow\u0105zkowska - Burakowska","spot":"1","number":"9429","bikes":"10","bike_racks":"20","free_racks":"9","terminal_type":"7inch","bike_numbers":"28006,27196,26353,25771,25183,29213,29047,29649,96302,96140","bike_types":{"4":10},"place_type":"0","rack_locks":"1"},{"uid":"2585311","lat":"52.2576018","lng":"20.9944975","name":"Metro Dworzec Gda\u0144ski","spot":"1","number":"9430","bikes":"24","bike_racks":"30","free_racks":"6","terminal_type":"7inch","bike_numbers":"24894,24510,28724,28693,28578,28537,28282,28073,27910,27812,27541,27376,27046,27035,27017,26998,26765,26118,25825,25021,29386,96546,96298,29175","bike_types":{"4":24},"place_type":"0","rack_locks":"1"},{"uid":"2585315","lat":"52.2465952","lng":"20.9429216","name":"Obozowa - Cio\u0142ka","spot":"1","number":"9432","bikes":"8","bike_racks":"13","free_racks":"5","terminal_type":"7inch","bike_numbers":"24688,27076,26261,26032,25293,29026,96300,96110","bike_types":{"4":8},"place_type":"0","rack_locks":"1"},{"uid":"2585317","lat":"52.227621983552","lng":"20.956758856773","name":"al. Prymasa Tysi\u0105clecia - Kasprzaka","spot":"1","number":"9433","bikes":"16","bike_racks":"23","free_racks":"7","terminal_type":"7inch","bike_numbers":"24942,24019,28726,28687,28656,28192,27707,27534,27049,26705,26041,26001,25742,25323,96558,96093","bike_types":{"4":15,"26":1},"place_type":"0","rack_locks":"1"},{"uid":"2585319","lat":"52.246037","lng":"20.962463","name":"Obozowa - Radziwie","spot":"1","number":"9434","bikes":"8","bike_racks":"13","free_racks":"6","terminal_type":"7inch","bike_numbers":"24508,27446,27070,26944,26405,29652,96524,96272","bike_types":{"4":8},"place_type":"0","rack_locks":"1"},{"uid":"2585321","lat":"52.2514708","lng":"20.9857053","name":"al. Jana Paw\u0142a II - Stawki","spot":"1","number":"9435","bikes":"11","bike_racks":"23","free_racks":"11","terminal_type":"7inch","bike_numbers":"24895,28528,27976,27054,26837,26438,25560,25072,25052,29372,29426","bike_types":{"4":11},"place_type":"0","rack_locks":"1"},{"uid":"2585323","lat":"52.2535305","lng":"20.9924922","name":"Stawki - Dubois","spot":"1","number":"9436","bikes":"7","bike_racks":"13","free_racks":"6","terminal_type":"7inch","bike_numbers":"24776,26473,25925,25500,25338,25132,25110","bike_types":{"4":7},"place_type":"0","rack_locks":"1"},{"uid":"2585326","lat":"52.2541702","lng":"20.9980649","name":"Andersa - Muranowska","spot":"1","number":"9437","bikes":"23","bike_racks":"30","free_racks":"7","terminal_type":"7inch","bike_numbers":"24529,28441,28213,28114,28016,27867,27797,27702,26887,26813,26721,26627,26357,26206,26133,26102,25579,25525,25459,25394,25091,96037,96269","bike_types":{"4":23},"place_type":"0","rack_locks":"1"},{"uid":"2585327","lat":"52.255877","lng":"21.0099819","name":"Sanguszki - Wybrze\u017ce Gda\u0144skie","spot":"1","number":"9438","bikes":"26","bike_racks":"28","free_racks":"2","terminal_type":"7inch","bike_numbers":"24804,24663,25009,28494,28268,28093,28053,27965,27924,27846,27703,27630,27480,27398,27234,27097,27083,26762,26617,25822,25387,25256,25223,25186,29135,28855","bike_types":{"4":25,"0":1},"place_type":"0","rack_locks":"1"},{"uid":"2585328","lat":"52.252175","lng":"20.923692","name":"Wroc\u0142awska \u2013 Bailly","spot":"1","number":"9439","bikes":"22","bike_racks":"27","free_racks":"5","terminal_type":"7inch","bike_numbers":"24721,26395,26011,96007,96519,96488,96384,96351,96343,96332,96317,96290,96285,96256,96245,96242,96217,96216,96194,96188,96168,96153","bike_types":{"4":22},"place_type":"0","rack_locks":"1"},{"uid":"2585330","lat":"52.24418","lng":"20.97794","name":"Okopowa - Anielewicza","spot":"1","number":"9440","bikes":"17","bike_racks":"20","free_racks":"3","terminal_type":"7inch","bike_numbers":"24832,24719,27633,27222,27146,26800,26674,26553,26154,26028,25972,25804,25749,25563,25324,96544,96543","bike_types":{"4":17},"place_type":"0","rack_locks":"1"},{"uid":"2585333","lat":"52.2486","lng":"20.98352","name":"Smocza - Mi\u0142a","spot":"1","number":"9441","bikes":"9","bike_racks":"15","free_racks":"6","terminal_type":"7inch","bike_numbers":"24874,24826,24505,28624,27557,27218,26047,25937,25290","bike_types":{"4":9},"place_type":"0","rack_locks":"1"},{"uid":"2585334","lat":"52.24616","lng":"20.98538","name":"Smocza - Anielewicza","spot":"1","number":"9442","bikes":"6","bike_racks":"17","free_racks":"10","terminal_type":"7inch","bike_numbers":"24528,28305,28049,27093,26759,29179","bike_types":{"4":6},"place_type":"0","rack_locks":"1"},{"uid":"2585335","lat":"52.247226","lng":"20.9893155","name":"al. Jana Paw\u0142a II - Anielewicza","spot":"1","number":"9443","bikes":"12","bike_racks":"22","free_racks":"11","terminal_type":"7inch","bike_numbers":"24931,24855,28692,28149,27735,26776,26471,26406,25913,25478,25268,96190","bike_types":{"4":12},"place_type":"0","rack_locks":"1"},{"uid":"2585337","lat":"52.249052","lng":"20.9948923","name":"Anielewicza - Zamenhofa","spot":"1","number":"9444","bikes":"11","bike_racks":"15","free_racks":"4","terminal_type":"7inch","bike_numbers":"24636,28535,28449,28046,26110,25644,25440,25102,25089,96295,29272","bike_types":{"4":11},"place_type":"0","rack_locks":"1"},{"uid":"2585338","lat":"52.2492196","lng":"20.9971878","name":"Anielewicza - Andersa","spot":"1","number":"9445","bikes":"12","bike_racks":"18","free_racks":"6","terminal_type":"7inch","bike_numbers":"24724,24595,28035,27857,27250,27050,26786,26231,25929,29104,29011,29121","bike_types":{"4":11,"0":1},"place_type":"0","rack_locks":"1"},{"uid":"2585340","lat":"52.251549","lng":"21.002749","name":"Bonifraterska - Franciszka\u0144ska","spot":"1","number":"9446","bikes":"12","bike_racks":"16","free_racks":"4","terminal_type":"7inch","bike_numbers":"24976,24918,24455,24036,27993,27844,26830,26372,26172,25438,25297,29339","bike_types":{"4":10,"51":1,"54":1},"place_type":"0","rack_locks":"1"},{"uid":"2585342","lat":"52.2541119","lng":"21.0093342","name":"Ko\u015bcielna - Piesza","spot":"1","number":"9448","bikes":"19","bike_racks":"26","free_racks":"6","terminal_type":"7inch","bike_numbers":"24948,24668,24010,28772,28717,28488,28446,27994,27949,27876,27843,27642,26746,26246,26211,28826,28965,96313,96591","bike_types":{"4":18,"26":1},"place_type":"0","rack_locks":"1"},{"uid":"2585344","lat":"52.2392622","lng":"20.8987641","name":"P\u0119tla Os. G\u00f3rczewska","spot":"1","number":"9449","bikes":"9","bike_racks":"15","free_racks":"6","terminal_type":"7inch","bike_numbers":"27818,26411,25892,25801,25696,96031,96568,96477,96174","bike_types":{"4":9},"place_type":"0","rack_locks":"1"},{"uid":"2585345","lat":"52.2389287","lng":"20.9139535","name":"Bemowo-Ratusz","spot":"1","number":"9450","bikes":"19","bike_racks":"20","free_racks":"1","terminal_type":"7inch","bike_numbers":"24975,24602,28701,28310,28146,28131,26279,26185,26171,25906,25480,25137,96416,96310,96164,96126,96125,96116,96099","bike_types":{"4":19},"place_type":"0","rack_locks":"1"},{"uid":"2585346","lat":"52.2387861","lng":"20.9424946","name":"Okocimska - Olbrachta","spot":"1","number":"9451","bikes":"16","bike_racks":"18","free_racks":"3","terminal_type":"7inch","bike_numbers":"24822,28887,28376,27504,26950,26671,26179,25379,25145,96003,96562,96440,96423,96304,96296,96221","bike_types":{"4":16},"place_type":"0","rack_locks":"1"},{"uid":"2585349","lat":"52.2506241","lng":"21.0533611","name":"Dworzec Wschodni - Lubelska","spot":"1","number":"9452","bikes":"14","bike_racks":"15","free_racks":"1","terminal_type":"7inch","bike_numbers":"28694,28439,28368,27611,27499,27361,27172,26615,25593,25431,25169,25056,29158,29152","bike_types":{"4":14},"place_type":"0","rack_locks":"1"},{"uid":"2585351","lat":"52.2369249","lng":"20.9723559","name":"Leszno - M\u0142ynarska","spot":"1","number":"9453","bikes":"1","bike_racks":"30","free_racks":"28","terminal_type":"7inch","bike_numbers":"26136","bike_types":{"4":1},"place_type":"0","rack_locks":"1"},{"uid":"2585352","lat":"52.2430451","lng":"20.9803864","name":"Dzielna - Bellottiego","spot":"1","number":"9454","bikes":"7","bike_racks":"13","free_racks":"6","terminal_type":"7inch","bike_numbers":"27932,26744,25547,29141,25622,29208,29221","bike_types":{"4":6,"0":1},"place_type":"0","rack_locks":"1"},{"uid":"2585353","lat":"52.24108","lng":"20.98316","name":"Wolno\u015b\u0107 - Bellottiego","spot":"1","number":"9455","bikes":"0","bike_racks":"16","free_racks":"16","terminal_type":"7inch","place_type":"0","rack_locks":"1","bike_numbers":null,"bike_types":[]},{"uid":"2585354","lat":"52.2435448","lng":"20.9873507","name":"Smocza - Nowolipki","spot":"1","number":"9456","bikes":"12","bike_racks":"16","free_racks":"5","terminal_type":"7inch","bike_numbers":"27286,27051,26554,26503,26322,26166,26062,25835,29022,96564,96456,96104","bike_types":{"4":12},"place_type":"0","rack_locks":"1"},{"uid":"2585356","lat":"52.2445767","lng":"20.99177","name":"al. Jana Paw\u0142a II - Nowolipki","spot":"1","number":"9457","bikes":"2","bike_racks":"16","free_racks":"13","terminal_type":"7inch","bike_numbers":"27170,25933","bike_types":{"4":2},"place_type":"0","rack_locks":"1"},{"uid":"2585358","lat":"52.22868","lng":"20.91509","name":"Powsta\u0144c\u00f3w \u015al\u0105skich - Cz\u0142uchowska","spot":"1","number":"9458","bikes":"17","bike_racks":"16","free_racks":"1","terminal_type":"7inch","bike_numbers":"24742,28652,27963,27900,27894,27738,26564,26508,26248,25788,25694,25682,25446,25398,25184,29119,29123","bike_types":{"4":16,"0":1},"place_type":"0","rack_locks":"1"},{"uid":"2585360","lat":"52.2342032","lng":"20.934689","name":"Jana Olbrachta - Antka Rozpylacza","spot":"1","number":"9459","bikes":"7","bike_racks":"13","free_racks":"6","terminal_type":"7inch","bike_numbers":"28643,25320,29134,96444,96425,96080,96077","bike_types":{"4":7},"place_type":"0","rack_locks":"1"},{"uid":"2585364","lat":"52.2401623","lng":"20.9877277","name":"Wola-Ratusz","spot":"1","number":"9460","bikes":"3","bike_racks":"15","free_racks":"12","terminal_type":"7inch","bike_numbers":"27921,26497,25635","bike_types":{"4":3},"place_type":"0","rack_locks":"1"},{"uid":"2585368","lat":"52.2445326","lng":"20.99998","name":"Plac Bankowy - Kino Muran\u00f3w","spot":"1","number":"9462","bikes":"11","bike_racks":"17","free_racks":"7","terminal_type":"7inch","bike_numbers":"24890,24015,28543,28453,28338,27431,25339,96397,29211,29279,24049","bike_types":{"4":9,"26":2},"place_type":"0","rack_locks":"1"},{"uid":"2585369","lat":"52.2449465","lng":"21.0012943","name":"Andersa - D\u0142uga","spot":"1","number":"9463","bikes":"11","bike_racks":"30","free_racks":"19","terminal_type":"7inch","bike_numbers":"24723,24577,28765,28418,27604,27264,26684,25856,25624,96030,96294","bike_types":{"4":11},"place_type":"0","rack_locks":"1"},{"uid":"2585370","lat":"52.2442666","lng":"21.0015893","name":"Marsza\u0142kowska - al. Solidarno\u015bci","spot":"1","number":"9464","bikes":"24","bike_racks":"30","free_racks":"6","terminal_type":"7inch","bike_numbers":"24609,24522,24022,24012,28747,28615,28558,28471,27833,27664,27586,27540,27506,27321,26793,26727,26509,26507,26293,25946,25683,25518,25451,96166","bike_types":{"4":22,"26":2},"place_type":"0","rack_locks":"1"},{"uid":"2585371","lat":"52.2431975","lng":"21.0016603","name":"Plac Bankowy - Ratusz","spot":"1","number":"9465","bikes":"27","bike_racks":"30","free_racks":"3","terminal_type":"7inch","bike_numbers":"24850,24682,24591,28547,28315,28293,28136,27939,27820,27768,27729,27370,27113,26773,26224,26077,26014,25963,25687,25020,29200,96059,96574,96450,96410,96390,29165","bike_types":{"4":27},"place_type":"0","rack_locks":"1"},{"uid":"2585373","lat":"52.2435719","lng":"21.0066801","name":"Senatorska - Biela\u0144ska","spot":"1","number":"9466","bikes":"20","bike_racks":"17","free_racks":"0","terminal_type":"7inch","bike_numbers":"24971,24530,28755,28703,28021,27772,26997,26919,26842,26787,26747,26069,26002,25934,25162,25105,29345,28936,96436,96095","bike_types":{"4":20},"place_type":"0","rack_locks":"1"},{"uid":"2585377","lat":"52.246314509834","lng":"21.0113042593","name":"Miodowa","spot":"1","number":"9467","bikes":"29","bike_racks":"24","free_racks":"0","terminal_type":"7inch","bike_numbers":"24972,24856,24020,28646,27795,27705,27606,27545,26968,26501,26442,26247,25824,25681,25606,25550,25516,25408,25203,25113,29342,29063,29023,29455,29644,96246,96222,96204,96086","bike_types":{"4":28,"26":1},"place_type":"0","rack_locks":"1"},{"uid":"2585378","lat":"52.2435965","lng":"21.0140803","name":"Krakowskie Przedmie\u015bcie - Tr\u0119backa","spot":"1","number":"9468","bikes":"11","bike_racks":"14","free_racks":"3","terminal_type":"7inch","bike_numbers":"24030,28548,27621,27592,26789,26445,25753,25264,25243,25207,29073","bike_types":{"26":1,"4":10},"place_type":"0","rack_locks":"1"},{"uid":"2585379","lat":"52.2465625","lng":"21.0174345","name":"Mariensztat","spot":"1","number":"9469","bikes":"19","bike_racks":"15","free_racks":"0","terminal_type":"7inch","bike_numbers":"24475,28521,28505,27905,27877,27701,27544,27413,27314,26918,25862,25592,25467,29344,29117,29091,29054,28970,29163","bike_types":{"51":1,"4":18},"place_type":"0","rack_locks":"1"},{"uid":"2585381","lat":"52.224934","lng":"20.945489","name":"Jana Kazimierza - Giz\u00f3w","spot":"1","number":"9471","bikes":"9","bike_racks":"13","free_racks":"4","terminal_type":"7inch","bike_numbers":"28428,28072,27593,26360,26040,25485,96022,96276,96106","bike_types":{"4":9},"place_type":"0","rack_locks":"1"},{"uid":"2585385","lat":"52.2299137","lng":"20.9508179","name":"Wolska - Elekcyjna","spot":"1","number":"9472","bikes":"16","bike_racks":"20","free_racks":"4","terminal_type":"7inch","bike_numbers":"24586,28309,28083,27870,27133,26912,26598,26545,26483,26390,25613,25079,28808,96547,96422,96103","bike_types":{"4":16},"place_type":"0","rack_locks":"1"},{"uid":"2585387","lat":"52.237662392829","lng":"20.955492854118","name":"al. Prymasa Tysi\u0105clecia - G\u00f3rczewska","spot":"1","number":"9473","bikes":"16","bike_racks":"20","free_racks":"4","terminal_type":"7inch","bike_numbers":"24628,24023,28487,28320,27089,26962,26893,26318,25873,25732,25344,96531,96514,96511,96170,96131","bike_types":{"4":15,"26":1},"place_type":"0","rack_locks":"1"},{"uid":"2585389","lat":"52.2333374","lng":"20.9652776","name":"Wolska - P\u0142ocka","spot":"1","number":"9474","bikes":"7","bike_racks":"15","free_racks":"8","terminal_type":"7inch","bike_numbers":"26522,29126,96438,96381,96370,96244,29156","bike_types":{"4":6,"0":1},"place_type":"0","rack_locks":"1"},{"uid":"2585391","lat":"52.228522296173","lng":"20.969638824463","name":"Kasprzaka - Skierniewicka","spot":"1","number":"9475","bikes":"20","bike_racks":"21","free_racks":"2","terminal_type":"7inch","bike_numbers":"24526,28060,27501,27162,27062,26451,26299,25026,29070,28950,29647,28854,28911,96057,96467,96441,96348,96154,96139,96092","bike_types":{"4":20},"place_type":"0","rack_locks":"1"},{"uid":"2585394","lat":"52.22898","lng":"20.97843","name":"Kasprzaka - Karolkowa","spot":"1","number":"9476","bikes":"10","bike_racks":"15","free_racks":"5","terminal_type":"7inch","bike_numbers":"24911,28731,28538,28158,26834,25471,28908,96415,96172,29206","bike_types":{"4":10},"place_type":"0","rack_locks":"1"},{"uid":"2585396","lat":"52.2328752","lng":"20.9805411","name":"Muzeum Powstania Warszawskiego","spot":"1","number":"9477","bikes":"10","bike_racks":"10","free_racks":"0","terminal_type":"7inch","bike_numbers":"24029,28498,26742,26152,26051,25156,25043,29113,29102,96189","bike_types":{"26":1,"4":9},"place_type":"0","rack_locks":"1"},{"uid":"2585398","lat":"52.22983","lng":"20.983123","name":"Metro Rondo Daszy\u0144skiego","spot":"1","number":"9478","bikes":"12","bike_racks":"26","free_racks":"14","terminal_type":"7inch","bike_numbers":"28561,27228,26859,26756,26655,26105,25308,25279,25090,28865,96459,96169","bike_types":{"4":12},"place_type":"0","rack_locks":"1"},{"uid":"2585400","lat":"52.23145","lng":"20.98869","name":"Prosta - Wronia","spot":"1","number":"9479","bikes":"4","bike_racks":"15","free_racks":"11","terminal_type":"7inch","bike_numbers":"27764,27565,26495,96327","bike_types":{"4":4},"place_type":"0","rack_locks":"1"},{"uid":"2585401","lat":"52.2373141","lng":"20.9888488","name":"\u017belazna - Ch\u0142odna","spot":"1","number":"9480","bikes":"10","bike_racks":"15","free_racks":"4","terminal_type":"7inch","bike_numbers":"28517,27295,26583,25586,25437,29039,28909,28861,96303,96176","bike_types":{"4":10},"place_type":"0","rack_locks":"1"},{"uid":"2585402","lat":"52.2344946","lng":"20.9905117","name":"\u017belazna - Grzybowska","spot":"1","number":"9481","bikes":"8","bike_racks":"20","free_racks":"12","terminal_type":"7inch","bike_numbers":"24944,24734,24730,24017,28773,27016,26092,25311","bike_types":{"4":7,"26":1},"place_type":"0","rack_locks":"1"},{"uid":"2585405","lat":"52.238666","lng":"20.9957314","name":"al. Jana Paw\u0142a II - Plac Mirowski","spot":"1","number":"9482","bikes":"3","bike_racks":"16","free_racks":"13","terminal_type":"7inch","bike_numbers":"28882,26144,25402","bike_types":{"4":3},"place_type":"0","rack_locks":"1"},{"uid":"2585406","lat":"52.2357151","lng":"20.9966071","name":"al. Jana Paw\u0142a II - Grzybowska","spot":"1","number":"9483","bikes":"19","bike_racks":"23","free_racks":"6","terminal_type":"7inch","bike_numbers":"24977,24930,24658,24497,25000,28768,28636,27830,27505,27293,27277,26875,26611,26439,26415,29035,96466,96208,96097","bike_types":{"4":18,"51":1},"place_type":"0","rack_locks":"1"},{"uid":"2585410","lat":"52.23958","lng":"21.00027","name":"Ptasia - Zimna","spot":"1","number":"9485","bikes":"7","bike_racks":"16","free_racks":"9","terminal_type":"7inch","bike_numbers":"24978,28317,26256,26033,25935,25341,96213","bike_types":{"4":7},"place_type":"0","rack_locks":"1"},{"uid":"2585412","lat":"52.2336314","lng":"21.0028795","name":"Emilii Plater - \u015awi\u0119tokrzyska","spot":"1","number":"9486","bikes":"22","bike_racks":"26","free_racks":"5","terminal_type":"7inch","bike_numbers":"24831,24648,24607,28303,27679,27468,27266,26591,26542,26397,26307,26124,25820,25786,25462,25413,25371,25303,25221,96551,96461,96361","bike_types":{"4":22},"place_type":"0","rack_locks":"1"},{"uid":"2585413","lat":"52.2358704","lng":"21.0037806","name":"Plac Grzybowski","spot":"1","number":"9487","bikes":"19","bike_racks":"26","free_racks":"5","terminal_type":"7inch","bike_numbers":"24907,24664,24523,24026,28540,28071,27767,27600,27391,27007,25985,25615,25539,25426,25241,25176,96387,96308,29203","bike_types":{"4":18,"26":1},"place_type":"0","rack_locks":"1"},{"uid":"2585416","lat":"52.2384853","lng":"21.0067552","name":"Marsza\u0142kowska - Kr\u00f3lewska","spot":"1","number":"9488","bikes":"10","bike_racks":"19","free_racks":"9","terminal_type":"7inch","bike_numbers":"24640,24040,24001,27394,27002,26119,25916,25294,25258,25106","bike_types":{"4":8,"26":2},"place_type":"0","rack_locks":"1"},{"uid":"2585417","lat":"52.2364206","lng":"21.0072407","name":"Marsza\u0142kowska - Zielna","spot":"1","number":"9489","bikes":"18","bike_racks":"30","free_racks":"10","terminal_type":"7inch","bike_numbers":"24847,24701,24548,24521,24482,28333,27856,27832,27778,27512,27496,27008,26867,26170,25365,25204,25188,28944","bike_types":{"4":17,"51":1,"16":1},"place_type":"0","rack_locks":"1"},{"uid":"2585420","lat":"52.2397008","lng":"21.0119292","name":"Plac Ma\u0142achowskiego","spot":"1","number":"9491","bikes":"16","bike_racks":"16","free_racks":"0","terminal_type":"7inch","bike_numbers":"24765,24694,24479,28899,28019,28015,27090,26880,26159,25895,25356,29445,96545,96474,29187,29210","bike_types":{"4":15,"51":1},"place_type":"0","rack_locks":"1"},{"uid":"2585422","lat":"52.2359114","lng":"21.0135654","name":"Plac Powsta\u0144c\u00f3w Warszawy","spot":"1","number":"9492","bikes":"17","bike_racks":"20","free_racks":"3","terminal_type":"7inch","bike_numbers":"24005,28721,28252,27414,26884,26431,26191,25854,25724,25653,25425,25278,29349,29080,28954,29387,28995","bike_types":{"26":1,"4":16},"place_type":"0","rack_locks":"1"},{"uid":"2585423","lat":"52.2393559","lng":"21.016603","name":"Krakowskie Przedmie\u015bcie - Traugutta","spot":"1","number":"9493","bikes":"11","bike_racks":"24","free_racks":"13","terminal_type":"7inch","bike_numbers":"24956,24824,28263,28138,27804,27119,27091,26783,26026,25847,96275","bike_types":{"4":11},"place_type":"0","rack_locks":"1"},{"uid":"2585429","lat":"52.238298","lng":"21.0184014","name":"Obo\u017ana - Kopernika","spot":"1","number":"9495","bikes":"10","bike_racks":"22","free_racks":"12","terminal_type":"7inch","bike_numbers":"28681,28469,28130,27884,26000,25851,25713,25432,28841,96283","bike_types":{"4":10},"place_type":"0","rack_locks":"1"},{"uid":"2585430","lat":"52.2418852","lng":"21.0241279","name":"Lipowa - Dobra","spot":"1","number":"9496","bikes":"25","bike_racks":"19","free_racks":"0","terminal_type":"7inch","bike_numbers":"24766,24517,28501,28405,28281,27808,27641,27272,27036,26528,26162,26075,25912,25900,25863,25741,25705,25641,25620,29027,29002,29446,25961,96386,29216","bike_types":{"4":25},"place_type":"0","rack_locks":"1"},{"uid":"2585431","lat":"52.2413087","lng":"21.0281727","name":"Centrum Nauki Kopernik","spot":"1","number":"9497","bikes":"19","bike_racks":"30","free_racks":"11","terminal_type":"7inch","bike_numbers":"24615,28391,28265,27827,26876,26219,25992,25939,25445,96501,96428,96090,29191,29174,29171,29162,29161,29159,29157","bike_types":{"4":19},"place_type":"0","rack_locks":"1"},{"uid":"2585432","lat":"52.2264464","lng":"20.9837164","name":"Kolejowa","spot":"1","number":"9498","bikes":"2","bike_racks":"16","free_racks":"14","terminal_type":"7inch","bike_numbers":"24033,26187","bike_types":{"26":1,"4":1},"place_type":"0","rack_locks":"1"},{"uid":"2585433","lat":"52.22983","lng":"20.993996","name":"\u017belazna - Sienna","spot":"1","number":"9499","bikes":"18","bike_racks":"24","free_racks":"5","terminal_type":"7inch","bike_numbers":"24937,27860,27829,27769,27720,27408,27243,27012,27004,26872,26821,26103,25463,25456,29365,28987,29173,24053","bike_types":{"4":17,"26":1},"place_type":"0","rack_locks":"1"},{"uid":"2585435","lat":"52.230201297582","lng":"20.999550819397","name":"al. Jana Paw\u0142a II - Z\u0142ota","spot":"1","number":"9500","bikes":"3","bike_racks":"16","free_racks":"14","terminal_type":"7inch","bike_numbers":"26966,26320,29441","bike_types":{"4":3},"place_type":"0","rack_locks":"1"},{"uid":"2585438","lat":"52.2309778","lng":"21.0036755","name":"Emilii Plater - Z\u0142ota","spot":"1","number":"9501","bikes":"24","bike_racks":"30","free_racks":"13","terminal_type":"7inch","bike_numbers":"24751,28108,28025,27513,27510,27453,27359,27216,26957,26195,25422,25390,25212,25155,29067,28875,96050,96029,96572,96565,96506,96492,96485,96412","bike_types":{"4":24},"place_type":"0","rack_locks":"1"},{"uid":"2585440","lat":"52.232816601853","lng":"21.006980538368","name":"Pa\u0142ac Kultury i Nauki","spot":"1","number":"9502","bikes":"7","bike_racks":"17","free_racks":"10","terminal_type":"7inch","bike_numbers":"28602,27815,25857,25757,96493,96385,96368","bike_types":{"4":7},"place_type":"0","rack_locks":"1"},{"uid":"2585442","lat":"52.232934","lng":"21.0101791","name":"Marsza\u0142kowska - Z\u0142ota","spot":"1","number":"9503","bikes":"16","bike_racks":"22","free_racks":"7","terminal_type":"7inch","bike_numbers":"24880,24707,24021,28650,28502,28448,27317,27254,26971,26313,26181,26086,25504,25493,25094,96191","bike_types":{"4":15,"26":1},"place_type":"0","rack_locks":"1"},{"uid":"2585445","lat":"52.231987","lng":"21.016092","name":"Bracka - Krucza","spot":"1","number":"9504","bikes":"24","bike_racks":"20","free_racks":"1","terminal_type":"7inch","bike_numbers":"24982,24780,24630,25006,28804,28481,28153,27982,27848,27660,27469,27447,27381,26922,26720,26688,26367,26278,26083,25676,25218,96045,96432,29147","bike_types":{"4":24},"place_type":"0","rack_locks":"1"},{"uid":"2585446","lat":"52.2355713","lng":"21.0179642","name":"Nowy \u015awiat - Warecka","spot":"1","number":"9505","bikes":"20","bike_racks":"24","free_racks":"4","terminal_type":"7inch","bike_numbers":"24619,24506,28819,28612,28457,27942,27404,27205,27158,26007,25949,25540,25442,25367,25310,25032,29364,29122,96058,29149","bike_types":{"4":19,"0":1},"place_type":"0","rack_locks":"1"},{"uid":"2585447","lat":"52.2337571","lng":"21.0202789","name":"Ga\u0142czy\u0144skiego - Foksal","spot":"1","number":"9506","bikes":"13","bike_racks":"24","free_racks":"11","terminal_type":"7inch","bike_numbers":"24876,27312,26481,26420,25860,25465,29128,96128,29196,29195,29202,29227,29218","bike_types":{"4":12,"0":1},"place_type":"0","rack_locks":"1"},{"uid":"2585450","lat":"52.2375934","lng":"21.0256487","name":"Topiel - Tamka","spot":"1","number":"9507","bikes":"20","bike_racks":"20","free_racks":"0","terminal_type":"7inch","bike_numbers":"24795,24485,28286,28119,27655,27023,26252,26082,26044,26009,25739,25567,25529,25299,25227,25211,25039,29057,29190,24048","bike_types":{"4":18,"51":1,"26":1},"place_type":"0","rack_locks":"1"},{"uid":"2585452","lat":"52.2358752","lng":"21.0317323","name":"Solec - Jaracza","spot":"1","number":"9508","bikes":"19","bike_racks":"15","free_racks":"0","terminal_type":"7inch","bike_numbers":"24986,24790,24740,24016,28062,28047,27457,26729,26658,26368,26117,25701,25544,29360,28813,96324,96250,96138,29223","bike_types":{"4":18,"26":1},"place_type":"0","rack_locks":"1"},{"uid":"2585453","lat":"52.2218874","lng":"20.9795301","name":"al. Jerozolimskie - Niemcewicza","spot":"1","number":"9509","bikes":"10","bike_racks":"19","free_racks":"9","terminal_type":"7inch","bike_numbers":"24916,27796,27582,27253,26585,25277,25249,25143,25109,96236","bike_types":{"4":10},"place_type":"0","rack_locks":"1"},{"uid":"2585455","lat":"52.2222155","lng":"20.9866293","name":"Ochota-Ratusz","spot":"1","number":"9510","bikes":"3","bike_racks":"23","free_racks":"20","terminal_type":"7inch","bike_numbers":"25640,29105,96177","bike_types":{"4":3},"place_type":"0","rack_locks":"1"},{"uid":"2585457","lat":"52.2249718","lng":"20.9897661","name":"Plac Zawiszy","spot":"1","number":"9511","bikes":"15","bike_racks":"24","free_racks":"10","terminal_type":"7inch","bike_numbers":"24914,24787,28727,28459,27810,26980,26917,26722,25792,25723,25595,25449,25016,28912,96009","bike_types":{"4":15},"place_type":"0","rack_locks":"1"},{"uid":"2585460","lat":"52.22626","lng":"20.9961309","name":"al. Jerozolimskie - Lindleya","spot":"1","number":"9512","bikes":"12","bike_racks":"15","free_racks":"3","terminal_type":"7inch","bike_numbers":"28288,27610,27444,27026,26673,25870,25488,25468,25401,96048,96355,96105","bike_types":{"4":12},"place_type":"0","rack_locks":"1"},{"uid":"2585462","lat":"52.2241455","lng":"20.9975244","name":"Lindleya - szpital","spot":"1","number":"9513","bikes":"28","bike_racks":"28","free_racks":"0","terminal_type":"7inch","bike_numbers":"24643,28564,28276,28079,27837,27645,27577,27477,27251,26916,26549,26356,26048,26030,25978,25800,25778,25648,25484,29449,29456,28894,28989,96053,96006,96391,96362,96243","bike_types":{"4":28},"place_type":"0","rack_locks":"1"},{"uid":"2585464","lat":"52.227861","lng":"21.0008509","name":"Warszawa \u015ar\u00f3dmie\u015bcie WKD","spot":"1","number":"9514","bikes":"8","bike_racks":"18","free_racks":"10","terminal_type":"7inch","bike_numbers":"28719,28152,27788,27138,26607,26412,26079,25952","bike_types":{"4":8},"place_type":"0","rack_locks":"1"},{"uid":"2585466","lat":"52.2249555","lng":"21.0031664","name":"Oczki - WUM","spot":"1","number":"9515","bikes":"17","bike_racks":"19","free_racks":"1","terminal_type":"7inch","bike_numbers":"24806,24743,24563,24474,28735,28718,28291,27449,26475,25976,25316,25282,25144,29447,28974,96395,96353","bike_types":{"4":16,"51":1},"place_type":"0","rack_locks":"1"},{"uid":"2585469","lat":"52.2290464","lng":"21.0054544","name":"Emilii Plater - Al. Jerozolimskie","spot":"1","number":"9517","bikes":"17","bike_racks":"30","free_racks":"12","terminal_type":"7inch","bike_numbers":"27995,27744,27731,27678,27573,27561,27554,27240,26989,26447,26003,25193,25013,28833,28895,96507,96160","bike_types":{"4":17},"place_type":"0","rack_locks":"1"},{"uid":"2585470","lat":"52.2259343","lng":"21.0067537","name":"Emilii Plater - Wsp\u00f3lna","spot":"1","number":"9518","bikes":"7","bike_racks":"15","free_racks":"8","terminal_type":"7inch","bike_numbers":"28648,28411,27779,27022,25844,28962,96328","bike_types":{"4":7},"place_type":"0","rack_locks":"1"},{"uid":"2585472","lat":"52.23001","lng":"21.01088","name":"Metro Centrum","spot":"1","number":"9519","bikes":"14","bike_racks":"30","free_racks":"16","terminal_type":"7inch","bike_numbers":"24801,24620,28715,28635,28611,28422,27319,27245,27045,26930,25966,25904,96527,96451","bike_types":{"4":14},"place_type":"0","rack_locks":"1"},{"uid":"2585473","lat":"52.229347019086","lng":"21.011314988136","name":"Marsza\u0142kowska - Al. Jerozolimskie","spot":"1","number":"9520","bikes":"14","bike_racks":"20","free_racks":"6","terminal_type":"7inch","bike_numbers":"24771,24732,24525,28576,28004,27944,27201,27102,26198,26073,25843,25410,25629,29209","bike_types":{"4":14},"place_type":"0","rack_locks":"1"},{"uid":"2585476","lat":"52.230418150276","lng":"21.013610959053","name":"al. Jerozolimskie - rejon Rotundy","spot":"1","number":"9521","bikes":"21","bike_racks":"24","free_racks":"3","terminal_type":"7inch","bike_numbers":"24980,24809,24622,28275,28269,28020,27716,27684,26709,26704,26665,26622,26393,26277,25708,25643,25517,25430,29034,96403,29193","bike_types":{"4":21},"place_type":"0","rack_locks":"1"},{"uid":"2585477","lat":"52.2262882","lng":"21.0135705","name":"Marsza\u0142kowska - Ho\u017ca","spot":"1","number":"9522","bikes":"15","bike_racks":"15","free_racks":"4","terminal_type":"7inch","bike_numbers":"24828,24470,27790,27368,26710,26612,26204,26004,25980,25380,25231,29646,96405,96334,29199","bike_types":{"4":14,"51":1},"place_type":"0","rack_locks":"1"},{"uid":"2585492","lat":"52.2282923","lng":"21.0178542","name":"Krucza - Wsp\u00f3lna","spot":"1","number":"9523","bikes":"19","bike_racks":"28","free_racks":"9","terminal_type":"7inch","bike_numbers":"24823,24651,28121,27883,27757,27142,27044,26794,26560,26128,25481,25337,25330,25081,25031,25015,28867,96408,96214","bike_types":{"4":19},"place_type":"0","rack_locks":"1"},{"uid":"2585684","lat":"52.23144","lng":"21.0213036","name":"Rondo de Gaulle'a","spot":"1","number":"9524","bikes":"17","bike_racks":"22","free_racks":"5","terminal_type":"7inch","bike_numbers":"24706,27903,27809,27698,27613,27135,26685,26526,26257,25953,25751,25603,25385,25025,96337,29198,29197","bike_types":{"4":17},"place_type":"0","rack_locks":"1"},{"uid":"2585694","lat":"52.2278487","lng":"21.0235084","name":"Plac Trzech Krzy\u017cy","spot":"1","number":"9525","bikes":"13","bike_racks":"23","free_racks":"10","maintenance":"1","terminal_type":"7inch","bike_numbers":"24888,24043,28464,28404,27747,27725,26923,26308,26294,25469,25167,29049,29205","bike_types":{"4":12,"26":1},"place_type":"0","rack_locks":"1"},{"uid":"2585695","lat":"52.23324","lng":"21.0261179","name":"Smolna - PKP Powi\u015ble","spot":"1","number":"9526","bikes":"9","bike_racks":"18","free_racks":"9","terminal_type":"7inch","bike_numbers":"28132,27759,27160,26446,25887,25103,28910,28900,96523","bike_types":{"4":9},"place_type":"0","rack_locks":"1"},{"uid":"2585699","lat":"52.2340191","lng":"21.0300328","name":"Herberta - PKP Powi\u015ble","spot":"1","number":"9527","bikes":"14","bike_racks":"26","free_racks":"14","terminal_type":"7inch","bike_numbers":"24973,28616,28603,28356,28139,27749,27390,27209,26363,26339,25859,25604,25532,29153","bike_types":{"4":14},"place_type":"0","rack_locks":"1"},{"uid":"2585704","lat":"52.2347879","lng":"21.0340991","name":"Solec - al. 3 Maja","spot":"1","number":"9528","bikes":"17","bike_racks":"24","free_racks":"7","terminal_type":"7inch","bike_numbers":"24912,28522,28143,27946,27672,26974,26833,26346,26335,26226,25897,25678,25658,25119,29032,96398,24055","bike_types":{"4":16,"26":1},"place_type":"0","rack_locks":"1"},{"uid":"2585708","lat":"52.2301405","lng":"21.0303694","name":"Ksi\u0105\u017c\u0119ca - Rozbrat","spot":"1","number":"9529","bikes":"17","bike_racks":"15","free_racks":"0","terminal_type":"7inch","bike_numbers":"24859,24476,28750,28595,28140,27362,26750,26648,25798,25069,29015,29448,25958,28806,28866,96033,96260","bike_types":{"4":16,"51":1},"place_type":"0","rack_locks":"1"},{"uid":"2585711","lat":"52.2172177","lng":"20.9713608","name":"Szcz\u0119\u015bliwicka - APS","spot":"1","number":"9530","bikes":"14","bike_racks":"22","free_racks":"7","terminal_type":"7inch","bike_numbers":"24953,28620,28529,27967,27190,26982,25566,25082,25036,28883,96468,96287,96178,96081","bike_types":{"4":14},"place_type":"0","rack_locks":"1"},{"uid":"2585712","lat":"52.2179474","lng":"20.9775567","name":"Kopi\u0144ska - Bia\u0142obrzeska","spot":"1","number":"9531","bikes":"0","bike_racks":"15","free_racks":"14","terminal_type":"7inch","place_type":"0","rack_locks":"1","bike_numbers":null,"bike_types":[]},{"uid":"2585714","lat":"52.2178554","lng":"20.9828138","name":"Plac Narutowicza","spot":"1","number":"9532","bikes":"23","bike_racks":"30","free_racks":"7","terminal_type":"7inch","bike_numbers":"24867,24797,24737,28707,28511,27566,27148,26991,26926,26743,26586,25720,25397,29036,28838,96036,96365,96360,96309,96289,96262,96252,96197","bike_types":{"4":23},"place_type":"0","rack_locks":"1"},{"uid":"2585716","lat":"52.216641","lng":"20.9879476","name":"Raszy\u0144ska - Wawelska","spot":"1","number":"9533","bikes":"5","bike_racks":"12","free_racks":"8","terminal_type":"7inch","bike_numbers":"27348,27123,26157,26115,28890","bike_types":{"4":5},"place_type":"0","rack_locks":"1"},{"uid":"2585717","lat":"52.2191029","lng":"20.9890149","name":"Raszy\u0144ska - Filtrowa","spot":"1","number":"9534","bikes":"12","bike_racks":"18","free_racks":"7","terminal_type":"7inch","bike_numbers":"24908,24656,27450,26660,26016,25827,25126,25034,28914,96496,96437,96207","bike_types":{"4":12},"place_type":"0","rack_locks":"1"},{"uid":"2585720","lat":"52.220676","lng":"21.0045554","name":"al. Niepodleg\u0142o\u015bci - Nowowiejska","spot":"1","number":"9535","bikes":"8","bike_racks":"30","free_racks":"21","terminal_type":"7inch","bike_numbers":"24998,24514,28154,27969,27511,27306,26890,26889","bike_types":{"4":8},"place_type":"0","rack_locks":"1"},{"uid":"2585721","lat":"52.2174693","lng":"21.0056537","name":"Kaczy\u0144skiego - al. Niepodleg\u0142o\u015bci","spot":"1","number":"9536","bikes":"11","bike_racks":"16","free_racks":"6","terminal_type":"7inch","bike_numbers":"24031,24011,27794,27000,26690,25986,25639,25418,29656,96407,96198","bike_types":{"26":2,"4":9},"place_type":"0","rack_locks":"1"},{"uid":"2585722","lat":"52.2226831","lng":"21.0081097","name":"Noakowskiego - Koszykowa","spot":"1","number":"9537","bikes":"21","bike_racks":"24","free_racks":"3","terminal_type":"7inch","bike_numbers":"24943,24885,24794,24496,28450,28408,28377,27568,27066,26512,26012,25573,25336,25254,29096,29359,96549,96394,96152,96132,29226","bike_types":{"4":20,"51":1},"place_type":"0","rack_locks":"1"},{"uid":"2585724","lat":"52.219916","lng":"21.0116824","name":"Plac Politechniki","spot":"1","number":"9538","bikes":"12","bike_racks":"27","free_racks":"16","terminal_type":"7inch","bike_numbers":"24854,24693,27777,27737,26725,26715,25911,25905,25611,25373,29461,96156","bike_types":{"4":12},"place_type":"0","rack_locks":"1"},{"uid":"2585727","lat":"52.223503","lng":"21.0128519","name":"Pozna\u0144ska - Zesp\u00f3\u0142 Szk\u00f3\u0142 Gastronomicznych","spot":"1","number":"9539","bikes":"15","bike_racks":"18","free_racks":"3","terminal_type":"7inch","bike_numbers":"24802,24779,24531,24466,28331,27891,27437,27252,26013,25987,25363,25315,29031,96516,96342","bike_types":{"4":14,"51":1},"place_type":"0","rack_locks":"1"},{"uid":"2585728","lat":"52.2174857","lng":"21.0142949","name":"Rondo Jazdy Polskiej","spot":"1","number":"9540","bikes":"20","bike_racks":"24","free_racks":"4","terminal_type":"7inch","bike_numbers":"24932,24002,28347,28294,28207,28000,27813,27529,27213,27088,26643,25782,25754,25262,29082,29452,96462,96354,96220,24052","bike_types":{"4":18,"26":2},"place_type":"0","rack_locks":"1"},{"uid":"2585729","lat":"52.2197435","lng":"21.0157353","name":"Metro Politechnika - Nowowiejska","spot":"1","number":"9541","bikes":"8","bike_racks":"18","free_racks":"10","terminal_type":"7inch","bike_numbers":"24712,24634,28052,27374,26269,25983,25679,25342","bike_types":{"4":8},"place_type":"0","rack_locks":"1"},{"uid":"2585731","lat":"52.2197681","lng":"21.0172775","name":"Plac Zbawiciela","spot":"1","number":"9542","bikes":"6","bike_racks":"12","free_racks":"6","terminal_type":"7inch","bike_numbers":"24681,28259,27622,27131,26696,25707","bike_types":{"4":6},"place_type":"0","rack_locks":"1"},{"uid":"2585735","lat":"52.2229427","lng":"21.0158211","name":"Plac Konstytucji","spot":"1","number":"9543","bikes":"25","bike_racks":"30","free_racks":"5","terminal_type":"7inch","bike_numbers":"24995,28654,28584,28579,28504,28485,28068,27774,27071,26796,26701,26662,26537,26104,25762,25725,25619,25434,25060,25035,29460,29454,29137,96043,96458","bike_types":{"4":24,"0":1},"place_type":"0","rack_locks":"1"},{"uid":"2585737","lat":"52.2238152","lng":"21.0207859","name":"Mokotowska - Pi\u0119kna","spot":"1","number":"9544","bikes":"26","bike_racks":"20","free_racks":"0","terminal_type":"7inch","bike_numbers":"24969,24758,24564,24028,28357,27926,27745,27533,27396,27309,26910,26865,26640,26516,26479,26402,26116,26099,25875,25755,25361,25121,96571,96182,96084,29154","bike_types":{"4":25,"26":1},"place_type":"0","rack_locks":"1"},{"uid":"2585738","lat":"52.2200212","lng":"21.0256299","name":"Plac na Rozdro\u017cu","spot":"1","number":"9545","bikes":"17","bike_racks":"26","free_racks":"9","terminal_type":"7inch","bike_numbers":"24590,27572,27411,27369,26596,26328,25543,25412,25213,28935,28988,96542,96503,96404,96085,29189,29220","bike_types":{"4":17},"place_type":"0","rack_locks":"1"},{"uid":"2585742","lat":"52.2249504","lng":"21.0268155","name":"Matejki - Wiejska","spot":"1","number":"9546","bikes":"18","bike_racks":"20","free_racks":"2","terminal_type":"7inch","bike_numbers":"24862,28739,28393,28112,28086,27740,27208,27179,27025,26638,26563,25855,25086,29347,29103,28871,28967,96529","bike_types":{"4":18},"place_type":"0","rack_locks":"1"},{"uid":"2585747","lat":"52.2221129","lng":"21.0343873","name":"My\u015bliwiecka - Rozbrat","spot":"1","number":"9547","bikes":"22","bike_racks":"21","free_racks":"0","terminal_type":"7inch","bike_numbers":"24933,24647,28697,27915,27663,27421,27103,27060,27031,26959,26933,26590,26266,25621,25441,28805,96005,96346,96255,29177,29222,29217","bike_types":{"4":22},"place_type":"0","rack_locks":"1"},{"uid":"2585748","lat":"52.2277124","lng":"21.0442955","name":"Port Czerniakowski","spot":"1","number":"9548","bikes":"17","bike_racks":"30","free_racks":"13","terminal_type":"7inch","bike_numbers":"24853,28637,28617,27515,27270,27215,26858,26755,26730,26543,26273,26055,25541,25175,25051,29459,29436","bike_types":{"4":17},"place_type":"0","rack_locks":"1"},{"uid":"2585749","lat":"52.2109711","lng":"20.9759125","name":"Gr\u00f3jecka - Bitwy Warszawskiej 1920 roku","spot":"1","number":"9549","bikes":"7","bike_racks":"20","free_racks":"12","terminal_type":"7inch","bike_numbers":"24618,27346,26908,63608,96476,96210,29169","bike_types":{"4":7},"place_type":"0","rack_locks":"1"},{"uid":"2585750","lat":"52.2130296","lng":"20.9819985","name":"Pasteura - Winnicka - UW","spot":"1","number":"9550","bikes":"22","bike_racks":"24","free_racks":"2","terminal_type":"7inch","bike_numbers":"24999,24920,24913,24768,24767,24617,28633,28630,28115,27951,27710,26810,26653,26559,26523,26212,26058,25886,25721,25697,29065,96369","bike_types":{"4":22},"place_type":"0","rack_locks":"1"},{"uid":"2585762","lat":"52.2107722","lng":"20.9847557","name":"Stefana Banacha - UW","spot":"1","number":"9551","bikes":"32","bike_racks":"29","free_racks":"0","terminal_type":"7inch","bike_numbers":"24887,24562,28769,28283,27909,27899,27239,27226,27081,27058,27057,26994,26947,26839,26538,26457,26025,25993,25846,25717,25580,25284,25116,25012,29083,29421,25626,96060,96540,96223,96087,29215","bike_types":{"4":32},"place_type":"0","rack_locks":"1"},{"uid":"2585764","lat":"52.212671","lng":"21.003437","name":"Biblioteka Narodowa","spot":"1","number":"9552","bikes":"18","bike_racks":"24","free_racks":"6","terminal_type":"7inch","bike_numbers":"24842,24044,24038,24004,28761,27801,27526,27474,27274,27110,26407,26230,26008,25874,25570,29092,96028,96383","bike_types":{"4":15,"26":3},"place_type":"0","rack_locks":"1"},{"uid":"2585766","lat":"52.21691","lng":"21.01997","name":"Marsza\u0142kowska - Litewska","spot":"1","number":"9553","bikes":"11","bike_racks":"15","free_racks":"4","terminal_type":"7inch","bike_numbers":"24987,24762,28820,28352,28253,27424,26493,25063,28847,96498,29225","bike_types":{"4":11},"place_type":"0","rack_locks":"1"},{"uid":"2585770","lat":"52.2083858","lng":"20.9631103","name":"P\u0119tla Szcz\u0119\u015bliwice","spot":"1","number":"9554","bikes":"13","bike_racks":"19","free_racks":"6","terminal_type":"7inch","bike_numbers":"28732,28147,27869,27553,27129,26608,26146,25698,25645,25046,28835,28824,96038","bike_types":{"4":13},"place_type":"0","rack_locks":"1"},{"uid":"2585771","lat":"52.206153650625","lng":"20.970287919044","name":"Dickensa - Geodet\u00f3w","spot":"1","number":"9555","bikes":"10","bike_racks":"16","free_racks":"8","terminal_type":"7inch","bike_numbers":"24610,27609,27549,26190,25917,25444,25391,28879,96331,29170","bike_types":{"4":10},"place_type":"0","rack_locks":"1"},{"uid":"2585772","lat":"52.205361371875","lng":"20.984664559364","name":"\u017bwirki i Wigury - Ksi\u0119cia Trojdena","spot":"1","number":"9556","bikes":"8","bike_racks":"17","free_racks":"8","terminal_type":"7inch","bike_numbers":"24556,27838,27625,27432,26379,25726,25663,28963","bike_types":{"4":8},"place_type":"0","rack_locks":"1"},{"uid":"2585774","lat":"52.205801893754","lng":"20.998928546906","name":"Rakowiecka - \u015aw. A. Boboli","spot":"1","number":"9557","bikes":"13","bike_racks":"17","free_racks":"3","terminal_type":"7inch","bike_numbers":"24834,28671,28208,27889,27644,27137,26975,26961,25828,25748,29129,96158,29224","bike_types":{"4":12,"0":1},"place_type":"0","rack_locks":"1"},{"uid":"2585776","lat":"52.209916","lng":"21.0067794","name":"al. Niepodleg\u0142o\u015bci - Batorego","spot":"1","number":"9558","bikes":"0","bike_racks":"26","free_racks":"25","terminal_type":"7inch","place_type":"0","rack_locks":"1","bike_numbers":null,"bike_types":[]},{"uid":"2585779","lat":"52.2132375","lng":"21.0210568","name":"Plac Unii Lubelskiej","spot":"1","number":"9559","bikes":"26","bike_racks":"24","free_racks":"0","terminal_type":"7inch","bike_numbers":"24902,24483,28763,28410,28148,28128,28123,27579,27144,26780,26425,26132,26046,25686,25472,25177,25151,25067,28993,96034,96509,96484,96329,96224,96205,96157","bike_types":{"4":25,"51":1},"place_type":"0","rack_locks":"1"},{"uid":"2585781","lat":"52.2027557","lng":"20.9508951","name":"W\u0142odarzewska - Maszynowa","spot":"1","number":"9560","bikes":"5","bike_racks":"18","free_racks":"13","terminal_type":"7inch","bike_numbers":"27134,26846,25785,25419,25023","bike_types":{"4":5},"place_type":"0","rack_locks":"1"},{"uid":"2585782","lat":"52.2017647","lng":"20.9820897","name":"Sanocka - Pruszkowska","spot":"1","number":"9561","bikes":"1","bike_racks":"15","free_racks":"14","terminal_type":"7inch","bike_numbers":"96235","bike_types":{"4":1},"place_type":"0","rack_locks":"1"},{"uid":"2585785","lat":"52.1981365","lng":"20.9833717","name":"\u017bwirki i Wigury - Rac\u0142awicka","spot":"1","number":"9562","bikes":"0","bike_racks":"18","free_racks":"18","terminal_type":"7inch","place_type":"0","rack_locks":"1","bike_numbers":null,"bike_types":[]},{"uid":"2585787","lat":"52.20177","lng":"20.99969","name":"Wo\u0142oska - Kulskiego","spot":"1","number":"9563","bikes":"7","bike_racks":"15","free_racks":"7","terminal_type":"7inch","bike_numbers":"24882,24773,24702,28563,27983,25273,96443","bike_types":{"4":7},"place_type":"0","rack_locks":"1"},{"uid":"2585788","lat":"52.2042638","lng":"21.014428","name":"Madali\u0144skiego - Kazimierzowska","spot":"1","number":"9564","bikes":"16","bike_racks":"24","free_racks":"8","terminal_type":"7inch","bike_numbers":"24949,24775,24720,28297,28194,27723,27406,26199,25880,25659,25598,25565,25475,25208,28961,28996","bike_types":{"4":16},"place_type":"0","rack_locks":"1"},{"uid":"2585789","lat":"52.2055175","lng":"21.0231033","name":"Pu\u0142awska - Dworkowa","spot":"1","number":"9565","bikes":"17","bike_racks":"19","free_racks":"3","terminal_type":"7inch","bike_numbers":"24638,27798,27669,27417,27132,26864,26766,26253,25998,25957,25884,25766,25731,25498,25304,25191,96439","bike_types":{"4":17},"place_type":"0","rack_locks":"1"},{"uid":"2585790","lat":"52.2071756","lng":"21.0312643","name":"Belwederska - Gagarina","spot":"1","number":"9566","bikes":"22","bike_racks":"30","free_racks":"8","terminal_type":"7inch","bike_numbers":"28897,28435,27878,27874,27315,26855,26651,26331,26145,25990,25761,25744,25554,25476,25349,25250,28916,29367,28884,96463,96181,96120","bike_types":{"4":22},"place_type":"0","rack_locks":"1"},{"uid":"2585791","lat":"52.2074193","lng":"21.0479621","name":"Czerniakowska - Gagarina","spot":"1","number":"9567","bikes":"20","bike_racks":"25","free_racks":"11","terminal_type":"7inch","bike_numbers":"24542,24534,28886,28532,28103,28098,28050,27661,27637,27483,27197,27186,26920,26573,26434,25775,25773,25668,96505,96109","bike_types":{"4":20},"place_type":"0","rack_locks":"1"},{"uid":"2585794","lat":"52.1938131","lng":"20.9914431","name":"Etiudy Rewolucyjnej - Mi\u0105czy\u0144ska","spot":"1","number":"9568","bikes":"0","bike_racks":"18","free_racks":"18","terminal_type":"7inch","place_type":"0","rack_locks":"1","bike_numbers":null,"bike_types":[]},{"uid":"2585799","lat":"52.1994156","lng":"21.0121384","name":"Metro Rac\u0142awicka","spot":"1","number":"9570","bikes":"14","bike_racks":"30","free_racks":"16","terminal_type":"7inch","bike_numbers":"24924,24805,24645,28700,28551,27597,27242,26850,26394,26178,25376,25138,96457,96271","bike_types":{"4":14},"place_type":"0","rack_locks":"1"},{"uid":"2585800","lat":"52.199505","lng":"21.0240975","name":"Pu\u0142awska - Dolna","spot":"1","number":"9571","bikes":"6","bike_racks":"18","free_racks":"12","terminal_type":"7inch","bike_numbers":"24961,24006,27181,25919,25703,29361","bike_types":{"4":5,"26":1},"place_type":"0","rack_locks":"1"},{"uid":"2585802","lat":"52.2014754","lng":"21.0360047","name":"Sobieskiego - Che\u0142mska","spot":"1","number":"9572","bikes":"27","bike_racks":"15","free_racks":"0","terminal_type":"7inch","bike_numbers":"24800,24736,24680,24605,24593,24472,24024,28626,28018,27987,27898,27853,27758,27229,27141,27064,26753,26657,26039,25858,25454,25375,29041,28839,96013,96392,96175","bike_types":{"4":25,"51":1,"26":1},"place_type":"0","rack_locks":"1"},{"uid":"2585804","lat":"52.1998446","lng":"21.05095","name":"Czerniakowska - ZUS","spot":"1","number":"9573","bikes":"8","bike_racks":"15","free_racks":"7","terminal_type":"7inch","bike_numbers":"24600,25008,28695,28546,28030,25501,29144,28798","bike_types":{"4":7,"0":1},"place_type":"0","rack_locks":"1"},{"uid":"2585807","lat":"52.1916776","lng":"20.8689688","name":"PKP Ursus-Nied\u017awiadek","spot":"1","number":"9574","bikes":"13","bike_racks":"15","free_racks":"2","terminal_type":"7inch","bike_numbers":"28195,28054,28005,27598,27189,27154,27139,26805,26464,26290,25692,25157,28921","bike_types":{"4":13},"place_type":"0","rack_locks":"1"},{"uid":"2585808","lat":"52.1960469","lng":"20.8849347","name":"PKP Ursus","spot":"1","number":"9575","bikes":"5","bike_racks":"16","free_racks":"10","terminal_type":"7inch","bike_numbers":"24839,28122,27485,26977,28880","bike_types":{"4":5},"place_type":"0","rack_locks":"1"},{"uid":"2585809","lat":"52.1869936","lng":"20.8906478","name":"Sosnkowskiego - OSiR Ursus","spot":"1","number":"9576","bikes":"10","bike_racks":"15","free_racks":"5","terminal_type":"7inch","bike_numbers":"24576,28704,28336,28037,27825,27247,25924,25189,29422,24555","bike_types":{"4":10},"place_type":"0","rack_locks":"1"},{"uid":"2585811","lat":"52.2005548","lng":"20.8937538","name":"Ursus-Ratusz","spot":"1","number":"9577","bikes":"9","bike_racks":"15","free_racks":"6","terminal_type":"7inch","bike_numbers":"24541,28209,27509,27232,26602,26089,25634,25229,25165","bike_types":{"4":9},"place_type":"0","rack_locks":"1"},{"uid":"2585814","lat":"52.1906376","lng":"20.8999443","name":"Skoroszewska - Prystora","spot":"1","number":"9578","bikes":"13","bike_racks":"17","free_racks":"4","terminal_type":"7inch","bike_numbers":"24928,24891,28387,28261,28258,28211,27539,27118,26636,26561,26057,25040,96130","bike_types":{"4":13},"place_type":"0","rack_locks":"1"},{"uid":"2585817","lat":"52.1882609","lng":"20.9603771","name":"G\u0142adka - OSiR W\u0142ochy","spot":"1","number":"9579","bikes":"10","bike_racks":"16","free_racks":"6","terminal_type":"7inch","bike_numbers":"24991,24501,28570,28110,27169,26529,26399,25542,25251,29168","bike_types":{"4":10},"place_type":"0","rack_locks":"1"},{"uid":"2585820","lat":"52.2056441","lng":"20.9159142","name":"PKP W\u0142ochy","spot":"1","number":"9580","bikes":"14","bike_racks":"17","free_racks":"3","terminal_type":"7inch","bike_numbers":"24935,28601,28591,28491,28254,27700,27377,27302,27217,27092,26811,25770,28933,96083","bike_types":{"4":14},"place_type":"0","rack_locks":"1"},{"uid":"2585821","lat":"52.2012157","lng":"20.9353145","name":"al. Jerozolimskie - Popularna","spot":"1","number":"9581","bikes":"12","bike_racks":"17","free_racks":"5","terminal_type":"7inch","bike_numbers":"24838,28133,27384,26659,25423,25172,25074,28952,96261,96135,96091,96082","bike_types":{"4":12},"place_type":"0","rack_locks":"1"},{"uid":"2585824","lat":"52.1924709","lng":"20.9596664","name":"W\u0142ochy-Ratusz","spot":"1","number":"9582","bikes":"15","bike_racks":"14","free_racks":"0","terminal_type":"7inch","bike_numbers":"24865,24848,24830,28596,26749,26010,25885,25435,96056,96215,96202,96148,29185,29182,24050","bike_types":{"4":14,"26":1},"place_type":"0","rack_locks":"1"},{"uid":"2585825","lat":"52.1946888","lng":"20.9667823","name":"1 Sierpnia - DK W\u0142ochy","spot":"1","number":"9583","bikes":"8","bike_racks":"15","free_racks":"6","terminal_type":"7inch","bike_numbers":"24753,24666,28572,27807,26317,26093,25955,25733","bike_types":{"4":8},"place_type":"0","rack_locks":"1"},{"uid":"2585827","lat":"52.1888962","lng":"21.0175887","name":"Metro Wierzbno","spot":"1","number":"9584","bikes":"1","bike_racks":"20","free_racks":"18","terminal_type":"7inch","bike_numbers":"96026","bike_types":{"4":1},"place_type":"0","rack_locks":"1"},{"uid":"2585830","lat":"52.18648","lng":"21.02538","name":"Pu\u0142awska - Idzikowskiego","spot":"1","number":"9585","bikes":"8","bike_racks":"17","free_racks":"9","terminal_type":"7inch","bike_numbers":"28159,28023,27724,27486,25940,25651,25439,25196","bike_types":{"4":8},"place_type":"0","rack_locks":"1"},{"uid":"2585835","lat":"52.1882861","lng":"21.0498825","name":"Sobieskiego - Mangalia","spot":"1","number":"9586","bikes":"8","bike_racks":"15","free_racks":"6","terminal_type":"7inch","bike_numbers":"24981,28008,27605,27112,26436,26311,96413,29176","bike_types":{"4":8},"place_type":"0","rack_locks":"1"},{"uid":"2585837","lat":"52.178777","lng":"21.0016387","name":"Wo\u0142oska - Marynarska","spot":"1","number":"9588","bikes":"22","bike_racks":"26","free_racks":"4","terminal_type":"7inch","bike_numbers":"28869,28666,28663,27787,27479,27402,26740,26716,26707,26637,26552,26474,26239,25971,25833,25403,25395,25381,25206,25070,96341,96159","bike_types":{"4":22},"place_type":"0","rack_locks":"1"},{"uid":"2585838","lat":"52.1800882","lng":"21.0207403","name":"al. Niepodleg\u0142o\u015bci - al. Wilanowska","spot":"1","number":"9589","bikes":"18","bike_racks":"22","free_racks":"4","terminal_type":"7inch","bike_numbers":"24965,28817,28412,28364,28089,27783,27167,26831,26531,26214,25345,25234,25185,25047,25010,29078,28945,29184","bike_types":{"4":18},"place_type":"0","rack_locks":"1"},{"uid":"2585839","lat":"52.1779163","lng":"21.049562","name":"P\u0119tla Stegny","spot":"1","number":"9590","bikes":"18","bike_racks":"23","free_racks":"5","terminal_type":"7inch","bike_numbers":"24905,24726,28477,27521,27289,27246,26711,26280,26201,25594,25252,25240,25202,28940,28938,29140,28832,96248","bike_types":{"4":17,"0":1},"place_type":"0","rack_locks":"1"},{"uid":"2585843","lat":"52.1818472","lng":"21.0562822","name":"Sobieskiego - \u015bw. Bonifacego","spot":"1","number":"9591","bikes":"15","bike_racks":"22","free_racks":"7","terminal_type":"7inch","bike_numbers":"24722,28774,28574,28033,27382,27257,27096,26984,26948,26883,26341,26160,26140,25378,28975","bike_types":{"4":15},"place_type":"0","rack_locks":"1"},{"uid":"2585844","lat":"52.1702836","lng":"20.9959132","name":"P\u0119tla Bokserska","spot":"1","number":"9592","bikes":"6","bike_racks":"15","free_racks":"9","terminal_type":"7inch","bike_numbers":"28818,26150,25386,25274,28946,28845","bike_types":{"4":6},"place_type":"0","rack_locks":"1"},{"uid":"2585846","lat":"52.1710498","lng":"21.0059144","name":"Gintrowskiego - Gotarda","spot":"1","number":"9593","bikes":"21","bike_racks":"15","free_racks":"2","terminal_type":"7inch","bike_numbers":"24985,24883,24718,28466,28443,28385,27826,27430,27192,27143,26999,26717,26454,25890,25829,25814,25806,25675,25199,25124,96193","bike_types":{"4":21},"place_type":"0","rack_locks":"1"},{"uid":"2585848","lat":"52.174435","lng":"21.0128814","name":"al. Lotnik\u00f3w - Kaczmarskiego","spot":"1","number":"9594","bikes":"13","bike_racks":"30","free_racks":"17","terminal_type":"7inch","bike_numbers":"24697,28667,27964,27880,27656,27653,27635,27305,26167,25671,96455,96406,96284","bike_types":{"4":13},"place_type":"0","rack_locks":"1"},{"uid":"2585850","lat":"52.1733132","lng":"21.0257305","name":"Metro S\u0142u\u017cew","spot":"1","number":"9595","bikes":"18","bike_racks":"24","free_racks":"6","terminal_type":"7inch","bike_numbers":"24654,24627,28425,28088,27618,27461,27365,26358,26281,26245,25758,25737,25491,25354,25286,25011,28800,96472","bike_types":{"4":18},"place_type":"0","rack_locks":"1"},{"uid":"2585853","lat":"52.17343","lng":"21.03179","name":"Wa\u0142brzyska - Wr\u00f3bla","spot":"1","number":"9596","bikes":"29","bike_racks":"30","free_racks":"1","terminal_type":"7inch","bike_numbers":"24958,24851,24626,28760,28759,28634,28580,28520,27752,27706,27231,26990,26904,26761,26646,26639,26626,26490,26448,25849,25693,25576,25460,25237,25233,25148,28906,96046,96025","bike_types":{"4":29},"place_type":"0","rack_locks":"1"},{"uid":"2585856","lat":"52.170135","lng":"21.0685748","name":"Jana III Sobieskiego - al. Wilanowska","spot":"1","number":"9597","bikes":"7","bike_racks":"15","free_racks":"11","terminal_type":"7inch","bike_numbers":"24714,24544,27718,27685,26424,26031,28825","bike_types":{"4":7},"place_type":"0","rack_locks":"1"},{"uid":"2585860","lat":"52.1655879","lng":"21.0839331","name":"al. Wilanowska - Przycz\u00f3\u0142kowa","spot":"1","number":"9598","bikes":"13","bike_racks":"16","free_racks":"2","terminal_type":"7inch","bike_numbers":"24990,24539,28513,27441,27104,26784,26748,26333,25135,25628,28985,96399,96364","bike_types":{"4":13},"place_type":"0","rack_locks":"1"},{"uid":"2585863","lat":"52.16479","lng":"21.10925","name":"Vogla - Syta","spot":"1","number":"9599","bikes":"10","bike_racks":"16","free_racks":"7","terminal_type":"7inch","bike_numbers":"24791,28366,28065,27227,26914,26418,26236,26034,25839,28881","bike_types":{"4":10},"place_type":"0","rack_locks":"1"},{"uid":"2585868","lat":"52.1606257","lng":"21.0723245","name":"al. Rzeczypospolitej - Klimczaka","spot":"1","number":"9600","bikes":"8","bike_racks":"16","free_racks":"9","terminal_type":"7inch","bike_numbers":"24811,28661,28640,28059,26177,25225,96312,96136","bike_types":{"4":8},"place_type":"0","rack_locks":"1"},{"uid":"2585871","lat":"52.1569168","lng":"21.0760903","name":"al. Rzeczypospolitej - Branickiego","spot":"1","number":"9601","bikes":"22","bike_racks":"16","free_racks":"0","terminal_type":"7inch","bike_numbers":"24703,24671,24515,28655,28582,28544,28409,28150,27945,27524,27410,26898,26218,26063,25584,25521,25482,25420,25364,25359,29060,29192","bike_types":{"4":22},"place_type":"0","rack_locks":"1"},{"uid":"2585872","lat":"52.1593735","lng":"21.086449","name":"Przycz\u00f3\u0142kowa - Branickiego","spot":"1","number":"9602","bikes":"6","bike_racks":"16","free_racks":"10","terminal_type":"7inch","bike_numbers":"28345,28031,27882,27241,25494,28857","bike_types":{"4":6},"place_type":"0","rack_locks":"1"},{"uid":"2585873","lat":"52.1618136","lng":"21.0277355","name":"Metro Ursyn\u00f3w II","spot":"1","number":"9603","bikes":"18","bike_racks":"30","free_racks":"13","terminal_type":"7inch","bike_numbers":"28803,28343,27988,27916,27819,27223,26873,26609,26258,26108,25561,25556,25331,25174,25065,29040,29021,28998","bike_types":{"4":18},"place_type":"0","rack_locks":"1"},{"uid":"2585875","lat":"52.1622579","lng":"21.0280761","name":"Metro Ursyn\u00f3w I","spot":"1","number":"9604","bikes":"24","bike_racks":"30","free_racks":"6","terminal_type":"7inch","bike_numbers":"24984,24803,28749,28645,28433,28389,27751,27563,27373,27344,27027,26819,26603,25901,25898,25718,25657,25230,25153,25111,29053,28889,96049,96526","bike_types":{"4":24},"place_type":"0","rack_locks":"1"},{"uid":"2585876","lat":"52.162401","lng":"21.0383811","name":"Jastrz\u0119bowskiego - SGGW","spot":"1","number":"9605","bikes":"24","bike_racks":"30","free_racks":"6","terminal_type":"7inch","bike_numbers":"24786,24748,24709,28403,28361,28359,28081,27897,27851,27741,27648,27352,27174,27068,26935,26845,26781,26713,26364,26126,25796,25326,25024,29346","bike_types":{"4":24},"place_type":"0","rack_locks":"1"},{"uid":"2585880","lat":"52.1557534","lng":"21.0232776","name":"Romera - Pieciolinii","spot":"1","number":"9606","bikes":"9","bike_racks":"16","free_racks":"8","terminal_type":"7inch","bike_numbers":"24735,28530,27583,27055,26532,26186,25263,28976,28968","bike_types":{"4":9},"place_type":"0","rack_locks":"1"},{"uid":"2585883","lat":"52.1568674","lng":"21.0338401","name":"Metro Stok\u0142osy","spot":"1","number":"9607","bikes":"30","bike_racks":"27","free_racks":"0","terminal_type":"7inch","bike_numbers":"24892,24716,24554,28468,28355,28144,28135,28002,27972,27925,27913,27896,27407,27075,26899,26829,26760,26078,25850,25823,25789,25649,25610,25582,25054,29064,28983,96552,96338,96162","bike_types":{"4":30},"place_type":"0","rack_locks":"1"},{"uid":"2585885","lat":"52.1572887","lng":"21.0440084","name":"Roso\u0142a - Ciszewskiego - SGGW","spot":"1","number":"9608","bikes":"25","bike_racks":"30","free_racks":"5","terminal_type":"7inch","bike_numbers":"24708,28696,28445,28340,28327,28109,28092,27849,27739,27585,26728,26580,26492,26466,26324,26155,25818,25489,25464,25319,29028,29450,28846,28828,96004","bike_types":{"4":25},"place_type":"0","rack_locks":"1"},{"uid":"2585888","lat":"52.1521429","lng":"21.0181224","name":"Pu\u0142awska - Pileckiego","spot":"1","number":"9609","bikes":"14","bike_racks":"22","free_racks":"8","terminal_type":"7inch","bike_numbers":"24624,24582,28388,28216,28041,28001,27428,26499,26270,25817,25495,25107,29427,28994","bike_types":{"4":14},"place_type":"0","rack_locks":"1"},{"uid":"2585893","lat":"52.1495064","lng":"21.0332527","name":"Ciszewskiego - Pileckiego","spot":"1","number":"9610","bikes":"17","bike_racks":"22","free_racks":"4","terminal_type":"7inch","bike_numbers":"24792,24769,28892,28598,28592,28298,27389,27269,27032,26038,25996,25867,25272,25171,28939,96344,96340","bike_types":{"4":17},"place_type":"0","rack_locks":"1"},{"uid":"2585894","lat":"52.1549453","lng":"21.0492977","name":"Roso\u0142a - Gandhi","spot":"1","number":"9611","bikes":"14","bike_racks":"22","free_racks":"8","terminal_type":"7inch","bike_numbers":"24650,24625,28604,28503,27923,27353,27156,27111,26504,26285,25194,25130,29095,96231","bike_types":{"4":14},"place_type":"0","rack_locks":"1"},{"uid":"2585897","lat":"52.1493105","lng":"21.0453361","name":"Metro Imielin","spot":"1","number":"9612","bikes":"23","bike_racks":"22","free_racks":"0","terminal_type":"7inch","bike_numbers":"24715,24690,24637,24565,24540,27961,27681,27588,27445,26861,26857,26555,26476,26345,26135,26094,25685,25334,25309,25059,29024,28849,96054","bike_types":{"4":23},"place_type":"0","rack_locks":"1"},{"uid":"2585899","lat":"52.1522333","lng":"21.0563922","name":"Roso\u0142a - Weso\u0142a","spot":"1","number":"9613","bikes":"18","bike_racks":"23","free_racks":"5","terminal_type":"7inch","bike_numbers":"24983,28621,28349,28010,27890,27776,27537,27418,27351,27276,26687,26304,26112,25877,25665,25291,25265,96535","bike_types":{"4":18},"place_type":"0","rack_locks":"1"},{"uid":"2585901","lat":"52.1427201","lng":"21.0383624","name":"Pileckiego - Alternatywy","spot":"1","number":"9614","bikes":"16","bike_racks":"30","free_racks":"14","terminal_type":"7inch","bike_numbers":"24886,27761,27692,27507,27211,26945,26502,26494,26282,25667,25557,25502,25068,29435,28810,28827","bike_types":{"4":16},"place_type":"0","rack_locks":"1"},{"uid":"2585902","lat":"52.142735","lng":"21.0448131","name":"Dereniowa - P\u0142askowickiej","spot":"1","number":"9615","bikes":"11","bike_racks":"22","free_racks":"11","terminal_type":"7inch","bike_numbers":"28683,28055,27599,27522,27471,26708,26180,26087,25954,25232,96251","bike_types":{"4":11},"place_type":"0","rack_locks":"1"},{"uid":"2585904","lat":"52.1376039","lng":"21.0505531","name":"Stryje\u0144skich - Belgradzka","spot":"1","number":"9616","bikes":"6","bike_racks":"15","free_racks":"9","terminal_type":"7inch","bike_numbers":"24992,28706,28107,27781,27547,27095","bike_types":{"4":6},"place_type":"0","rack_locks":"1"},{"uid":"2585905","lat":"52.1403909","lng":"21.0568187","name":"Metro Natolin","spot":"1","number":"9617","bikes":"26","bike_racks":"30","free_racks":"3","terminal_type":"7inch","bike_numbers":"24860,24817,24777,24741,28622,28251,28099,28051,28038,27992,27831,27770,27591,27578,27375,26993,26589,25981,25964,25490,25228,28919,29131,28877,96326,96119","bike_types":{"4":25,"0":1},"place_type":"0","rack_locks":"1"},{"uid":"2585906","lat":"52.1420749","lng":"21.0659905","name":"Belgradzka - Roso\u0142a","spot":"1","number":"9618","bikes":"12","bike_racks":"23","free_racks":"11","terminal_type":"7inch","bike_numbers":"24843,24778,24691,28613,26901,26427,26421,25508,28896,28982,96039,96570","bike_types":{"4":12},"place_type":"0","rack_locks":"1"},{"uid":"2585908","lat":"52.1314333","lng":"21.0561562","name":"Stryje\u0144skich - W\u0105wozowa","spot":"1","number":"9619","bikes":"24","bike_racks":"23","free_racks":"0","terminal_type":"7inch","bike_numbers":"28698,28674,28416,28375,28372,27981,27117,26176,26074,25936,25794,25735,25535,25514,25424,25266,25246,25236,25058,28864,96040,96541,96226,96225","bike_types":{"4":24},"place_type":"0","rack_locks":"1"},{"uid":"2585911","lat":"52.3326052","lng":"20.9418404","name":"Ordon\u00f3wny - \u015awiatowida","spot":"1","number":"9620","bikes":"16","bike_racks":"22","free_racks":"6","terminal_type":"7inch","bike_numbers":"24950,28678,28653,28593,27784,27732,27387,27271,27056,26988,26954,26844,26802,29045,96481,96147","bike_types":{"4":16},"place_type":"0","rack_locks":"1"},{"uid":"2585913","lat":"52.1310925","lng":"21.0654795","name":"Metro Kabaty","spot":"1","number":"9621","bikes":"8","bike_racks":"22","free_racks":"12","terminal_type":"7inch","bike_numbers":"24669,24039,28588,28436,27694,25224,28958,60867","bike_types":{"4":7,"26":1},"place_type":"0","rack_locks":"1"},{"uid":"2585916","lat":"52.1332642","lng":"21.0747962","name":"W\u0105wozowa - Roso\u0142a","spot":"1","number":"9622","bikes":"10","bike_racks":"18","free_racks":"8","terminal_type":"7inch","bike_numbers":"28898,28483,28221,27640,27495,26557,25841,25447,28815,96167","bike_types":{"4":10},"place_type":"0","rack_locks":"1"},{"uid":"2585917","lat":"52.324116","lng":"21.05663","name":"Skarbka z G\u00f3r - Berensona","spot":"1","number":"9623","bikes":"17","bike_racks":"26","free_racks":"9","terminal_type":"7inch","bike_numbers":"24662,28657,28587,28440,28350,28277,28090,27940,27821,27680,27086,26817,25587,25146,96268,29245,29229","bike_types":{"4":17},"place_type":"0","rack_locks":"1"},{"uid":"2585919","lat":"52.3485329","lng":"20.9418336","name":"Aluzyjna - Tr\u0105by","spot":"1","number":"9624","bikes":"7","bike_racks":"16","free_racks":"6","terminal_type":"7inch","bike_numbers":"24833,28738,28523,27322,25722,25526,25305","bike_types":{"4":7},"place_type":"0","rack_locks":"1"},{"uid":"2585920","lat":"52.3226982","lng":"20.9448107","name":"\u015awiatowida - Mehoffera","spot":"1","number":"9625","bikes":"10","bike_racks":"16","free_racks":"6","terminal_type":"7inch","bike_numbers":"28360,28314,27986,27587,26623,26060,25768,25646,29340,29071","bike_types":{"4":10},"place_type":"0","rack_locks":"1"},{"uid":"2585921","lat":"52.3212548","lng":"20.9477347","name":"Bia\u0142o\u0142\u0119cki O\u015brodek Sportu","spot":"1","number":"9626","bikes":"20","bike_racks":"30","free_racks":"10","terminal_type":"7inch","bike_numbers":"24814,24597,28606,28478,28426,27895,27721,27634,27519,27481,27464,27415,27152,26928,26752,26489,26461,29555,29139,96480","bike_types":{"4":19,"0":1},"place_type":"0","rack_locks":"1"},{"uid":"2585922","lat":"52.3211272","lng":"20.9712964","name":"Bia\u0142o\u0142\u0119ka-Ratusz","spot":"1","number":"9627","bikes":"17","bike_racks":"19","free_racks":"2","terminal_type":"7inch","bike_numbers":"24945,24900,24747,24652,28702,28555,28137,27517,27420,27412,27357,27168,27018,26878,26835,96258,96129","bike_types":{"4":17},"place_type":"0","rack_locks":"1"},{"uid":"2585924","lat":"52.3132981","lng":"20.9655324","name":"My\u015bliborska - al. Kukli\u0144skiego","spot":"1","number":"9628","bikes":"10","bike_racks":"22","free_racks":"13","terminal_type":"7inch","bike_numbers":"28562,28527,26847,26551,26515,26287,25577,25092,28850,96249","bike_types":{"4":10},"place_type":"0","rack_locks":"1"},{"uid":"2585925","lat":"52.3031984","lng":"20.9891666","name":"Modli\u0144ska - \u017bera\u0144ska","spot":"1","number":"9629","bikes":"18","bike_racks":"30","free_racks":"11","terminal_type":"7inch","bike_numbers":"24849,28651,28533,27875,27753,27704,27632,27273,27259,27043,26769,26763,26678,26614,26188,25076,29125,29254","bike_types":{"4":17,"0":1},"place_type":"0","rack_locks":"1"},{"uid":"2585926","lat":"52.3150181","lng":"21.0610807","name":"Skarbka z G\u00f3r - Magiczna","spot":"1","number":"9630","bikes":"21","bike_racks":"30","free_racks":"9","terminal_type":"7inch","bike_numbers":"24705,24573,28771,28737,28699,28619,28607,28583,28526,28461,28373,27990,27538,27360,27279,27115,26881,26827,26768,26163,29130","bike_types":{"4":20,"0":1},"place_type":"0","rack_locks":"1"},{"uid":"2585928","lat":"52.3000268","lng":"21.0425266","name":"P\u0119tla Br\u00f3dno - Podgrodzie","spot":"1","number":"9631","bikes":"15","bike_racks":"16","free_racks":"1","terminal_type":"7inch","bike_numbers":"24979,28549,28484,27954,27040,26866,25943,25578,25101,96350,29273,29243,29236,29233,29230","bike_types":{"4":15},"place_type":"0","rack_locks":"1"},{"uid":"2585929","lat":"52.2939957","lng":"21.0272258","name":"Rembieli\u0144ska - Kondratowicza","spot":"1","number":"9632","bikes":"20","bike_racks":"23","free_racks":"3","terminal_type":"7inch","bike_numbers":"24827,25002,28685,28542,28395,28078,27687,27294,26956,26896,26630,26527,26352,26027,26022,25821,25807,25022,96218,29235","bike_types":{"4":20},"place_type":"0","rack_locks":"1"},{"uid":"2585931","lat":"52.2917236","lng":"21.0481189","name":"Targ\u00f3wek-Ratusz","spot":"1","number":"9633","bikes":"16","bike_racks":"22","free_racks":"6","terminal_type":"7inch","bike_numbers":"24676,28311,28009,27941,27922,27748,27636,27484,26275,26129,25781,25673,25552,29238,29228,96577","bike_types":{"4":16},"place_type":"0","rack_locks":"1"},{"uid":"2585932","lat":"52.292208","lng":"21.0419554","name":"Kondratowicza - Chodecka","spot":"1","number":"9634","bikes":"17","bike_racks":"23","free_racks":"6","terminal_type":"7inch","bike_numbers":"24903,28766,28151,27872,27654,27498,27487,26600,26488,26459,26404,26242,26221,25609,25347,25030,29239","bike_types":{"4":17},"place_type":"0","rack_locks":"1"},{"uid":"2585934","lat":"52.2925145","lng":"21.0573949","name":"Kondratowicza - Przy Grodzisku","spot":"1","number":"9635","bikes":"13","bike_racks":"18","free_racks":"5","terminal_type":"7inch","bike_numbers":"28688,28474,28402,27717,27575,27341,27206,27184,26862,25727,25590,25553,28990","bike_types":{"4":13},"place_type":"0","rack_locks":"1"},{"uid":"2585936","lat":"52.2878069","lng":"21.0213829","name":"Wysockiego - Poborza\u0144ska","spot":"1","number":"9636","bikes":"21","bike_racks":"23","free_racks":"4","terminal_type":"7inch","bike_numbers":"28758,28720,28567,28066,27978,27574,27455,27300,27127,27122,26758,26430,26305,25928,25738,25551,29112,29046,29043,25625,29231","bike_types":{"4":21},"place_type":"0","rack_locks":"1"},{"uid":"2585937","lat":"52.2885915","lng":"21.0310087","name":"Rembieli\u0144ska - Wyszogrodzka","spot":"1","number":"9637","bikes":"21","bike_racks":"30","free_racks":"9","terminal_type":"7inch","bike_numbers":"24929,28885,28629,28394,27929,27814,27742,27650,27576,27518,27400,27342,27249,26854,26820,26567,25710,29281,29280,29244,29240","bike_types":{"4":21},"place_type":"0","rack_locks":"1"},{"uid":"2585938","lat":"52.2864841","lng":"21.0401998","name":"Chodecka - \u017buromi\u0144ska","spot":"1","number":"9638","bikes":"13","bike_racks":"15","free_racks":"2","terminal_type":"7inch","bike_numbers":"28873,28075,27800,27525,27386,27316,26932,26824,26642,25660,25084,96367,29271","bike_types":{"4":13},"place_type":"0","rack_locks":"1"},{"uid":"2585939","lat":"52.281231017533","lng":"21.025852560997","name":"Wysockiego - Matki Teresy z Kalkuty","spot":"1","number":"9639","bikes":"16","bike_racks":"17","free_racks":"1","terminal_type":"7inch","bike_numbers":"28729,28691,27970,27546,27462,26943,26879,26391,26173,25997,25601,29088,29019,29551,24498,29132","bike_types":{"4":14,"51":1,"0":1},"place_type":"0","rack_locks":"1"},{"uid":"2585941","lat":"52.2835693","lng":"21.0720858","name":"Blokowa - DK Zacisze","spot":"1","number":"9640","bikes":"17","bike_racks":"18","free_racks":"1","terminal_type":"7inch","bike_numbers":"24761,28420,28322,28280,27980,27862,27550,27493,27454,27275,27260,27024,26771,26484,25783,28979,29275","bike_types":{"4":17},"place_type":"0","rack_locks":"1"},{"uid":"2585942","lat":"52.276259","lng":"21.0530748","name":"P\u0119tla Targ\u00f3wek","spot":"1","number":"9641","bikes":"13","bike_racks":"22","free_racks":"17","terminal_type":"7inch","bike_numbers":"24925,24543,28074,28064,27665,27329,26895,26871,26540,26382,25652,25549,96581","bike_types":{"4":13},"place_type":"0","rack_locks":"1"},{"uid":"2585943","lat":"52.27139","lng":"21.01566","name":"Jagiello\u0144ska - ALK","spot":"1","number":"9642","bikes":"14","bike_racks":"16","free_racks":"1","terminal_type":"7inch","bike_numbers":"28218,28118,26967,26378,26049,25700,25333,25253,25210,25170,96449,96163,29180,24047","bike_types":{"4":13,"26":1},"place_type":"0","rack_locks":"1"},{"uid":"2585947","lat":"52.2694683","lng":"21.0499817","name":"Ossowskiego","spot":"1","number":"9644","bikes":"17","bike_racks":"17","free_racks":"3","terminal_type":"7inch","bike_numbers":"24545,24463,28370,27975,27902,27595,27465,27443,27363,27262,26801,26754,25764,25096,29030,29362,29253","bike_types":{"4":16,"51":1},"place_type":"0","rack_locks":"1"},{"uid":"2585951","lat":"52.272602123161","lng":"21.063210368156","name":"Radzymi\u0144ska -Trocka","spot":"1","number":"9645","bikes":"15","bike_racks":"20","free_racks":"5","terminal_type":"7inch","bike_numbers":"28690,28507,28264,27811,27296,27187,26719,26588,25882,25513,25287,29434,96014,29274,96579","bike_types":{"4":15},"place_type":"0","rack_locks":"1"},{"uid":"2585953","lat":"52.27347","lng":"21.07698","name":"Bukowiecka - Zamkowa","spot":"1","number":"9646","bikes":"15","bike_racks":"15","free_racks":"2","terminal_type":"7inch","bike_numbers":"28874,28754,28585,27792,27313,27147,27106,26808,26291,25799,25571,25128,29097,28971,96318","bike_types":{"4":15},"place_type":"0","rack_locks":"1"},{"uid":"2585954","lat":"52.2668885","lng":"21.0585675","name":"Radzymi\u0144ska - Piotra Skargi","spot":"1","number":"9647","bikes":"13","bike_racks":"20","free_racks":"7","terminal_type":"7inch","bike_numbers":"24580,28378,27962,27530,27378,26767,25803,29107,28951,29433,96017,96286,96578","bike_types":{"4":13},"place_type":"0","rack_locks":"1"},{"uid":"2585955","lat":"52.2614369","lng":"21.0155744","name":"Wybrze\u017ce Helskie - ZOO","spot":"1","number":"9648","bikes":"14","bike_racks":"22","free_racks":"8","terminal_type":"7inch","bike_numbers":"24770,24729,24585,28479,28460,27979,27590,26981,25780,25214,25104,29136,28863,96291","bike_types":{"4":13,"0":1},"place_type":"0","rack_locks":"1"},{"uid":"2585956","lat":"52.2632492","lng":"21.0212231","name":"Rondo Starzy\u0144skiego","spot":"1","number":"9649","bikes":"24","bike_racks":"24","free_racks":"0","terminal_type":"7inch","bike_numbers":"24813,24745,28490,28095,27868,27760,27491,27470,26963,26921,26777,26679,26668,26485,26426,26362,26319,25914,25638,25099,29010,29373,29554,96592","bike_types":{"4":24},"place_type":"0","rack_locks":"1"},{"uid":"2585958","lat":"52.26421","lng":"21.02618","name":"Darwina - Nusbauma-Hilarowicza","spot":"1","number":"9650","bikes":"11","bike_racks":"21","free_racks":"9","terminal_type":"7inch","bike_numbers":"24952,24537,28304,28193,27562,27290,26751,26667,26500,26477,25473","bike_types":{"4":11},"place_type":"0","rack_locks":"1"},{"uid":"2585960","lat":"52.26554","lng":"21.03122","name":"Namys\u0142owska - Darwina","spot":"1","number":"9651","bikes":"13","bike_racks":"15","free_racks":"3","terminal_type":"7inch","bike_numbers":"28743,28321,27350,27126,26698,25523,25269,29282,29267,29264,29257,96584,96583","bike_types":{"4":13},"place_type":"0","rack_locks":"1"},{"uid":"2585961","lat":"52.2690405","lng":"21.0379493","name":"Rondo \u017baba","spot":"1","number":"9652","bikes":"11","bike_racks":"22","free_racks":"11","terminal_type":"7inch","bike_numbers":"28641,27956,27709,26958,26816,26194,26106,25596,25368,25300,29276","bike_types":{"4":11},"place_type":"0","rack_locks":"1"},{"uid":"2585963","lat":"52.2591682","lng":"21.0262224","name":"Jagiello\u0144ska - Plac Hallera","spot":"1","number":"9653","bikes":"12","bike_racks":"20","free_racks":"8","terminal_type":"7inch","bike_numbers":"28662,28447,28318,27631,26321,26225,26205,29003,28969,96401,96307,29248","bike_types":{"4":12},"place_type":"0","rack_locks":"1"},{"uid":"2585964","lat":"52.2613811","lng":"21.0305437","name":"Plac Hallera - Sawinkowa","spot":"1","number":"9654","bikes":"21","bike_racks":"28","free_racks":"7","terminal_type":"7inch","bike_numbers":"28689,28647,28575,28369,27601,27063,26702,26478,26348,26327,26243,26095,25872,25245,25139,25122,29108,29146,96339,29270,29258","bike_types":{"4":20,"0":1},"place_type":"0","rack_locks":"1"},{"uid":"2585967","lat":"52.263","lng":"21.03418","name":"Namys\u0142owska - Szymanowskiego","spot":"1","number":"9655","bikes":"16","bike_racks":"16","free_racks":"0","terminal_type":"7inch","bike_numbers":"24871,24592,28573,28220,27714,27570,27333,26985,26453,26302,26196,26037,25728,25050,96041,96430","bike_types":{"4":16},"place_type":"0","rack_locks":"1"},{"uid":"2585968","lat":"52.2538188","lng":"21.0231542","name":"Ratuszowa - ZOO","spot":"1","number":"9656","bikes":"18","bike_racks":"23","free_racks":"5","terminal_type":"7inch","bike_numbers":"24649,28568,28556,28552,28358,28270,28126,27523,27419,27267,26927,26694,26686,25496,25357,25120,96530,29247","bike_types":{"4":18},"place_type":"0","rack_locks":"1"},{"uid":"2585971","lat":"52.256355","lng":"21.029538","name":"Jagiello\u0144ska - Ratuszowa","spot":"1","number":"9657","bikes":"10","bike_racks":"16","free_racks":"6","terminal_type":"7inch","bike_numbers":"28462,28325,28312,27399,27397,26463,26375,28816,29260,29256","bike_types":{"4":10},"place_type":"0","rack_locks":"1"},{"uid":"2585972","lat":"52.261449","lng":"21.037614","name":"11 Listopada - Ratuszowa","spot":"1","number":"9658","bikes":"20","bike_racks":"30","free_racks":"10","terminal_type":"7inch","bike_numbers":"24558,28553,28329,27667,27651,27560,27284,27194,27180,26949,26843,26556,26276,26240,25810,25362,25154,29090,28836,28830","bike_types":{"4":20},"place_type":"0","rack_locks":"1"},{"uid":"2585974","lat":"52.263109","lng":"21.0381895","name":"11 listopada - \u015arodkowa","spot":"1","number":"9659","bikes":"12","bike_racks":"18","free_racks":"6","terminal_type":"7inch","bike_numbers":"24845,28566,27920,27840,27405,26940,26450,26423,26384,25811,25085,29265","bike_types":{"4":12},"place_type":"0","rack_locks":"1"},{"uid":"2585975","lat":"52.25839","lng":"21.03537","name":"Stalowa - 11 Listopada","spot":"1","number":"9660","bikes":"18","bike_racks":"24","free_racks":"6","terminal_type":"7inch","bike_numbers":"24644,28764,28476,28427,27936,27520,26505,26482,26435,26329,26229,26061,25902,96433,96325,29194,29278,29249","bike_types":{"4":18},"place_type":"0","rack_locks":"1"},{"uid":"2585978","lat":"52.234791","lng":"21.07905","name":"al. Stan\u00f3w Zjednoczonych - Ostrobramska","spot":"1","number":"9661","bikes":"12","bike_racks":"20","free_racks":"7","terminal_type":"7inch","bike_numbers":"28421,27886,27542,27433,27367,27157,27099,26634,25421,25271,25149,25027","bike_types":{"4":12},"place_type":"0","rack_locks":"1"},{"uid":"2585981","lat":"52.2524758","lng":"21.0303479","name":"Floria\u0144ska - Park Praski","spot":"1","number":"9662","bikes":"20","bike_racks":"23","free_racks":"3","terminal_type":"7inch","bike_numbers":"24744,24631,27966,27858,27629,26601,26433,26127,25938,25865,25853,25747,25655,25617,25393,29338,28956,29120,28844,29164","bike_types":{"4":19,"0":1},"place_type":"0","rack_locks":"1"},{"uid":"2585982","lat":"52.2549757","lng":"21.0339005","name":"Plac Wile\u0144ski","spot":"1","number":"9663","bikes":"32","bike_racks":"30","free_racks":"2","terminal_type":"7inch","bike_numbers":"24878,24601,24484,28745,28665,28658,28326,28087,28024,27901,27834,27616,27551,27337,27304,27199,26906,26584,26455,26361,26355,26070,25973,25688,25562,25161,29348,29357,28893,28917,96434,29212","bike_types":{"4":31,"51":1},"place_type":"0","rack_locks":"1"},{"uid":"2585983","lat":"52.2579576","lng":"21.0399804","name":"Wile\u0144ska - Rzeszotarskiej","spot":"1","number":"9664","bikes":"15","bike_racks":"16","free_racks":"1","terminal_type":"7inch","bike_numbers":"24606,24502,26472,26342,26210,25942,25661,25053,29374,29641,96491,29151,96587,96586,96576","bike_types":{"4":15},"place_type":"0","rack_locks":"1"},{"uid":"2585984","lat":"52.2475848","lng":"20.9568001","name":"al. Prymasa Tysi\u0105clecia - Obozowa","spot":"1","number":"9665","bikes":"8","bike_racks":"13","free_racks":"5","terminal_type":"7inch","bike_numbers":"24461,27214,26836,26296,96513,96471,96445,96112","bike_types":{"51":1,"4":7},"place_type":"0","rack_locks":"1"},{"uid":"2585985","lat":"52.248607","lng":"21.029647","name":"Okrzei - Panie\u0144ska","spot":"1","number":"9666","bikes":"14","bike_racks":"16","free_racks":"2","terminal_type":"7inch","bike_numbers":"24938,24504,24490,24487,24481,24462,27670,27425,27288,27278,26848,26265,29051,96264","bike_types":{"4":10,"51":4},"place_type":"0","rack_locks":"1"},{"uid":"2585987","lat":"52.2506334","lng":"21.0311174","name":"Sierakowskiego - K\u0142opotowskiego","spot":"1","number":"9667","bikes":"25","bike_racks":"25","free_racks":"0","terminal_type":"7inch","bike_numbers":"24947,28313,28302,28301,28061,28045,27977,27690,27303,27298,27010,26392,26220,25960,25918,25881,25805,25787,25470,29025,29659,28964,96499,96165,29250","bike_types":{"4":25},"place_type":"0","rack_locks":"1"},{"uid":"2585990","lat":"52.2520876","lng":"21.0381368","name":"Targowa - Z\u0105bkowska","spot":"1","number":"9668","bikes":"9","bike_racks":"18","free_racks":"6","terminal_type":"7inch","bike_numbers":"24459,28586,28299,27287,26456,26267,25836,25813,29062","bike_types":{"51":1,"4":8},"place_type":"0","rack_locks":"1"},{"uid":"2585992","lat":"52.2544855","lng":"21.0433458","name":"Fabryka W\u00f3dek Koneser","spot":"1","number":"9669","bikes":"17","bike_racks":"25","free_racks":"0","terminal_type":"7inch","bike_numbers":"24551,28295,28012,27712,27580,27427,27401,27324,27130,26907,26733,26183,25977,25709,25182,29087,29004","bike_types":{"4":17},"place_type":"0","rack_locks":"1"},{"uid":"2585994","lat":"52.2559027","lng":"21.0495613","name":"Radzymi\u0144ska - Wiosenna","spot":"1","number":"9670","bikes":"18","bike_racks":"26","free_racks":"3","terminal_type":"7inch","bike_numbers":"24738,24632,24575,28901,28296,28014,27212,26823,26672,26649,26408,26326,26259,25876,29116,29368,29143,28799","bike_types":{"4":17,"0":1},"place_type":"0","rack_locks":"1"},{"uid":"2585995","lat":"52.25965","lng":"21.0529","name":"Radzymi\u0144ska - \u0141om\u017cy\u0144ska","spot":"1","number":"9671","bikes":"8","bike_racks":"24","free_racks":"14","terminal_type":"7inch","bike_numbers":"27502,27318,26987,26343,29056,96561,29262,29261","bike_types":{"4":8},"place_type":"0","rack_locks":"1"},{"uid":"2585996","lat":"52.2583512","lng":"21.0585337","name":"P\u0119tla Kaw\u0119czy\u0144ska-Bazylika","spot":"1","number":"9672","bikes":"8","bike_racks":"26","free_racks":"15","terminal_type":"7inch","bike_numbers":"24657,27805,27695,27482,27331,26897,25666,25642,25292,29269","bike_types":{"4":10},"place_type":"0","rack_locks":"1"},{"uid":"2585997","lat":"52.249864871462","lng":"21.042911410332","name":"Targowa - Kijowska","spot":"1","number":"9673","bikes":"16","bike_racks":"18","free_racks":"2","terminal_type":"7inch","bike_numbers":"24857,24642,28332,28262,27301,27029,26976,26886,26757,26682,26336,26315,26271,25524,25505,96528","bike_types":{"4":16},"place_type":"0","rack_locks":"1"},{"uid":"2586000","lat":"52.252745","lng":"21.0510331","name":"Dworzec Wschodni - Kijowska","spot":"1","number":"9674","bikes":"23","bike_racks":"27","free_racks":"4","terminal_type":"7inch","bike_numbers":"24608,24486,24478,28632,28429,28348,28330,27960,27675,27476,27440,27366,26764,26706,26066,25921,25280,25088,29343,29388,96510,29219,96588","bike_types":{"4":21,"51":2},"place_type":"0","rack_locks":"1"},{"uid":"2586001","lat":"52.247314","lng":"21.042731","name":"Metro Stadion Narodowy","spot":"1","number":"9675","bikes":"14","bike_racks":"15","free_racks":"1","terminal_type":"7inch","bike_numbers":"24901,24557,27775,27248,26737,26530,25429,25372,25150,25125,28934,96055,96001,96292","bike_types":{"4":14},"place_type":"0","rack_locks":"1"},{"uid":"2586003","lat":"52.2472308","lng":"21.0476456","name":"al. Zieleniecka - Teatr Powszechny","spot":"1","number":"9676","bikes":"13","bike_racks":"14","free_racks":"1","terminal_type":"7inch","bike_numbers":"24940,24717,24465,28057,26936,26513,26428,26325,26184,25654,25389,29084,28840","bike_types":{"4":12,"51":1},"place_type":"0","rack_locks":"1"},{"uid":"2586005","lat":"52.247346","lng":"21.055947","name":"Grochowska - Mi\u0144ska","spot":"1","number":"9677","bikes":"9","bike_racks":"22","free_racks":"14","terminal_type":"7inch","bike_numbers":"24881,24793,24687,28515,28274,27817,26852,26174,26068","bike_types":{"4":9},"place_type":"0","rack_locks":"1"},{"uid":"2586009","lat":"52.2464","lng":"21.06868","name":"Praga-Po\u0142udnie-Ratusz","spot":"1","number":"9678","bikes":"9","bike_racks":"15","free_racks":"5","terminal_type":"7inch","bike_numbers":"28614,28134,27589,27203,26972,26840,26263,28856,28853","bike_types":{"4":9},"place_type":"0","rack_locks":"1"},{"uid":"2586011","lat":"52.2501129","lng":"21.0772011","name":"Dwernickiego - Siennicka","spot":"1","number":"9679","bikes":"17","bike_racks":"25","free_racks":"9","terminal_type":"7inch","bike_numbers":"28597,28509,28496,28438,28091,28027,27733,27730,27101,27034,27020,26629,26595,26383,25607,25100,96589","bike_types":{"4":17},"place_type":"0","rack_locks":"1"},{"uid":"2586012","lat":"52.260428882956","lng":"21.041538119316","name":"Stalowa - Czynszowa","spot":"1","number":"9680","bikes":"13","bike_racks":"15","free_racks":"4","terminal_type":"7inch","bike_numbers":"28308,28058,27892,27503,27388,27015,26888,26354,26109,25530,25352,96155,29155","bike_types":{"4":13},"place_type":"0","rack_locks":"1"},{"uid":"2586014","lat":"52.2372419","lng":"21.0437644","name":"Wybrze\u017ce Szczeci\u0144skie - Stadion Narodowy","spot":"1","number":"9681","bikes":"24","bike_racks":"23","free_racks":"0","terminal_type":"7inch","bike_numbers":"24469,28744,28741,28705,28581,28452,28367,28077,28076,27971,27947,27727,27466,27291,27256,27178,27061,26635,26232,25195,25112,29005,28823,96500","bike_types":{"51":1,"4":23},"place_type":"0","rack_locks":"1"},{"uid":"2586018","lat":"52.2387103","lng":"21.0507515","name":"Rondo Waszyngtona - Stadion Narodowy","spot":"1","number":"9682","bikes":"16","bike_racks":"27","free_racks":"11","terminal_type":"7inch","bike_numbers":"24613,28660,28324,28307,28100,27930,27755,27627,27559,27372,27038,26517,26511,26053,25369,25217","bike_types":{"4":16},"place_type":"0","rack_locks":"1"},{"uid":"2586019","lat":"52.242281006874","lng":"21.071160435677","name":"Waszyngtona - Kinowa","spot":"1","number":"9683","bikes":"6","bike_racks":"15","free_racks":"9","terminal_type":"7inch","bike_numbers":"27297,27019,26795,25736,25583,29255","bike_types":{"4":6},"place_type":"0","rack_locks":"1"},{"uid":"2586021","lat":"52.2445639","lng":"21.0838057","name":"Rondo Wiatraczna","spot":"1","number":"9684","bikes":"20","bike_racks":"30","free_racks":"10","terminal_type":"7inch","bike_numbers":"24946,24927,24754,24518,24457,24008,27968,27699,27652,27330,27210,27140,27109,26125,26029,25405,25142,29127,28809,96435","bike_types":{"4":17,"51":1,"26":1,"0":1},"place_type":"0","rack_locks":"1"},{"uid":"2586022","lat":"52.2347451","lng":"21.053651","name":"Francuska - Walecznych","spot":"1","number":"9685","bikes":"10","bike_racks":"15","free_racks":"5","terminal_type":"7inch","bike_numbers":"24875,28267,27548,27527,27173,26995,26387,26323,96267,96096","bike_types":{"4":10},"place_type":"0","rack_locks":"1"},{"uid":"2586024","lat":"52.236598","lng":"21.064774","name":"Mi\u0119dzynarodowa - Walecznych","spot":"1","number":"9686","bikes":"9","bike_racks":"15","free_racks":"6","terminal_type":"7inch","bike_numbers":"28589,26929,26085,25360,25129,29061,29133,96051,96311","bike_types":{"4":8,"0":1},"place_type":"0","rack_locks":"1"},{"uid":"2586026","lat":"52.243020071904","lng":"21.102375984192","name":"Plac Szembeka","spot":"1","number":"9687","bikes":"9","bike_racks":"15","free_racks":"8","terminal_type":"7inch","bike_numbers":"24893,28802,28271,27686,26970,26582,25982,25608,96277","bike_types":{"4":9},"place_type":"0","rack_locks":"1"},{"uid":"2586028","lat":"52.237559","lng":"21.120087","name":"P\u0119tla Goc\u0142awek","spot":"1","number":"9688","bikes":"9","bike_racks":"16","free_racks":"7","terminal_type":"7inch","bike_numbers":"28105,27953,27202,27082,25808,25538,25158,29458,25630","bike_types":{"4":9},"place_type":"0","rack_locks":"1"},{"uid":"2586030","lat":"52.2258359","lng":"21.0600907","name":"Brukselska - PROM","spot":"1","number":"9689","bikes":"15","bike_racks":"15","free_racks":"0","terminal_type":"7inch","bike_numbers":"24796,28675,28539,28432,28028,27780,27658,27489,26741,26726,26153,25830,25589,25370,96019","bike_types":{"4":15},"place_type":"0","rack_locks":"1"},{"uid":"2586031","lat":"52.260205610017","lng":"21.046854257584","name":"al. Solidarno\u015bci - Szwedzka","spot":"1","number":"9690","bikes":"10","bike_racks":"18","free_racks":"8","terminal_type":"7inch","bike_numbers":"28026,27881,27383,25527,25238,28948,96453,29266,29263,29252","bike_types":{"4":10},"place_type":"0","rack_locks":"1"},{"uid":"2586032","lat":"52.230088","lng":"21.067948","name":"al. Stan\u00f3w Zjednoczonych - Mi\u0119dzynarodowa","spot":"1","number":"9691","bikes":"19","bike_racks":"26","free_racks":"7","terminal_type":"7inch","bike_numbers":"24611,28756,28672,28516,27998,27782,27338,27220,27030,26518,26301,26264,26200,26143,26141,26096,25327,25028,96219","bike_types":{"4":19},"place_type":"0","rack_locks":"1"},{"uid":"2586034","lat":"52.23483","lng":"21.09975","name":"Ostrobramska - Zamieniecka","spot":"1","number":"9692","bikes":"11","bike_racks":"23","free_racks":"12","terminal_type":"7inch","bike_numbers":"24939,24512,28623,27107,27087,26151,25899,25325,25267,25198,29639","bike_types":{"4":11},"place_type":"0","rack_locks":"1"},{"uid":"2586037","lat":"52.2251969","lng":"21.0712892","name":"Afryka\u0144ska - Egipska","spot":"1","number":"9693","bikes":"13","bike_racks":"16","free_racks":"3","terminal_type":"7inch","bike_numbers":"24968,24858,24816,28080,26973,26148,26059,25690,25455,25321,25244,28860,28851","bike_types":{"4":13},"place_type":"0","rack_locks":"1"},{"uid":"2586039","lat":"52.22837","lng":"21.08581","name":"Abrahama - Kapelan\u00f3w AK","spot":"1","number":"9694","bikes":"11","bike_racks":"15","free_racks":"4","terminal_type":"7inch","bike_numbers":"28380,27907,27612,27193,26874,26734,25947,25944,25907,25298,28837","bike_types":{"4":11},"place_type":"0","rack_locks":"1"},